{"type":"FeatureCollection","features":[{"type":"Feature","geometry":{"type":"Point","coordinates":[9.94054,47.47752]},"properties":{"id":"node/2238213834","name":"Kleinwasserkraftwerk Bolgenach","fuel":"hydro","source":"hydro","method":"run-of-the-river","capacityMW":0.142,"operator":"Vorarlberger Kraftwerke AG"}},{"type":"Feature","geometry":{"type":"Point","coordinates":[13.58199,47.39973]},"properties":{"id":"node/8083027595","name":"Kraftwerk Mandling","fuel":"hydro","source":"hydro","capacityMW":6,"operator":"Verbund Hydro Power GmbH"}},{"type":"Feature","geometry":{"type":"Point","coordinates":[14.31518,46.62962]},"properties":{"id":"way/154743473","name":"Fernheizkraftwerk","fuel":"gas","source":"gas","method":"combustion"}},{"type":"Feature","geometry":{"type":"Point","coordinates":[13.84961,47.19676]},"properties":{"id":"node/11127353247","name":"KW Bodenmoosgraben","fuel":"hydro","source":"hydro","capacityMW":0.0096,"operator":"Dietrich Mateschitz Liegenschaften GmbH","start":"1939"}},{"type":"Feature","geometry":{"type":"Point","coordinates":[13.18585,47.3207]},"properties":{"id":"node/13103247802","name":"Kraftwerk Plankenau","fuel":"hydro","source":"hydro","method":"run-of-the-river","capacityMW":11.2,"operator":"Energie AG"}},{"type":"Feature","geometry":{"type":"Point","coordinates":[14.32435,48.29971]},"properties":{"id":"way/15734776","name":"Fernheizkraftwerk Linz-Mitte","fuel":"gas","source":"gas;waste;biomass","method":"combustion","capacityMW":251,"operator":"LINZ AG","start":"1970"}},{"type":"Feature","geometry":{"type":"Point","coordinates":[16.33958,48.33256]},"properties":{"id":"way/20821224","name":"Wärmekraftwerk Korneuburg","fuel":"gas","source":"gas","method":"combustion","capacityMW":455,"operator":"EVN AG & VERBUND AG","start":"1958"}},{"type":"Feature","geometry":{"type":"Point","coordinates":[12.16935,47.21146]},"properties":{"id":"way/25442808","name":"Kraftwerk","fuel":"hydro","source":"hydro"}},{"type":"Feature","geometry":{"type":"Point","coordinates":[13.4363,48.5536]},"properties":{"id":"way/27661875","name":"Kraftwerk Passau-Ingling","fuel":"hydro","source":"hydro","method":"run-of-the-river","capacityMW":86.4,"operator":"Grenzkraftwerke GmbH"}},{"type":"Feature","geometry":{"type":"Point","coordinates":[16.46229,48.19973]},"properties":{"id":"way/27757801","name":"Kraftwerk Donaustadt","fuel":"gas","source":"gas","method":"combustion","capacityMW":367,"operator":"Wien Energie GmbH","start":"1973-09-24"}},{"type":"Feature","geometry":{"type":"Point","coordinates":[15.9197,48.32419]},"properties":{"id":"way/28282451","name":"Unnamed site","fuel":"solar","source":"solar","method":"photovoltaic"}},{"type":"Feature","geometry":{"type":"Point","coordinates":[15.92238,48.3224]},"properties":{"id":"way/28282452","name":"Unnamed site","fuel":"solar","source":"solar","method":"photovoltaic"}},{"type":"Feature","geometry":{"type":"Point","coordinates":[13.00784,48.24464]},"properties":{"id":"way/28599518","name":"Innkraftwerk Braunau-Simbach","fuel":"hydro","source":"hydro","method":"run-of-the-river","capacityMW":100,"operator":"Österreichisch-Bayerische Kraftwerke AG"}},{"type":"Feature","geometry":{"type":"Point","coordinates":[12.56806,47.26227]},"properties":{"id":"way/28620626","name":"Kraftwerk Uttendorf","fuel":"hydro","source":"hydro","method":"water-storage","capacityMW":93,"operator":"ÖBB"}},{"type":"Feature","geometry":{"type":"Point","coordinates":[14.609,48.41875]},"properties":{"id":"way/28682182","name":"Fernwärme Gutau","fuel":"bioenergy","source":"biomass","method":"combustion","operator":"Fernwärme Gutau eGen","start":"2006-09"}},{"type":"Feature","geometry":{"type":"Point","coordinates":[14.63905,48.41285]},"properties":{"id":"way/28874163","name":"Kraftwerk Riedlhammer","fuel":"hydro","source":"hydro","method":"run-of-the-river","operator":"EBNER STROM GmbH"}},{"type":"Feature","geometry":{"type":"Point","coordinates":[13.492,47.73655]},"properties":{"id":"way/29193195","name":"Kraftwerk Schwarzenbach","fuel":"hydro","source":"hydro","method":"water-storage","operator":"Energie AG","start":"1908"}},{"type":"Feature","geometry":{"type":"Point","coordinates":[10.77254,47.47945]},"properties":{"id":"way/30087909","name":"Kraftwerk Seesperre","fuel":"hydro","source":"hydro","method":"water-storage","capacityMW":0.9,"operator":"Elektrizitätswerke Reutte","start":"1903"}},{"type":"Feature","geometry":{"type":"Point","coordinates":[9.87487,47.08443]},"properties":{"id":"way/30240653","name":"Rodundwerk II","fuel":"pumped","source":"hydro","method":"water-pumped-storage","capacityMW":295,"operator":"Vorarlberger Illwerke AG"}},{"type":"Feature","geometry":{"type":"Point","coordinates":[15.55838,47.54789]},"properties":{"id":"way/30364826","name":"Kleinwasserkraftwerk Hönigtal","fuel":"hydro","source":"hydro","operator":"EVN"}},{"type":"Feature","geometry":{"type":"Point","coordinates":[14.72286,47.17433]},"properties":{"id":"way/30380114","name":"Kraftwerk Fisching","fuel":"hydro","source":"hydro","method":"run-of-the-river","capacityMW":22,"operator":"Verbund Hydro Power GmbH","start":"1995"}},{"type":"Feature","geometry":{"type":"Point","coordinates":[13.21029,47.37483]},"properties":{"id":"way/30512216","name":"Kraftwerk Urreiting","fuel":"hydro","source":"hydro","method":"run-of-the-river","capacityMW":17,"operator":"Salzburg AG"}},{"type":"Feature","geometry":{"type":"Point","coordinates":[11.7568,47.38922]},"properties":{"id":"way/30880774","name":"Achenseekraftwerk","fuel":"hydro","source":"hydro","method":"water-storage","capacityMW":79,"operator":"TIWAG"}},{"type":"Feature","geometry":{"type":"Point","coordinates":[13.79619,47.9334]},"properties":{"id":"way/31007053","name":"Kraftwerk Gmunden","fuel":"hydro","source":"hydro","method":"run-of-the-river","capacityMW":12.2,"operator":"Energie AG","start":"1968"}},{"type":"Feature","geometry":{"type":"Point","coordinates":[15.9198,48.3247]},"properties":{"id":"way/31289685","name":"Kraftwerk Dürnrohr","fuel":"gas","source":"gas;waste","method":"combustion","capacityMW":352,"operator":"VERBUND Austrian Thermal Power AG; EVN AG"}},{"type":"Feature","geometry":{"type":"Point","coordinates":[9.66959,47.1989]},"properties":{"id":"way/31428153","name":"Walgaukraftwerk","fuel":"hydro","source":"hydro","method":"water-storage","capacityMW":94,"operator":"illwerke vkw"}},{"type":"Feature","geometry":{"type":"Point","coordinates":[11.39879,47.20244]},"properties":{"id":"way/32488160","name":"Zwischenkraftwerk Obere Sill","fuel":"hydro","source":"hydro","method":"run-of-the-river","capacityMW":1.6,"operator":"IKB AG","start":"1966"}},{"type":"Feature","geometry":{"type":"Point","coordinates":[14.46832,48.09871]},"properties":{"id":"way/33062622","name":"Kraftwerk Staning","fuel":"hydro","source":"hydro","method":"run-of-the-river","capacityMW":43,"operator":"Ennskraftwerke AG"}},{"type":"Feature","geometry":{"type":"Point","coordinates":[13.58837,48.01205]},"properties":{"id":"way/33840137","name":"Kraftwerk Timelkam","fuel":"gas","source":"gas","method":"combustion","capacityMW":405,"operator":"Energie AG"}},{"type":"Feature","geometry":{"type":"Point","coordinates":[13.31906,48.31955]},"properties":{"id":"way/34196640","name":"Laufwasserkraftwerk Egglfing-Obernberg","fuel":"hydro","source":"hydro","method":"run-of-the-river","capacityMW":80.7,"operator":"Verbund Hydro Power AG"}},{"type":"Feature","geometry":{"type":"Point","coordinates":[16.45931,48.17433]},"properties":{"id":"way/34202023","name":"Sonderabfall- und Klärschlamm-Verbrennungsanlage Simmeringer Haide","fuel":"waste","source":"waste","method":"combustion","capacityMW":9,"operator":"Wien Energie GmbH"}},{"type":"Feature","geometry":{"type":"Point","coordinates":[16.46078,48.17679]},"properties":{"id":"way/34202024","name":"Müllverbrennungsanlage Pfaffenau / Biogas Wien","fuel":"waste","source":"waste","method":"combustion","capacityMW":14,"operator":"Wiener Kommunal-Umweltschutzprojektgesellschaft m.b.H.","start":"2008-09"}},{"type":"Feature","geometry":{"type":"Point","coordinates":[15.33248,48.59237]},"properties":{"id":"way/39596992","name":"Pumpspeicherkraftwerk Ottenstein","fuel":"hydro","source":"hydro","method":"water-storage","capacityMW":48,"operator":"EVN","start":"1957-07-06"}},{"type":"Feature","geometry":{"type":"Point","coordinates":[16.82066,48.03305]},"properties":{"id":"way/44060867","name":"Biogas Bruck/Leitha","fuel":"bioenergy","source":"biomass","method":"anaerobic_digestion","capacityMW":1.362,"operator":"Biogas Bruck/Leitha GmbH & Co KG"}},{"type":"Feature","geometry":{"type":"Point","coordinates":[15.7086,48.3949]},"properties":{"id":"way/47001764","name":"Kraftwerk Theiß","fuel":"gas","source":"gas","method":"combustion","capacityMW":800,"operator":"EVN"}},{"type":"Feature","geometry":{"type":"Point","coordinates":[16.23486,47.96688]},"properties":{"id":"way/48456232","name":"Unnamed site","fuel":"solar","source":"solar","method":"photovoltaic"}},{"type":"Feature","geometry":{"type":"Point","coordinates":[13.0382,47.80932]},"properties":{"id":"way/56126690","name":"Heizkraftwerk Salzburg Mitte","fuel":"gas","source":"gas","method":"combustion","capacityMW":84,"operator":"Salzburg AG","start":"1955;2001"}},{"type":"Feature","geometry":{"type":"Point","coordinates":[14.22347,48.20629]},"properties":{"id":"way/61015936","name":"Kraftwerk Traun-Pucking","fuel":"hydro","source":"hydro","method":"run-of-the-river","capacityMW":45.8,"operator":"Energie AG Oberösterreich","start":"1983"}},{"type":"Feature","geometry":{"type":"Point","coordinates":[16.29807,48.08469]},"properties":{"id":"way/62295861","name":"Biomasseheizkraftwerk Mödling","fuel":"bioenergy","source":"biomass","method":"combustion","capacityMW":5,"operator":"EVN"}},{"type":"Feature","geometry":{"type":"Point","coordinates":[15.68259,48.25435]},"properties":{"id":"way/70621821","name":"Unnamed site","fuel":"other"}},{"type":"Feature","geometry":{"type":"Point","coordinates":[15.28822,47.85243]},"properties":{"id":"way/72230496","name":"Kraftwerk Wienerbruck","fuel":"hydro","source":"hydro","method":"run-of-the-river","capacityMW":7.8,"operator":"EVN","start":"1910"}},{"type":"Feature","geometry":{"type":"Point","coordinates":[10.53265,47.49834]},"properties":{"id":"way/80286405","name":"Fernwärmekraftwerk","fuel":"bioenergy","source":"biomass"}},{"type":"Feature","geometry":{"type":"Point","coordinates":[13.63273,47.60836]},"properties":{"id":"way/80517917","name":"Kraftwerk Steeg","fuel":"hydro","source":"hydro","method":"run-of-the-river","capacityMW":13.3,"operator":"Energie AG","start":"1910"}},{"type":"Feature","geometry":{"type":"Point","coordinates":[10.74491,47.45034]},"properties":{"id":"way/81550197","name":"Kraftwerk Heiterwang","fuel":"hydro","source":"hydro","method":"water-storage","capacityMW":8,"operator":"Elektrizitätswerke Reutte","start":"1903"}},{"type":"Feature","geometry":{"type":"Point","coordinates":[10.75137,47.49317]},"properties":{"id":"way/81626041","name":"Kraftwerk Plansee","fuel":"hydro","source":"hydro","method":"water-storage","capacityMW":17.8,"operator":"Elektrizitätswerke Reutte","start":"1903"}},{"type":"Feature","geometry":{"type":"Point","coordinates":[15.82919,47.70258]},"properties":{"id":"way/82144090","name":"Kraftwerk Hoffeld","fuel":"hydro","source":"hydro","method":"run-of-the-river","operator":"EVN Naturkraft Erzeugungsgesellschaft m.b.H","start":"1926"}},{"type":"Feature","geometry":{"type":"Point","coordinates":[9.91447,47.52428]},"properties":{"id":"way/82320833","name":"Biomasse-Heizwerk Sulzberg","fuel":"bioenergy","source":"biomass","start":"2002"}},{"type":"Feature","geometry":{"type":"Point","coordinates":[12.19871,47.64141]},"properties":{"id":"way/83231884","name":"Wasserkraftwerk Oberaudorf-Ebbs","fuel":"hydro","source":"hydro","method":"run-of-the-river","capacityMW":59,"operator":"Österreichisch-Bayerische Kraftwerke AG"}},{"type":"Feature","geometry":{"type":"Point","coordinates":[13.64546,46.53569]},"properties":{"id":"way/83249079","name":"Kraftwerk Thörl","fuel":"hydro","source":"hydro","operator":"KELAG","start":"1939"}},{"type":"Feature","geometry":{"type":"Point","coordinates":[10.72418,47.50855]},"properties":{"id":"way/83274749","name":"Kraftwerk Hüttenmühle","fuel":"hydro","source":"hydro","capacityMW":0.9,"start":"1984"}},{"type":"Feature","geometry":{"type":"Point","coordinates":[15.85558,48.3744]},"properties":{"id":"way/83615732","name":"Kraftwerk Altenwörth","fuel":"hydro","source":"hydro","method":"run-of-the-river","capacityMW":328,"operator":"Verbund Hydro Power GmbH","start":"1976"}},{"type":"Feature","geometry":{"type":"Point","coordinates":[13.32933,46.87066]},"properties":{"id":"way/83805041","name":"Malta Hauptstufe","fuel":"pumped","source":"hydro","method":"water-pumped-storage","capacityMW":730,"operator":"Verbund Hydro Power GmbH","start":"1979"}},{"type":"Feature","geometry":{"type":"Point","coordinates":[13.36024,46.8333]},"properties":{"id":"way/83892419","name":"Malta Unterstufe","fuel":"hydro","source":"hydro","capacityMW":41,"operator":"Verbund Hydro Power GmbH","start":"1979"}},{"type":"Feature","geometry":{"type":"Point","coordinates":[15.09501,47.38866]},"properties":{"id":"way/84505849","name":"Wasserkraftwerk Leoben","fuel":"hydro","source":"hydro","method":"run-of-the-river","capacityMW":10,"operator":"Verbund Hydro Power GmbH"}},{"type":"Feature","geometry":{"type":"Point","coordinates":[10.71049,47.48649]},"properties":{"id":"way/85138887","name":"Kraftwerk Reutte II","fuel":"hydro","source":"hydro","method":"water-storage","start":"1956"}},{"type":"Feature","geometry":{"type":"Point","coordinates":[10.02986,46.98309]},"properties":{"id":"way/85799225","name":"Biomasse Heizwerk","fuel":"bioenergy","source":"biomass"}},{"type":"Feature","geometry":{"type":"Point","coordinates":[10.0537,46.92756]},"properties":{"id":"way/85800534","name":"Obervermuntwerk 1","fuel":"pumped","source":"hydro","method":"water-pumped-storage","capacityMW":29,"operator":"illwerke vkw","start":"1943"}},{"type":"Feature","geometry":{"type":"Point","coordinates":[13.07164,46.86741]},"properties":{"id":"way/86276232","name":"Kraftwerk Wölla","fuel":"hydro","source":"hydro","capacityMW":18,"operator":"KELAG"}},{"type":"Feature","geometry":{"type":"Point","coordinates":[12.95716,46.99544]},"properties":{"id":"way/86299764","name":"Kraftwerk Zirknitz","fuel":"hydro","source":"hydro","capacityMW":32,"operator":"KELAG","start":"1973"}},{"type":"Feature","geometry":{"type":"Point","coordinates":[16.18977,47.30561]},"properties":{"id":"way/86585581","name":"Biomassekraftwerk Oberwart","fuel":"bioenergy","source":"biomass"}},{"type":"Feature","geometry":{"type":"Point","coordinates":[16.26125,47.99229]},"properties":{"id":"way/86991790","name":"Biomasseheizkraftwerk Baden","fuel":"bioenergy","source":"biomass","capacityMW":5,"operator":"EVN"}},{"type":"Feature","geometry":{"type":"Point","coordinates":[15.94412,48.5999]},"properties":{"id":"way/88811958","name":"Fernwärme Heizwerk Sitzendorf an der Schmida","fuel":"bioenergy","source":"biomass","operator":"EVN Niederösterreich"}},{"type":"Feature","geometry":{"type":"Point","coordinates":[16.39366,47.90505]},"properties":{"id":"way/88831489","name":"Kleinwasserkraftwerk Pottendorf","fuel":"hydro","source":"hydro","method":"run-of-the-river","operator":"EVN Naturkraft"}},{"type":"Feature","geometry":{"type":"Point","coordinates":[13.10653,47.15089]},"properties":{"id":"way/88844735","name":"UW Angertal","fuel":"hydro","source":"hydro","method":"water-storage","operator":"Salzburg AG"}},{"type":"Feature","geometry":{"type":"Point","coordinates":[15.99009,47.28049]},"properties":{"id":"way/88868267","name":"Fernheizwerk Hartberg","fuel":"bioenergy","source":"biomass","method":"combustion","operator":"KELAG Wärme GmbH"}},{"type":"Feature","geometry":{"type":"Point","coordinates":[13.09228,46.93381]},"properties":{"id":"way/89027365","name":"Kraftwerk Gößnitz","fuel":"hydro","source":"hydro","capacityMW":8,"operator":"KELAG","start":"1965"}},{"type":"Feature","geometry":{"type":"Point","coordinates":[13.21057,47.44128]},"properties":{"id":"way/90197334","name":"Kraftwerk Kreuzbergmaut","fuel":"hydro","source":"hydro","method":"run-of-the-river","capacityMW":18,"operator":"Salzburg AG"}},{"type":"Feature","geometry":{"type":"Point","coordinates":[14.27299,47.70205]},"properties":{"id":"way/90940218","name":"Unnamed site","fuel":"other"}},{"type":"Feature","geometry":{"type":"Point","coordinates":[13.05199,46.97716]},"properties":{"id":"way/91964304","name":"Kraftwerk Innerfragant","fuel":"pumped","source":"hydro","method":"water-pumped-storage","capacityMW":178,"operator":"KELAG","start":"1968"}},{"type":"Feature","geometry":{"type":"Point","coordinates":[14.02295,48.38512]},"properties":{"id":"way/92873348","name":"Kraftwerk Aschach","fuel":"hydro","source":"hydro","method":"run-of-the-river","capacityMW":324,"operator":"Verbund Hydro Power GmbH","start":"1964"}},{"type":"Feature","geometry":{"type":"Point","coordinates":[13.46105,46.6292]},"properties":{"id":"way/93071443","name":"Kraftwerk Förolach","fuel":"hydro","source":"hydro","capacityMW":0.9,"operator":"VVT Vermögensverwaltung GmbH","start":"1942"}},{"type":"Feature","geometry":{"type":"Point","coordinates":[12.97515,47.28995]},"properties":{"id":"way/93769225","name":"Kraftwerk Kitzloch","fuel":"hydro","source":"hydro","operator":"Achen Kraftwerke AG"}},{"type":"Feature","geometry":{"type":"Point","coordinates":[12.60842,47.1973]},"properties":{"id":"way/94149217","name":"Kraftwerk Schneiderau","fuel":"hydro","source":"hydro","method":"water-storage","capacityMW":35,"operator":"ÖBB"}},{"type":"Feature","geometry":{"type":"Point","coordinates":[12.62665,47.16948]},"properties":{"id":"way/94208758","name":"Kraftwerk Enzingerboden","fuel":"hydro","source":"hydro","method":"water-storage","capacityMW":81,"operator":"ÖBB"}},{"type":"Feature","geometry":{"type":"Point","coordinates":[14.78781,47.95438]},"properties":{"id":"way/94888413","name":"Unnamed site","fuel":"hydro","source":"hydro","method":"run-of-the-river"}},{"type":"Feature","geometry":{"type":"Point","coordinates":[13.34889,46.64136]},"properties":{"id":"way/95567608","name":"Unnamed site","fuel":"hydro","source":"hydro","operator":"Hasslacher Hermagor GmbH"}},{"type":"Feature","geometry":{"type":"Point","coordinates":[14.53082,48.22485]},"properties":{"id":"way/95828353","name":"Wasserkraftwerk St. Pantaleon-Erla","fuel":"hydro","source":"hydro","method":"run-of-the-river","capacityMW":51,"operator":"Ennskraftwerke AG"}},{"type":"Feature","geometry":{"type":"Point","coordinates":[15.88266,48.35544]},"properties":{"id":"way/95860747","name":"Photovoltaik-Anlage Zwentendorf","fuel":"solar","source":"solar","method":"photovoltaic","capacityMW":0.45,"operator":"EVN"}},{"type":"Feature","geometry":{"type":"Point","coordinates":[14.84048,47.57351]},"properties":{"id":"way/95868611","name":"Laufkraftwerk Erzbach","fuel":"hydro","source":"hydro","method":"run-of-the-river","capacityMW":1.4,"operator":"Verbund AG"}},{"type":"Feature","geometry":{"type":"Point","coordinates":[15.33649,47.18648]},"properties":{"id":"way/96176849","name":"Kraftwerk Friesach","fuel":"hydro","source":"hydro","method":"run-of-the-river","capacityMW":12,"operator":"Verbund Hydro Power GmbH"}},{"type":"Feature","geometry":{"type":"Point","coordinates":[13.98637,48.43353]},"properties":{"id":"way/96250617","name":"Kraftwerk Partenstein","fuel":"hydro","source":"hydro","method":"water-storage","capacityMW":33.8,"operator":"Energie AG","start":"1924"}},{"type":"Feature","geometry":{"type":"Point","coordinates":[9.77673,47.3781]},"properties":{"id":"way/96733014","name":"Kraftwerk Ebensand","fuel":"hydro","source":"hydro","method":"run-of-the-river","capacityMW":1.8,"operator":"illwerke vkw","start":"1899"}},{"type":"Feature","geometry":{"type":"Point","coordinates":[15.3344,47.36519]},"properties":{"id":"way/97097992","name":"Kraftwerk Pernegg","fuel":"hydro","source":"hydro","method":"run-of-the-river","capacityMW":26,"operator":"Verbund Hydro Power GmbH"}},{"type":"Feature","geometry":{"type":"Point","coordinates":[13.75185,48.48988]},"properties":{"id":"way/97989146","name":"Kraftwerk Ranna","fuel":"hydro","source":"hydro","method":"water-storage","capacityMW":19,"operator":"Energie AG"}},{"type":"Feature","geometry":{"type":"Point","coordinates":[12.23014,47.24396]},"properties":{"id":"way/98429378","name":"Kraftwerk Wald","fuel":"hydro","source":"hydro","method":"water-storage","capacityMW":23.5,"operator":"Salzburg AG","start":"1988"}},{"type":"Feature","geometry":{"type":"Point","coordinates":[15.09728,47.94164]},"properties":{"id":"way/98635106","name":"Kraftwerk Gaming I","fuel":"hydro","source":"hydro","method":"run-of-the-river","capacityMW":4.8,"operator":"Wien Energie","start":"1925"}},{"type":"Feature","geometry":{"type":"Point","coordinates":[15.26549,47.88033]},"properties":{"id":"way/98635108","name":"Kraftwerk Erlaufboden","fuel":"hydro","source":"hydro","method":"run-of-the-river","capacityMW":3.4,"operator":"EVN Naturkraft","start":"1924"}},{"type":"Feature","geometry":{"type":"Point","coordinates":[14.01195,48.50357]},"properties":{"id":"way/98639697","name":"WWS Wasserkraft","fuel":"hydro","source":"hydro","method":"run-of-the-river"}},{"type":"Feature","geometry":{"type":"Point","coordinates":[11.83276,47.15188]},"properties":{"id":"way/99858973","name":"Kraftwerk Bösdornau","fuel":"hydro","source":"hydro","method":"water-storage","capacityMW":25,"operator":"Verbund Hydro Power GmbH"}},{"type":"Feature","geometry":{"type":"Point","coordinates":[13.21036,47.29416]},"properties":{"id":"way/100014341","name":"Kraftwerk Edt","fuel":"other"}},{"type":"Feature","geometry":{"type":"Point","coordinates":[15.07919,47.91996]},"properties":{"id":"way/100181189","name":"Unnamed site","fuel":"hydro","source":"hydro"}},{"type":"Feature","geometry":{"type":"Point","coordinates":[12.34751,47.51506]},"properties":{"id":"way/100858491","name":"Stanglwirt Biomasseheizwerk","fuel":"bioenergy","source":"biomass"}},{"type":"Feature","geometry":{"type":"Point","coordinates":[15.4906,48.52357]},"properties":{"id":"way/102306789","name":"Fernheizwerk Gföhl","fuel":"bioenergy","source":"biomass"}},{"type":"Feature","geometry":{"type":"Point","coordinates":[11.41794,47.28886]},"properties":{"id":"way/102345447","name":"Wasserkraftwerk Mühlau 2","fuel":"hydro","source":"hydro","method":"run-of-the-river","capacityMW":0.613,"operator":"IKB AG","start":"1959"}},{"type":"Feature","geometry":{"type":"Point","coordinates":[12.81809,47.49123]},"properties":{"id":"way/102702768","name":"Kraftwerk Dießbach","fuel":"hydro","source":"hydro","operator":"Salzburg AG"}},{"type":"Feature","geometry":{"type":"Point","coordinates":[15.49168,46.90869]},"properties":{"id":"way/103769674","name":"Unnamed site","fuel":"gas","source":"gas","method":"combustion"}},{"type":"Feature","geometry":{"type":"Point","coordinates":[15.5848,46.78519]},"properties":{"id":"way/103776186","name":"Kraftwerk Gabersdorf","fuel":"hydro","source":"hydro","method":"run-of-the-river","capacityMW":15,"operator":"Verbund Hydro Power GmbH"}},{"type":"Feature","geometry":{"type":"Point","coordinates":[12.0877,47.51591]},"properties":{"id":"way/105080865","name":"Kraftwerk Kirchbichl","fuel":"hydro","source":"hydro","method":"run-of-the-river","capacityMW":37.2,"operator":"Tiroler Wasserkraft AG","start":"1941"}},{"type":"Feature","geometry":{"type":"Point","coordinates":[12.22931,47.24395]},"properties":{"id":"way/106509499","name":"Biomasseheizwerk Wald","fuel":"bioenergy","source":"biomass","operator":"Salzburg AG"}},{"type":"Feature","geometry":{"type":"Point","coordinates":[12.05811,47.23536]},"properties":{"id":"way/106512774","name":"Kraftwerk Funsingau","fuel":"hydro","source":"hydro","method":"water-storage","capacityMW":25,"operator":"Verbund Hydro Power GmbH"}},{"type":"Feature","geometry":{"type":"Point","coordinates":[15.52831,48.82216]},"properties":{"id":"way/106793960","name":"Unnamed site","fuel":"hydro","source":"hydro"}},{"type":"Feature","geometry":{"type":"Point","coordinates":[14.35395,47.65649]},"properties":{"id":"way/110183141","name":"Elektrizitätswerk III Trattenbachfall","fuel":"hydro","source":"hydro","method":"run-of-the-river","capacityMW":3,"operator":"Energie AG","start":"1940"}},{"type":"Feature","geometry":{"type":"Point","coordinates":[12.71934,47.19715]},"properties":{"id":"way/113292920","name":"Kraftwerk Kaprun Oberstufe Limberg (1)","fuel":"pumped","source":"hydro","method":"water-pumped-storage","capacityMW":160,"operator":"Verbund Hydro Power GmbH"}},{"type":"Feature","geometry":{"type":"Point","coordinates":[15.44327,48.5893]},"properties":{"id":"way/113597105","name":"Speicherkraftwerk Dobra-Krumau","fuel":"hydro","source":"hydro","method":"water-storage","capacityMW":16.2,"operator":"EVN"}},{"type":"Feature","geometry":{"type":"Point","coordinates":[13.18561,47.32077]},"properties":{"id":"way/115251195","name":"Unnamed site","fuel":"hydro","source":"hydro","method":"run-of-the-river","capacityMW":11.2,"operator":"Energie AG"}},{"type":"Feature","geometry":{"type":"Point","coordinates":[14.7429,47.60578]},"properties":{"id":"way/115816841","name":"Kraftwerk Hieflau","fuel":"hydro","source":"hydro","method":"water-storage","capacityMW":63,"operator":"Verbund Hydro Power GmbH","start":"1956"}},{"type":"Feature","geometry":{"type":"Point","coordinates":[13.1745,47.32157]},"properties":{"id":"way/116188135","name":"Kraftwerk St. Veit","fuel":"hydro","source":"hydro","method":"run-of-the-river","capacityMW":17,"operator":"Verbund Hydro Power GmbH"}},{"type":"Feature","geometry":{"type":"Point","coordinates":[12.42282,46.74553]},"properties":{"id":"way/116740596","name":"Biomasse Heizkraftwerk","fuel":"bioenergy","source":"biomass"}},{"type":"Feature","geometry":{"type":"Point","coordinates":[12.43583,46.75585]},"properties":{"id":"way/116741735","name":"Kraftwerk Panzendorf","fuel":"hydro","source":"hydro","method":"run-of-the-river","capacityMW":8}},{"type":"Feature","geometry":{"type":"Point","coordinates":[13.19744,47.33863]},"properties":{"id":"way/117535095","name":"Kraftwerk St. Johann","fuel":"hydro","source":"hydro","method":"run-of-the-river","capacityMW":17,"operator":"Salzburg AG"}},{"type":"Feature","geometry":{"type":"Point","coordinates":[12.72052,47.55929]},"properties":{"id":"way/117870492","name":"Unnamed site","fuel":"hydro","source":"hydro"}},{"type":"Feature","geometry":{"type":"Point","coordinates":[14.68929,47.70354]},"properties":{"id":"way/118134590","name":"Kraftwerk Krippau","fuel":"hydro","source":"hydro","method":"run-of-the-river","capacityMW":30,"operator":"Verbund Hydro Power GmbH"}},{"type":"Feature","geometry":{"type":"Point","coordinates":[14.65289,47.73814]},"properties":{"id":"way/118135035","name":"Kraftwerk Altenmarkt","fuel":"hydro","source":"hydro","method":"run-of-the-river","capacityMW":25.7,"operator":"Verbund Hydro Power GmbH"}},{"type":"Feature","geometry":{"type":"Point","coordinates":[14.25687,47.89436]},"properties":{"id":"way/118296574","name":"Piesslinger E-Werk 2","fuel":"other","operator":"Piesslinger GmbH"}},{"type":"Feature","geometry":{"type":"Point","coordinates":[13.95692,47.49114]},"properties":{"id":"way/118485994","name":"Krafthaus Salza","fuel":"hydro","source":"hydro","method":"water-storage","capacityMW":9,"operator":"Verbund Hydro Power GmbH"}},{"type":"Feature","geometry":{"type":"Point","coordinates":[15.32203,46.74405]},"properties":{"id":"way/119054530","name":"Elektrizitätswerk Gasselsdorf","fuel":"hydro","source":"hydro"}},{"type":"Feature","geometry":{"type":"Point","coordinates":[11.52067,47.30629]},"properties":{"id":"way/119399145","name":"Kraftwerk Walderstraße","fuel":"hydro","source":"hydro","method":"run-of-the-river","capacityMW":0.325,"operator":"Hall.AG","start":"2006"}},{"type":"Feature","geometry":{"type":"Point","coordinates":[11.52038,47.30654]},"properties":{"id":"way/119691798","name":"Kraftwerke Halltal","fuel":"hydro","source":"hydro","method":"run-of-the-river","capacityMW":1.8,"operator":"Hall.AG","start":"1913"}},{"type":"Feature","geometry":{"type":"Point","coordinates":[14.29585,48.22936]},"properties":{"id":"way/119881770","name":"Kleinwasserkraftwerk","fuel":"hydro","source":"hydro","method":"run-of-the-river"}},{"type":"Feature","geometry":{"type":"Point","coordinates":[16.06928,47.59601]},"properties":{"id":"way/120018849","name":"Kraftwerk Feistritz","fuel":"hydro","source":"hydro","operator":"Elektrizitätswerke Eisenhuber"}},{"type":"Feature","geometry":{"type":"Point","coordinates":[16.31797,47.07464]},"properties":{"id":"way/120518648","name":"Biomasse-Kraftwerk Güssing","fuel":"bioenergy","source":"biomass","method":"gasification"}},{"type":"Feature","geometry":{"type":"Point","coordinates":[10.73486,47.49711]},"properties":{"id":"way/120634412","name":"Kraftwerk Mühl","fuel":"hydro","source":"hydro","method":"run-of-the-river","capacityMW":0.7,"start":"1987"}},{"type":"Feature","geometry":{"type":"Point","coordinates":[12.45536,47.50574]},"properties":{"id":"way/121123522","name":"Wasserkraftwerk Reintalquelle","fuel":"hydro","source":"hydro","capacityMW":0.191,"operator":"Marktgemeinde St. Johann in Tirol"}},{"type":"Feature","geometry":{"type":"Point","coordinates":[15.5232,47.04204]},"properties":{"id":"way/121572323","name":"Biomasse-Heizwerk","fuel":"bioenergy","source":"biomass","method":"combustion","start":"2016-09-30"}},{"type":"Feature","geometry":{"type":"Point","coordinates":[11.65243,47.33953]},"properties":{"id":"way/121701528","name":"Kraftwerk Vomperbach Oberstufe","fuel":"hydro","source":"hydro","method":"run-of-the-river","capacityMW":7.2,"operator":"Stadtwerke Schwaz","start":"1897"}},{"type":"Feature","geometry":{"type":"Point","coordinates":[9.8753,47.0749]},"properties":{"id":"way/121904324","name":"Latschauwerk","fuel":"hydro","source":"hydro","method":"water-storage","capacityMW":9,"operator":"illwerke vkw"}},{"type":"Feature","geometry":{"type":"Point","coordinates":[9.87369,47.07387]},"properties":{"id":"way/121904339","name":"Lünerseewerk","fuel":"pumped","source":"hydro","method":"water-pumped-storage","capacityMW":232,"operator":"illwerke vkw"}},{"type":"Feature","geometry":{"type":"Point","coordinates":[13.61388,47.67162]},"properties":{"id":"way/122047299","name":"Kraftwerk Lauffen","fuel":"hydro","source":"hydro","method":"run-of-the-river","capacityMW":0.1,"operator":"Energie AG","start":"1906"}},{"type":"Feature","geometry":{"type":"Point","coordinates":[9.88152,47.08504]},"properties":{"id":"way/122134168","name":"Rodundwerk I","fuel":"pumped","source":"hydro","method":"water-pumped-storage","capacityMW":198,"operator":"Vorarlberger Illwerke AG"}},{"type":"Feature","geometry":{"type":"Point","coordinates":[11.60243,47.27091]},"properties":{"id":"way/122718560","name":"Kraftwerk Swarovski","fuel":"hydro","source":"hydro","method":"water-storage","operator":"Swarovski"}},{"type":"Feature","geometry":{"type":"Point","coordinates":[14.82992,47.89048]},"properties":{"id":"way/122776766","name":"Wasserkraftwerk Opponitz","fuel":"hydro","source":"hydro","method":"water-storage","capacityMW":12.62,"operator":"Wien Energie","start":"1924"}},{"type":"Feature","geometry":{"type":"Point","coordinates":[14.47952,46.56129]},"properties":{"id":"way/122820367","name":"Annabrücke","fuel":"hydro","source":"hydro","capacityMW":90,"operator":"Verbund Hydro Power GmbH","start":"1981"}},{"type":"Feature","geometry":{"type":"Point","coordinates":[11.59187,47.28668]},"properties":{"id":"way/123041015","name":"Kraftwerk Papierwerke Wattens","fuel":"hydro","source":"hydro","method":"water-storage","operator":"Papierwerke Wattens"}},{"type":"Feature","geometry":{"type":"Point","coordinates":[14.34338,48.17202]},"properties":{"id":"way/123373460","name":"Unnamed site","fuel":"solar","source":"solar","method":"photovoltaic"}},{"type":"Feature","geometry":{"type":"Point","coordinates":[14.02682,46.56969]},"properties":{"id":"way/123588260","name":"Kraftwerk Rosegg-St. Jakob","fuel":"hydro","source":"hydro","capacityMW":80,"operator":"Verbund Hydro Power GmbH","start":"1974"}},{"type":"Feature","geometry":{"type":"Point","coordinates":[14.34714,48.2676]},"properties":{"id":"way/123754668","name":"Fernheizkraftwerk Linz-Süd","fuel":"gas","source":"gas","method":"combustion","capacityMW":172,"operator":"LINZ AG","start":"1993"}},{"type":"Feature","geometry":{"type":"Point","coordinates":[13.82886,46.86472]},"properties":{"id":"way/124065159","name":"Bio-Heizwerk","fuel":"bioenergy","source":"biomass","method":"combustion","operator":"Heidi-Hotel"}},{"type":"Feature","geometry":{"type":"Point","coordinates":[14.07343,46.62262]},"properties":{"id":"way/124123896","name":"Kraftwerk Forstsee","fuel":"hydro","source":"hydro","capacityMW":2.4,"operator":"KELAG","start":"1925"}},{"type":"Feature","geometry":{"type":"Point","coordinates":[9.74008,47.4877]},"properties":{"id":"way/124212273","name":"Kraftwerk Rieden","fuel":"hydro","source":"hydro","method":"run-of-the-river","capacityMW":0.8,"operator":"illwerke vkw","start":"1890"}},{"type":"Feature","geometry":{"type":"Point","coordinates":[11.54931,47.28013]},"properties":{"id":"way/124771640","name":"Kraftwerk Volders","fuel":"hydro","source":"hydro","operator":"Hall AG"}},{"type":"Feature","geometry":{"type":"Point","coordinates":[14.26751,46.61597]},"properties":{"id":"way/125473168","name":"Unnamed site","fuel":"gas","source":"gas","method":"combustion","operator":"Stadtwerke Klagenfurt"}},{"type":"Feature","geometry":{"type":"Point","coordinates":[14.27069,47.97782]},"properties":{"id":"way/125545405","name":"Kraftwerk Humpelmühle","fuel":"hydro","source":"hydro","method":"run-of-the-river","capacityMW":0.88,"operator":"Energie AG","start":"1945"}},{"type":"Feature","geometry":{"type":"Point","coordinates":[10.06391,47.12911]},"properties":{"id":"way/126215500","name":"Kraftwerk Klösterle","fuel":"hydro","source":"hydro","method":"water-storage","capacityMW":16,"operator":"Vorarlberger Kraftwerke AG","start":"1997"}},{"type":"Feature","geometry":{"type":"Point","coordinates":[9.67842,47.20654]},"properties":{"id":"way/127532001","name":"Kleinwasserkraftwerk Gebrüder Metzler","fuel":"hydro","source":"hydro","method":"run-of-the-river","capacityMW":0.1,"operator":"Johannes und Guntram Metzler","start":"1910"}},{"type":"Feature","geometry":{"type":"Point","coordinates":[10.91117,47.25564]},"properties":{"id":"way/127587043","name":"Biomasseheizwerk Sankt Petersberg","fuel":"bioenergy","source":"biomass"}},{"type":"Feature","geometry":{"type":"Point","coordinates":[10.14347,47.21913]},"properties":{"id":"way/127710784","name":"Biomasseheizwerk Oberlech","fuel":"bioenergy","source":"biomass","operator":"Fernwärme-Heizwerk Oberlech GmbH & Co KG"}},{"type":"Feature","geometry":{"type":"Point","coordinates":[9.91542,47.06666]},"properties":{"id":"way/127731643","name":"Kraftwerk Unterstufe Gampadels","fuel":"hydro","source":"hydro","method":"run-of-the-river","capacityMW":9.9,"operator":"illwerke vkw"}},{"type":"Feature","geometry":{"type":"Point","coordinates":[10.15359,47.22031]},"properties":{"id":"way/127839034","name":"Kleinwasserkraftwerk Walkerbach","fuel":"hydro","source":"hydro","method":"run-of-the-river","capacityMW":0.075,"operator":"Vorarlberger Kraftwerke AG"}},{"type":"Feature","geometry":{"type":"Point","coordinates":[9.87692,47.4032]},"properties":{"id":"way/128747733","name":"Kraftwerk Andelsbuch","fuel":"hydro","source":"hydro","method":"water-storage","capacityMW":15.1,"operator":"illwerke vkw"}},{"type":"Feature","geometry":{"type":"Point","coordinates":[9.85978,47.47041]},"properties":{"id":"way/128754334","name":"Kraftwerk Alberschwende","fuel":"hydro","source":"hydro","method":"water-storage","capacityMW":30,"operator":"illwerke vkw","start":"1992"}},{"type":"Feature","geometry":{"type":"Point","coordinates":[9.86411,47.47023]},"properties":{"id":"way/128754335","name":"Kraftwerk Langenegg","fuel":"hydro","source":"hydro","method":"water-storage","capacityMW":74,"operator":"illwerke vkw","start":"1979"}},{"type":"Feature","geometry":{"type":"Point","coordinates":[15.33583,47.20835]},"properties":{"id":"way/129648526","name":"Kraftwerk Peggau-Deutschfeistritz","fuel":"hydro","source":"hydro","method":"run-of-the-river","capacityMW":13.2,"operator":"Verbund AG"}},{"type":"Feature","geometry":{"type":"Point","coordinates":[10.14081,47.20112]},"properties":{"id":"way/130753849","name":"Biomasse Heizwerk Lech","fuel":"bioenergy","source":"biomass","operator":"Biomasse-Heizwerk Lech GmbH & Co KG"}},{"type":"Feature","geometry":{"type":"Point","coordinates":[16.26066,48.15998]},"properties":{"id":"way/130783763","name":"Druckentlastungskammer Mauer","fuel":"hydro","source":"hydro","method":"run-of-the-river","start":"1908"}},{"type":"Feature","geometry":{"type":"Point","coordinates":[14.15724,47.82829]},"properties":{"id":"way/130873896","name":"Kraftwerk Klaus","fuel":"hydro","source":"hydro","method":"run-of-the-river","capacityMW":20,"operator":"Ennskraftwerke AG"}},{"type":"Feature","geometry":{"type":"Point","coordinates":[13.61332,46.60106]},"properties":{"id":"way/130910148","name":"Krafthaus Roter Graben","fuel":"hydro","source":"hydro","operator":"KELAG"}},{"type":"Feature","geometry":{"type":"Point","coordinates":[13.09014,47.1929]},"properties":{"id":"way/131399644","name":"Unnamed site","fuel":"other"}},{"type":"Feature","geometry":{"type":"Point","coordinates":[10.71583,47.08276]},"properties":{"id":"way/131625269","name":"Unnamed site","fuel":"hydro","source":"hydro"}},{"type":"Feature","geometry":{"type":"Point","coordinates":[9.97424,47.53057]},"properties":{"id":"way/131671412","name":"Wasserkraftwerk Krebs","fuel":"hydro","source":"hydro","method":"run-of-the-river","capacityMW":1.656,"operator":"Weißachtal-Kraftwerke","start":"1953"}},{"type":"Feature","geometry":{"type":"Point","coordinates":[12.19422,47.67617]},"properties":{"id":"way/131691989","name":"Unnamed site","fuel":"hydro","source":"hydro"}},{"type":"Feature","geometry":{"type":"Point","coordinates":[14.80086,47.58805]},"properties":{"id":"way/133508554","name":"Unnamed site","fuel":"other"}},{"type":"Feature","geometry":{"type":"Point","coordinates":[14.74904,47.60027]},"properties":{"id":"way/133564932","name":"Unnamed site","fuel":"other"}},{"type":"Feature","geometry":{"type":"Point","coordinates":[14.77698,47.58528]},"properties":{"id":"way/133565203","name":"Unnamed site","fuel":"hydro","source":"hydro"}},{"type":"Feature","geometry":{"type":"Point","coordinates":[13.80909,47.1383]},"properties":{"id":"way/134799561","name":"Fernwärmeversorgungs GmbH","fuel":"other"}},{"type":"Feature","geometry":{"type":"Point","coordinates":[13.53992,47.79998]},"properties":{"id":"way/135048509","name":"Kraftwerk Weißenbach","fuel":"hydro","source":"hydro","operator":"Hotel Post"}},{"type":"Feature","geometry":{"type":"Point","coordinates":[12.94961,46.62295]},"properties":{"id":"way/135103694","name":"Kraftwerk Kreuztratte","fuel":"hydro","source":"hydro","capacityMW":2,"operator":"Elektrizitätswerk Plöcken GmbH","start":"1993"}},{"type":"Feature","geometry":{"type":"Point","coordinates":[14.28787,48.23481]},"properties":{"id":"way/135361274","name":"Kleinwasserkraftwerk Traunwehr","fuel":"hydro","source":"hydro","method":"run-of-the-river","capacityMW":1.3,"operator":"Linz AG","start":"1983"}},{"type":"Feature","geometry":{"type":"Point","coordinates":[10.71936,47.50861]},"properties":{"id":"way/135684020","name":"Wasserkraftwerk Plant","fuel":"hydro","source":"hydro","method":"water-storage","capacityMW":0.93,"start":"1958"}},{"type":"Feature","geometry":{"type":"Point","coordinates":[11.46408,47.11558]},"properties":{"id":"way/136143715","name":"KW Navisbach","fuel":"hydro","source":"hydro","method":"run-of-the-river"}},{"type":"Feature","geometry":{"type":"Point","coordinates":[14.31983,48.24984]},"properties":{"id":"way/136179989","name":"Kleinwasserkraftwerk Kleinmünchen","fuel":"hydro","source":"hydro","method":"run-of-the-river","capacityMW":10,"operator":"LINZ AG","start":"1978"}},{"type":"Feature","geometry":{"type":"Point","coordinates":[14.25986,48.20472]},"properties":{"id":"way/137596364","name":"Fernheizkraftwerk Haid","fuel":"bioenergy","source":"biomass"}},{"type":"Feature","geometry":{"type":"Point","coordinates":[15.8108,47.70816]},"properties":{"id":"way/137902949","name":"Unnamed site","fuel":"bioenergy","source":"biomass","start":"2005"}},{"type":"Feature","geometry":{"type":"Point","coordinates":[16.43397,48.18239]},"properties":{"id":"way/138406969","name":"Kraftwerk Simmering","fuel":"gas","source":"gas;biomass","method":"combustion","capacityMW":1154.7,"operator":"Wien Energie","start":"1902"}},{"type":"Feature","geometry":{"type":"Point","coordinates":[13.20988,47.37772]},"properties":{"id":"way/140644903","name":"Kraftwerk Arthurwerk","fuel":"hydro","source":"hydro","method":"run-of-the-river","capacityMW":6,"operator":"Energie AG","start":"1928;1989"}},{"type":"Feature","geometry":{"type":"Point","coordinates":[11.85035,47.15806]},"properties":{"id":"way/141092144","name":"Kraftwerk Mayrhofen","fuel":"hydro","source":"hydro","method":"water-storage","capacityMW":355,"operator":"Verbund Hydro Power GmbH"}},{"type":"Feature","geometry":{"type":"Point","coordinates":[12.11596,47.48484]},"properties":{"id":"way/141394723","name":"KW Bruckhäusl","fuel":"hydro","source":"hydro","capacityMW":2.7,"operator":"TIWAG","start":"2011-09"}},{"type":"Feature","geometry":{"type":"Point","coordinates":[15.54217,46.71848]},"properties":{"id":"way/141641825","name":"Heizwerk Gamlitz-Ehrenhausen","fuel":"bioenergy","source":"biomass","method":"combustion","operator":"Nahwärme Gleinstätten GmbH","start":"2009"}},{"type":"Feature","geometry":{"type":"Point","coordinates":[16.25185,47.83479]},"properties":{"id":"way/143199246","name":"Heizwerk Civitas Nova Wiener Neustadt","fuel":"bioenergy","source":"biomass","method":"combustion","capacityMW":10,"operator":"EVN Wärme;FWG Krumbach","start":"1999"}},{"type":"Feature","geometry":{"type":"Point","coordinates":[12.664,47.5798]},"properties":{"id":"way/143381368","name":"Unnamed site","fuel":"other"}},{"type":"Feature","geometry":{"type":"Point","coordinates":[13.20678,47.34234]},"properties":{"id":"way/143835684","name":"Kraftwerk Wagrain-St.Johann","fuel":"hydro","source":"hydro","method":"run-of-the-river","capacityMW":0.016399999999999998,"operator":"Energie AG"}},{"type":"Feature","geometry":{"type":"Point","coordinates":[14.13385,48.36673]},"properties":{"id":"way/143976411","name":"Kraftwerk Rottenegg 1","fuel":"hydro","source":"hydro","operator":"Karlstrom"}},{"type":"Feature","geometry":{"type":"Point","coordinates":[12.52443,46.7532]},"properties":{"id":"way/145025308","name":"Biomasse Heizwerk Abfaltersbach","fuel":"bioenergy","source":"biomass","operator":"Regionalenergie Osttirol","start":"2008-12"}},{"type":"Feature","geometry":{"type":"Point","coordinates":[14.22264,47.87599]},"properties":{"id":"way/145812669","name":"Kraftwerk Agonitz","fuel":"hydro","source":"hydro","method":"run-of-the-river","capacityMW":3.1,"operator":"Energie AG","start":"2001"}},{"type":"Feature","geometry":{"type":"Point","coordinates":[13.81414,47.98075]},"properties":{"id":"way/146016366","name":"Thermisches Kraftwerk Laakirchen CMOÖ","fuel":"gas","source":"gas","method":"combustion","capacityMW":61,"operator":"Energie AG"}},{"type":"Feature","geometry":{"type":"Point","coordinates":[11.39141,47.1999]},"properties":{"id":"way/146122250","name":"Ruetzkraftwerk","fuel":"hydro","source":"hydro","method":"water-storage","capacityMW":6,"operator":"IKB AG","start":"1997"}},{"type":"Feature","geometry":{"type":"Point","coordinates":[11.52084,47.30577]},"properties":{"id":"way/147246923","name":"Photovoltaik-Anlage Walderstraße","fuel":"solar","source":"solar","method":"photovoltaic","operator":"Hall AG"}},{"type":"Feature","geometry":{"type":"Point","coordinates":[12.68747,46.86712]},"properties":{"id":"way/148227493","name":"Elektrowerk Ainet","fuel":"hydro","source":"hydro"}},{"type":"Feature","geometry":{"type":"Point","coordinates":[15.02321,46.97876]},"properties":{"id":"way/149071699","name":"Kraftwerk Pack","fuel":"hydro","source":"hydro","method":"run-of-the-river","capacityMW":0.8,"operator":"Verbund Hydro Power GmbH"}},{"type":"Feature","geometry":{"type":"Point","coordinates":[12.86419,46.78443]},"properties":{"id":"way/149455499","name":"Unnamed site","fuel":"other"}},{"type":"Feature","geometry":{"type":"Point","coordinates":[12.65659,46.78031]},"properties":{"id":"way/149750214","name":"Unnamed site","fuel":"other"}},{"type":"Feature","geometry":{"type":"Point","coordinates":[12.55642,46.7613]},"properties":{"id":"way/149750585","name":"EW-Anras","fuel":"hydro","source":"hydro","operator":"Firma Kraler"}},{"type":"Feature","geometry":{"type":"Point","coordinates":[12.65643,46.78428]},"properties":{"id":"way/149753310","name":"EWA Stromkraftwerk - Stufe 2","fuel":"hydro","source":"hydro","method":"run-of-the-river","operator":"EWA","start":"1964"}},{"type":"Feature","geometry":{"type":"Point","coordinates":[12.60096,46.77063]},"properties":{"id":"way/149753362","name":"EWA Werk 3","fuel":"hydro","source":"hydro","method":"run-of-the-river","capacityMW":2.55,"operator":"EWA","start":"1973"}},{"type":"Feature","geometry":{"type":"Point","coordinates":[12.64687,46.79171]},"properties":{"id":"way/149753798","name":"EWA Stromkraftwerk Hauptwarte - Stufe 1","fuel":"hydro","source":"hydro","method":"run-of-the-river","operator":"EWA","start":"2015"}},{"type":"Feature","geometry":{"type":"Point","coordinates":[12.99433,47.83511]},"properties":{"id":"way/150766122","name":"Flusskraftwerk Rott","fuel":"hydro","source":"hydro","method":"run-of-the-river","capacityMW":2.5,"operator":"Salzburg AG"}},{"type":"Feature","geometry":{"type":"Point","coordinates":[13.07645,47.97125]},"properties":{"id":"way/151290260","name":"Biomasse-Heizwerk Seeham","fuel":"bioenergy","source":"biomass","method":"combustion","operator":"Bio Energie Seeham"}},{"type":"Feature","geometry":{"type":"Point","coordinates":[15.48314,48.60993]},"properties":{"id":"way/151583203","name":"Ausgleichskraftwerk Thurnberg-Wegscheid","fuel":"hydro","source":"hydro","method":"water-storage","capacityMW":2.7,"operator":"EVN","start":"1952"}},{"type":"Feature","geometry":{"type":"Point","coordinates":[14.67334,48.34366]},"properties":{"id":"way/152182967","name":"Fernheizwerk","fuel":"other","method":"combustion"}},{"type":"Feature","geometry":{"type":"Point","coordinates":[14.37691,47.99281]},"properties":{"id":"way/152183126","name":"Kraftwerk Rosenau","fuel":"hydro","source":"hydro","method":"run-of-the-river","capacityMW":34,"operator":"Ennskraftwerke AG","start":"13.10.1953"}},{"type":"Feature","geometry":{"type":"Point","coordinates":[14.48293,46.55938]},"properties":{"id":"way/152205880","name":"Kraftwerk Freibach","fuel":"hydro","source":"hydro","capacityMW":16.4,"operator":"KELAG","start":"1958"}},{"type":"Feature","geometry":{"type":"Point","coordinates":[15.56604,46.82808]},"properties":{"id":"way/152304106","name":"Kraftwerk Gralla","fuel":"hydro","source":"hydro","method":"run-of-the-river","capacityMW":15,"operator":"Verbund Hydro Power GmbH"}},{"type":"Feature","geometry":{"type":"Point","coordinates":[15.5716,46.74571]},"properties":{"id":"way/152305012","name":"Kraftwerk Obervogau","fuel":"hydro","source":"hydro","method":"run-of-the-river","capacityMW":13,"operator":"Verbund Hydro Power GmbH"}},{"type":"Feature","geometry":{"type":"Point","coordinates":[15.62128,46.71644]},"properties":{"id":"way/152306474","name":"Kraftwerk Spielfeld","fuel":"hydro","source":"hydro","method":"run-of-the-river","capacityMW":13,"operator":"Verbund Hydro Power GmbH"}},{"type":"Feature","geometry":{"type":"Point","coordinates":[12.82604,46.84133]},"properties":{"id":"way/152310969","name":"Kraftwerk Debant II","fuel":"hydro","source":"hydro","method":"run-of-the-river","capacityMW":1.64,"operator":"TIWAG"}},{"type":"Feature","geometry":{"type":"Point","coordinates":[12.57721,46.92863]},"properties":{"id":"way/152469117","name":"Kraftwerk Schwarzach","fuel":"hydro","source":"hydro","method":"run-of-the-river","capacityMW":9.9,"operator":"TIWAG","start":"2007"}},{"type":"Feature","geometry":{"type":"Point","coordinates":[14.06528,47.10778]},"properties":{"id":"way/153223717","name":"Kraftwerk Bodendorf-Mur","fuel":"hydro","source":"hydro","method":"run-of-the-river","capacityMW":7,"operator":"Verbund Hydro Power GmbH","start":"1982"}},{"type":"Feature","geometry":{"type":"Point","coordinates":[9.72268,47.46704]},"properties":{"id":"way/153429590","name":"Bio-Nahwärmekraftwerk Lauterach","fuel":"bioenergy","source":"biomass","method":"combustion","operator":"Bio-Nahwärme Lauterach GmbH & Co KG","start":"2011-01"}},{"type":"Feature","geometry":{"type":"Point","coordinates":[13.1104,47.70029]},"properties":{"id":"way/155871625","name":"Kraftwerk Kieferwehr I","fuel":"hydro","source":"hydro","start":"1919"}},{"type":"Feature","geometry":{"type":"Point","coordinates":[11.00548,47.20767]},"properties":{"id":"way/156083802","name":"Kraftwerk Kühtai","fuel":"pumped","source":"hydro","method":"water-pumped-storage","capacityMW":289,"operator":"TIWAG","start":"1981"}},{"type":"Feature","geometry":{"type":"Point","coordinates":[13.13543,47.71565]},"properties":{"id":"way/156087600","name":"Wasserkraftwerk Wiestal-Ausgleichsbecken","fuel":"hydro","source":"hydro","capacityMW":0.24,"operator":"Salzburg AG"}},{"type":"Feature","geometry":{"type":"Point","coordinates":[12.98263,47.81929]},"properties":{"id":"way/156184632","name":"Biomasse-Heizkraftwerk Siezenheim","fuel":"bioenergy","source":"biomass","method":"combustion","operator":"Salzburg AG","start":"2004"}},{"type":"Feature","geometry":{"type":"Point","coordinates":[9.63475,47.34174]},"properties":{"id":"way/156254013","name":"Nahwärme Götzis","fuel":"bioenergy","source":"biomass","method":"combustion"}},{"type":"Feature","geometry":{"type":"Point","coordinates":[10.96787,47.2695]},"properties":{"id":"way/156316489","name":"Kraftwerk Silz","fuel":"hydro","source":"hydro","method":"water-storage","capacityMW":500,"operator":"TIWAG","start":"1981"}},{"type":"Feature","geometry":{"type":"Point","coordinates":[11.8991,47.23362]},"properties":{"id":"way/156973415","name":"Kraftwerk Gerlos","fuel":"hydro","source":"hydro","method":"water-storage","capacityMW":200,"operator":"Verbund Hydro Power GmbH"}},{"type":"Feature","geometry":{"type":"Point","coordinates":[12.99741,46.75521]},"properties":{"id":"way/159071278","name":"Kraftwerk Irschen","fuel":"hydro","source":"hydro","operator":"KELAG","start":"1921"}},{"type":"Feature","geometry":{"type":"Point","coordinates":[10.70533,47.52534]},"properties":{"id":"way/159133514","name":"Kraftwerk Kniepass","fuel":"hydro","source":"hydro","method":"water-storage","capacityMW":2,"operator":"Elektrizitätswerke Reutte","start":"1953"}},{"type":"Feature","geometry":{"type":"Point","coordinates":[13.03638,47.75054]},"properties":{"id":"way/159337251","name":"Kraftwerk Eichetmühle","fuel":"hydro","source":"hydro","method":"run-of-the-river","capacityMW":0.14,"operator":"Salzburg AG"}},{"type":"Feature","geometry":{"type":"Point","coordinates":[15.36953,46.75259]},"properties":{"id":"way/159488847","name":"KTG Austria","fuel":"hydro","source":"hydro"}},{"type":"Feature","geometry":{"type":"Point","coordinates":[14.19771,47.86411]},"properties":{"id":"way/159746827","name":"Kraftwerk Steyrdurchbruch","fuel":"hydro","source":"hydro","method":"run-of-the-river","capacityMW":4,"operator":"Energie AG","start":"1908"}},{"type":"Feature","geometry":{"type":"Point","coordinates":[15.34332,48.5729]},"properties":{"id":"way/160080683","name":"Holzkraftwerk Rastenfeld","fuel":"bioenergy","source":"biomass","capacityMW":5,"operator":"Nawaro"}},{"type":"Feature","geometry":{"type":"Point","coordinates":[15.46811,46.99793]},"properties":{"id":"way/161423652","name":"Kraftwerk Gössendorf","fuel":"hydro","source":"hydro","method":"run-of-the-river","capacityMW":19,"operator":"Verbund Hydro Power GmbH"}},{"type":"Feature","geometry":{"type":"Point","coordinates":[15.24353,46.6883]},"properties":{"id":"way/161541203","name":"Nahmwärme Eibiswald","fuel":"bioenergy","source":"biomass","method":"combustion"}},{"type":"Feature","geometry":{"type":"Point","coordinates":[15.52129,47.94761]},"properties":{"id":"way/161690981","name":"Unnamed site","fuel":"hydro","source":"hydro"}},{"type":"Feature","geometry":{"type":"Point","coordinates":[14.88169,48.11675]},"properties":{"id":"way/161841872","name":"Biomasseheizkraftwerk Amstetten","fuel":"bioenergy","source":"biomass","operator":"FWG-Fernwärmeversorgung Amstetten registrierte Genossenschaft mit beschränkter Haftung"}},{"type":"Feature","geometry":{"type":"Point","coordinates":[16.7838,48.54839]},"properties":{"id":"way/162276189","name":"Müllverbrennungsanlage Zistersdorf","fuel":"waste","source":"waste","method":"combustion","capacityMW":15,"operator":"FCC Zistersdorf Abfall Service GmbH"}},{"type":"Feature","geometry":{"type":"Point","coordinates":[10.75548,47.26773]},"properties":{"id":"way/162531191","name":"Kraftwerk Salvesenbach, Stadtwerke Imst","fuel":"hydro","source":"hydro","method":"run-of-the-river","capacityMW":3,"operator":"Stadtwerke Imst"}},{"type":"Feature","geometry":{"type":"Point","coordinates":[12.13159,47.5714]},"properties":{"id":"way/162560756","name":"Unnamed site","fuel":"hydro","source":"hydro"}},{"type":"Feature","geometry":{"type":"Point","coordinates":[13.13971,47.31546]},"properties":{"id":"way/162585233","name":"Flusskraftwerk Schwarzach","fuel":"hydro","source":"hydro","capacityMW":138,"operator":"Verbund Hydro Power GmbH"}},{"type":"Feature","geometry":{"type":"Point","coordinates":[16.36885,48.14046]},"properties":{"id":"way/162791304","name":"Fernheizwerk Inzersdorf","fuel":"gas","source":"gas;oil","method":"combustion","operator":"Wien Energie GmbH","start":"1996"}},{"type":"Feature","geometry":{"type":"Point","coordinates":[12.7494,46.80145]},"properties":{"id":"way/163096581","name":"KW Amlach","fuel":"hydro","source":"hydro","method":"run-of-the-river","capacityMW":60,"operator":"TIWAG"}},{"type":"Feature","geometry":{"type":"Point","coordinates":[15.62758,48.19719]},"properties":{"id":"way/163607876","name":"Unnamed site","fuel":"hydro","source":"hydro","operator":"EVN"}},{"type":"Feature","geometry":{"type":"Point","coordinates":[14.54845,46.82397]},"properties":{"id":"way/165492126","name":"Kraftwerk Hornburg I","fuel":"hydro","source":"hydro","method":"run-of-the-river","capacityMW":0.1}},{"type":"Feature","geometry":{"type":"Point","coordinates":[10.60698,47.11533]},"properties":{"id":"way/165712391","name":"Kraftwerk Urgbach","fuel":"hydro","source":"hydro"}},{"type":"Feature","geometry":{"type":"Point","coordinates":[14.31905,47.51901]},"properties":{"id":"way/165921697","name":"Wasserkraftwerk Klamm I","fuel":"hydro","source":"hydro","method":"run-of-the-river"}},{"type":"Feature","geometry":{"type":"Point","coordinates":[16.60844,48.04741]},"properties":{"id":"way/166090185","name":"Biogasanlage Margarethen am Moos.","fuel":"bioenergy","source":"biomass","method":"anaerobic_digestion","capacityMW":0.625,"operator":"EVM Energie Versorgung Margarethen","start":"2004"}},{"type":"Feature","geometry":{"type":"Point","coordinates":[14.29346,47.89177]},"properties":{"id":"way/166878071","name":"Unnamed site","fuel":"other"}},{"type":"Feature","geometry":{"type":"Point","coordinates":[15.48551,46.91136]},"properties":{"id":"way/167350182","name":"Kraftwerk Mellach","fuel":"hydro","source":"hydro","method":"run-of-the-river","capacityMW":16,"operator":"Verbund Hydro Power GmbH"}},{"type":"Feature","geometry":{"type":"Point","coordinates":[15.48604,46.91254]},"properties":{"id":"way/167350198","name":"Kraftwerk Weissenegg","fuel":"hydro","source":"hydro","method":"run-of-the-river","capacityMW":1,"operator":"Verbund Hydro Power GmbH","start":"1985"}},{"type":"Feature","geometry":{"type":"Point","coordinates":[13.70737,48.51847]},"properties":{"id":"way/168864999","name":"Kraftwerk Jochenstein","fuel":"hydro","source":"hydro","method":"run-of-the-river","capacityMW":132,"operator":"Grenzkraftwerke GmbH","start":"1956-08-20"}},{"type":"Feature","geometry":{"type":"Point","coordinates":[11.20007,47.05546]},"properties":{"id":"way/168891052","name":"Kraftwerk Regensburger Hütte","fuel":"hydro","source":"hydro"}},{"type":"Feature","geometry":{"type":"Point","coordinates":[14.87257,46.65789]},"properties":{"id":"way/169522435","name":"Kraftwerk Schwabeck","fuel":"hydro","source":"hydro","capacityMW":79,"operator":"Verbund Hydro Power GmbH","start":"1943"}},{"type":"Feature","geometry":{"type":"Point","coordinates":[16.36962,48.25891]},"properties":{"id":"way/170478596","name":"Laufkraftwerk Nussdorf","fuel":"hydro","source":"hydro","method":"run-of-the-river","capacityMW":4.8}},{"type":"Feature","geometry":{"type":"Point","coordinates":[16.27842,48.72835]},"properties":{"id":"way/171371180","name":"Unnamed site","fuel":"solar","source":"solar","method":"photovoltaic","capacityMW":56,"operator":"Jungbunzlauer Austria AG","start":"2024-03"}},{"type":"Feature","geometry":{"type":"Point","coordinates":[14.68517,47.27874]},"properties":{"id":"way/171712386","name":"Unnamed site","fuel":"hydro","source":"hydro"}},{"type":"Feature","geometry":{"type":"Point","coordinates":[16.30855,48.3627]},"properties":{"id":"way/172636808","name":"DOT-Solarpark","fuel":"solar","source":"solar","method":"photovoltaic","capacityMW":0.176,"operator":"DOT Telematik und Systemtechnik GmbH","start":"2012-30-01"}},{"type":"Feature","geometry":{"type":"Point","coordinates":[15.21412,47.41037]},"properties":{"id":"way/173058876","name":"Kraftwerk Dionysen","fuel":"hydro","source":"hydro","method":"run-of-the-river","capacityMW":16,"operator":"Verbund Hydro Power GmbH"}},{"type":"Feature","geometry":{"type":"Point","coordinates":[13.194,47.47074]},"properties":{"id":"way/173563559","name":"Wasserkraftwerk Werfen","fuel":"hydro","source":"hydro","method":"run-of-the-river","capacityMW":16,"operator":"Salzburg AG"}},{"type":"Feature","geometry":{"type":"Point","coordinates":[15.66705,46.70576]},"properties":{"id":"way/174341135","name":"mHE Ceršak","fuel":"hydro","source":"hydro","method":"run-of-the-river","capacityMW":0.65,"operator":"Dravske elektrarne Maribor","start":"1936"}},{"type":"Feature","geometry":{"type":"Point","coordinates":[15.15594,48.13764]},"properties":{"id":"way/176001128","name":"Wasserkraftwerk Breiteneich","fuel":"hydro","source":"hydro","method":"run-of-the-river","capacityMW":0.21180000000000002,"operator":"Brau Union Brauerei Wieselburg"}},{"type":"Feature","geometry":{"type":"Point","coordinates":[13.3527,47.06585]},"properties":{"id":"way/176377270","name":"Malta Oberstufe","fuel":"pumped","source":"hydro","method":"water-pumped-storage","capacityMW":120,"operator":"Austrian Hydro Power AG"}},{"type":"Feature","geometry":{"type":"Point","coordinates":[13.92637,47.34381]},"properties":{"id":"way/177949564","name":"Unnamed site","fuel":"other"}},{"type":"Feature","geometry":{"type":"Point","coordinates":[10.09403,47.1307]},"properties":{"id":"way/178453083","name":"Kleinkraftwerk Blisadona","fuel":"hydro","source":"hydro","method":"run-of-the-river","capacityMW":0.116,"operator":"Gemeinde Klösterle","start":"2005"}},{"type":"Feature","geometry":{"type":"Point","coordinates":[15.69131,47.34523]},"properties":{"id":"way/180137841","name":"Heizwerk","fuel":"other"}},{"type":"Feature","geometry":{"type":"Point","coordinates":[13.64527,46.72099]},"properties":{"id":"way/180934814","name":"Paternion","fuel":"hydro","source":"hydro","method":"run-of-the-river","capacityMW":24,"operator":"Verbund Hydro Power GmbH","start":"1988"}},{"type":"Feature","geometry":{"type":"Point","coordinates":[9.80608,47.17938]},"properties":{"id":"way/181987018","name":"Kleinwasserkraftwerk Nüziders","fuel":"hydro","source":"hydro","method":"run-of-the-river","operator":"Vorarlberger Kraftwerke AG"}},{"type":"Feature","geometry":{"type":"Point","coordinates":[13.54342,48.52069]},"properties":{"id":"way/182399576","name":"Kraftwerk Kneiding","fuel":"hydro","source":"hydro","method":"run-of-the-river","capacityMW":0.13,"start":"1925"}},{"type":"Feature","geometry":{"type":"Point","coordinates":[10.49069,47.11694]},"properties":{"id":"way/183541374","name":"Kraftwerk Wiesberg","fuel":"hydro","source":"hydro","method":"water-storage","operator":"Donau Chemie"}},{"type":"Feature","geometry":{"type":"Point","coordinates":[13.22053,47.40709]},"properties":{"id":"way/183618239","name":"Kraftwerk Bischofshofen","fuel":"hydro","source":"hydro","method":"run-of-the-river","capacityMW":16,"operator":"Salzburg AG"}},{"type":"Feature","geometry":{"type":"Point","coordinates":[15.26116,46.71982]},"properties":{"id":"way/183763758","name":"Heizwerk Wies","fuel":"bioenergy","source":"biomass","method":"combustion","operator":"Nahwärme Gleinstätten GmbH"}},{"type":"Feature","geometry":{"type":"Point","coordinates":[10.45254,47.23106]},"properties":{"id":"way/183988429","name":"Unnamed site","fuel":"hydro","source":"hydro"}},{"type":"Feature","geometry":{"type":"Point","coordinates":[10.4483,47.23263]},"properties":{"id":"way/183988431","name":"Unnamed site","fuel":"hydro","source":"hydro","method":"run-of-the-river","capacityMW":0.03,"operator":"private"}},{"type":"Feature","geometry":{"type":"Point","coordinates":[15.0717,47.83957]},"properties":{"id":"way/185324408","name":"Wasserkraftwerk Forstverwaltung Seehof","fuel":"hydro","source":"hydro","method":"run-of-the-river","capacityMW":0.132,"operator":"Forstverwaltung Seehof GmbH & Co KG"}},{"type":"Feature","geometry":{"type":"Point","coordinates":[16.43381,48.27643]},"properties":{"id":"way/186651671","name":"Fernheizwerk Leopoldau","fuel":"gas","source":"gas;oil","method":"combustion","operator":"Wien Energie GmbH","start":"1975-02-17"}},{"type":"Feature","geometry":{"type":"Point","coordinates":[15.57016,46.74405]},"properties":{"id":"way/188442755","name":"Kraftwerk Retznei","fuel":"hydro","source":"hydro","method":"run-of-the-river","capacityMW":1,"operator":"Verbund Hydro Power GmbH"}},{"type":"Feature","geometry":{"type":"Point","coordinates":[14.61405,47.21163]},"properties":{"id":"way/189591468","name":"Kraftwerk Pöls","fuel":"hydro","source":"hydro","method":"run-of-the-river","capacityMW":2,"operator":"Verbund Hydro Power GmbH","start":"1904-12-12"}},{"type":"Feature","geometry":{"type":"Point","coordinates":[14.65254,48.28115]},"properties":{"id":"way/189867986","name":"Kraftwerk Kegelschmiede","fuel":"hydro","source":"hydro","method":"run-of-the-river","capacityMW":1.1,"operator":"E-Werk Perg","start":"1910"}},{"type":"Feature","geometry":{"type":"Point","coordinates":[14.67702,48.30753]},"properties":{"id":"way/189867987","name":"Kraftwerk Aschermühle","fuel":"hydro","source":"hydro","method":"run-of-the-river","capacityMW":0.05,"operator":"E-Werk Perg","start":"1954"}},{"type":"Feature","geometry":{"type":"Point","coordinates":[12.43862,47.67259]},"properties":{"id":"way/191362377","name":"Unnamed site","fuel":"bioenergy","source":"biomass","operator":"Peternhof"}},{"type":"Feature","geometry":{"type":"Point","coordinates":[14.68211,48.31381]},"properties":{"id":"way/191566284","name":"Kraftwerk Toitschmühle","fuel":"hydro","source":"hydro","method":"run-of-the-river","capacityMW":0.5,"operator":"E-Werk Perg","start":"1978"}},{"type":"Feature","geometry":{"type":"Point","coordinates":[12.39339,47.43297]},"properties":{"id":"way/194138518","name":"E-Werk","fuel":"hydro","source":"hydro"}},{"type":"Feature","geometry":{"type":"Point","coordinates":[10.98728,47.27596]},"properties":{"id":"way/194533837","name":"Biomasseheizwerk Stams","fuel":"bioenergy","source":"biomass"}},{"type":"Feature","geometry":{"type":"Point","coordinates":[15.34383,46.96632]},"properties":{"id":"way/196123950","name":"Unnamed site","fuel":"bioenergy","source":"biomass","method":"combustion"}},{"type":"Feature","geometry":{"type":"Point","coordinates":[14.95591,46.63394]},"properties":{"id":"way/200307418","name":"Kraftwerk Koralpe","fuel":"pumped","source":"hydro","method":"water-pumped-storage","capacityMW":50,"operator":"KELAG","start":"1991"}},{"type":"Feature","geometry":{"type":"Point","coordinates":[10.40012,47.06575]},"properties":{"id":"way/200771435","name":"Kraftwerk Grübelebach","fuel":"hydro","source":"hydro","method":"run-of-the-river","operator":"Wasserkraft Grübele GmbH"}},{"type":"Feature","geometry":{"type":"Point","coordinates":[9.96161,47.31713]},"properties":{"id":"way/201195692","name":"Kleinwasserkraftwerk Au","fuel":"hydro","source":"hydro","method":"run-of-the-river","capacityMW":0.045,"operator":"Vorarlberger Kraftwerke AG"}},{"type":"Feature","geometry":{"type":"Point","coordinates":[14.62869,48.23733]},"properties":{"id":"way/203321377","name":"Bioenergie Perg","fuel":"bioenergy","source":"biomass","method":"gasification","capacityMW":1,"operator":"Nawaro"}},{"type":"Feature","geometry":{"type":"Point","coordinates":[15.70802,47.76812]},"properties":{"id":"way/204593415","name":"Kraftwerk Nasswald","fuel":"hydro","source":"hydro","method":"water-storage","operator":"Wien Energie"}},{"type":"Feature","geometry":{"type":"Point","coordinates":[10.04257,46.97493]},"properties":{"id":"way/206376438","name":"Rifawerk","fuel":"pumped","source":"hydro","method":"water-pumped-storage","capacityMW":7,"operator":"illwerke vkw"}},{"type":"Feature","geometry":{"type":"Point","coordinates":[10.03864,47.29956]},"properties":{"id":"way/206426077","name":"Kleinwasserkraftwerk Schoppernau","fuel":"hydro","source":"hydro","method":"run-of-the-river","capacityMW":0.04,"operator":"Vorarlberger Kraftwerke AG"}},{"type":"Feature","geometry":{"type":"Point","coordinates":[9.9,47.05524]},"properties":{"id":"way/206450889","name":"Kraftwerk Oberstufe Gampadels","fuel":"hydro","source":"hydro","method":"water-storage","capacityMW":4.8,"operator":"Vorarlberger Kraftwerke AG"}},{"type":"Feature","geometry":{"type":"Point","coordinates":[9.73749,47.18262]},"properties":{"id":"way/206451383","name":"Kraftwerk Unterstufe Lutz","fuel":"hydro","source":"hydro","method":"water-storage","capacityMW":8.6,"operator":"Vorarlberger Kraftwerke AG","start":"1959"}},{"type":"Feature","geometry":{"type":"Point","coordinates":[9.78818,47.20487]},"properties":{"id":"way/206452806","name":"Kraftwerk Oberstufe Lutz","fuel":"hydro","source":"hydro","method":"water-storage","capacityMW":19.3,"operator":"Vorarlberger Kraftwerke AG","start":"1967"}},{"type":"Feature","geometry":{"type":"Point","coordinates":[9.83468,47.13635]},"properties":{"id":"way/206516599","name":"Kleinkraftwerk Brunnenfeld","fuel":"hydro","source":"hydro","method":"run-of-the-river","capacityMW":0.3,"operator":"Vorarlberger Illwerke AG"}},{"type":"Feature","geometry":{"type":"Point","coordinates":[14.49979,48.22302]},"properties":{"id":"way/206535083","name":"Biomasseheizkraftwerk Ennsdorf","fuel":"bioenergy","source":"biomass","method":"combustion","capacityMW":5,"operator":"GEM - Gesellschaft für Energieversorgung und -management mbH"}},{"type":"Feature","geometry":{"type":"Point","coordinates":[9.79974,47.14961]},"properties":{"id":"way/206842228","name":"Kleinkraftwerk Lukadavi","fuel":"hydro","source":"hydro","method":"run-of-the-river","capacityMW":0.107,"operator":"LukaDavi Energieerzeugungs GmbH"}},{"type":"Feature","geometry":{"type":"Point","coordinates":[9.77031,47.54413]},"properties":{"id":"way/207000876","name":"Trinkwasserkraftwerk Halbenstein","fuel":"hydro","source":"hydro","method":"run-of-the-river","capacityMW":0.07,"operator":"Gemeinde Hörbranz"}},{"type":"Feature","geometry":{"type":"Point","coordinates":[15.14233,48.13029]},"properties":{"id":"way/207064806","name":"EVN E-Werk Fahrner","fuel":"hydro","source":"hydro","method":"run-of-the-river","capacityMW":0.1,"operator":"EVN Naturkraft"}},{"type":"Feature","geometry":{"type":"Point","coordinates":[10.53652,46.97037]},"properties":{"id":"way/210858414","name":"Biomasseheizwerk Pfunds","fuel":"bioenergy","source":"biomass"}},{"type":"Feature","geometry":{"type":"Point","coordinates":[15.21111,46.99364]},"properties":{"id":"way/211232979","name":"Biomasse Heizgemeinschaft","fuel":"bioenergy","source":"biomass"}},{"type":"Feature","geometry":{"type":"Point","coordinates":[13.49841,48.51937]},"properties":{"id":"way/212740187","name":"Nahwärme Schardenberg","fuel":"bioenergy","source":"biomass","method":"combustion"}},{"type":"Feature","geometry":{"type":"Point","coordinates":[9.62818,47.21243]},"properties":{"id":"way/214642349","name":"Kleinwasserkraftwerk Samina 1, Waldbruderweg","fuel":"hydro","source":"hydro","method":"run-of-the-river","capacityMW":1.97,"operator":"E-Werke Frastanz"}},{"type":"Feature","geometry":{"type":"Point","coordinates":[9.91532,47.23709]},"properties":{"id":"way/215214811","name":"Kleinwasserkraftwerk Kaufmann Gottlieb","fuel":"hydro","source":"hydro","method":"run-of-the-river","capacityMW":0.475}},{"type":"Feature","geometry":{"type":"Point","coordinates":[16.13594,48.24051]},"properties":{"id":"way/216224309","name":"Unnamed site","fuel":"solar","source":"solar","method":"photovoltaic","start":"2026"}},{"type":"Feature","geometry":{"type":"Point","coordinates":[13.5936,46.73939]},"properties":{"id":"way/218584035","name":"Kraftwerk Kamering","fuel":"hydro","source":"hydro","capacityMW":9.9,"operator":"KELAG","start":"1952"}},{"type":"Feature","geometry":{"type":"Point","coordinates":[12.64011,46.80105]},"properties":{"id":"way/218689453","name":"EWA Stromkraftwerk Oberstufe","fuel":"hydro","source":"hydro","method":"run-of-the-river","operator":"EWA","start":"2005"}},{"type":"Feature","geometry":{"type":"Point","coordinates":[10.63739,47.1844]},"properties":{"id":"way/222942744","name":"Kleinkraftwerk Kronburgbach","fuel":"hydro","source":"hydro","method":"water-storage"}},{"type":"Feature","geometry":{"type":"Point","coordinates":[13.17673,47.57697]},"properties":{"id":"way/223110671","name":"Leube Kalkwerk","fuel":"other","operator":"Leube"}},{"type":"Feature","geometry":{"type":"Point","coordinates":[9.8423,47.13467]},"properties":{"id":"way/223600119","name":"Alfenzwerk","fuel":"hydro","source":"hydro","method":"water-storage","capacityMW":3,"operator":"Alfenzwerke Elektrizitätserzeugung GmbH"}},{"type":"Feature","geometry":{"type":"Point","coordinates":[11.67998,47.32323]},"properties":{"id":"way/224121140","name":"Kraftwerk Pillbach","fuel":"hydro","source":"hydro","method":"run-of-the-river","capacityMW":2.48,"operator":"Stadtwerke Schwaz","start":"1983"}},{"type":"Feature","geometry":{"type":"Point","coordinates":[15.50406,46.94352]},"properties":{"id":"way/226685554","name":"Kraftwerk Kalsdorf","fuel":"hydro","source":"hydro","method":"run-of-the-river","capacityMW":19,"operator":"Verbund Hydro Power GmbH","start":"2013-10-25"}},{"type":"Feature","geometry":{"type":"Point","coordinates":[13.78564,47.6069]},"properties":{"id":"way/226950329","name":"Werk Pratergasse","fuel":"hydro","source":"hydro","method":"run-of-the-river","capacityMW":0.128,"operator":"Schwarz, Wagendorffer & Co."}},{"type":"Feature","geometry":{"type":"Point","coordinates":[9.65797,47.18734]},"properties":{"id":"way/227215447","name":"Kleinkraftwerk Latz","fuel":"hydro","source":"hydro","method":"run-of-the-river","capacityMW":0.18,"operator":"Gemeinde Nenzing"}},{"type":"Feature","geometry":{"type":"Point","coordinates":[9.90629,47.27356]},"properties":{"id":"way/227238932","name":"Bioheizwerk Faschina","fuel":"bioenergy","source":"biomass","operator":"Bioheizwerk Faschina GmbH & Co KG","start":"2003-12"}},{"type":"Feature","geometry":{"type":"Point","coordinates":[12.85823,47.02945]},"properties":{"id":"way/227311282","name":"Kraftwerk Fleiß I","fuel":"hydro","source":"hydro","capacityMW":2.7,"operator":"KELAG","start":"1947"}},{"type":"Feature","geometry":{"type":"Point","coordinates":[12.85442,47.02885]},"properties":{"id":"way/227311309","name":"Unnamed site","fuel":"hydro","source":"hydro","operator":"Großglockner Seilbahn GmbH"}},{"type":"Feature","geometry":{"type":"Point","coordinates":[9.66806,47.29491]},"properties":{"id":"way/227345222","name":"Trinkwasserkraftwerk Latora","fuel":"hydro","source":"hydro","method":"run-of-the-river","capacityMW":0.03,"operator":"Gemeinde Sulz"}},{"type":"Feature","geometry":{"type":"Point","coordinates":[12.8734,47.03728]},"properties":{"id":"way/227492214","name":"Kraftwerk Fleiß II","fuel":"hydro","source":"hydro","capacityMW":0.4,"operator":"KELAG","start":"1971"}},{"type":"Feature","geometry":{"type":"Point","coordinates":[12.77552,46.70266]},"properties":{"id":"way/228008439","name":"Unnamed site","fuel":"hydro","source":"hydro","method":"run-of-the-river"}},{"type":"Feature","geometry":{"type":"Point","coordinates":[14.75815,47.4426]},"properties":{"id":"way/228107444","name":"Kraftwerk Teichenbach","fuel":"hydro","source":"hydro","method":"run-of-the-river"}},{"type":"Feature","geometry":{"type":"Point","coordinates":[15.89309,47.68564]},"properties":{"id":"way/229014123","name":"Unnamed site","fuel":"hydro","source":"hydro","method":"run-of-the-river","operator":"EVN Naturkraft Erzeugungsgesellschaft m.b.H"}},{"type":"Feature","geometry":{"type":"Point","coordinates":[9.98032,47.32204]},"properties":{"id":"way/229065017","name":"Biomasseheizkraftwerk Au","fuel":"bioenergy","source":"biomass"}},{"type":"Feature","geometry":{"type":"Point","coordinates":[15.40223,47.48393]},"properties":{"id":"way/229134836","name":"Unnamed site","fuel":"other"}},{"type":"Feature","geometry":{"type":"Point","coordinates":[15.58039,47.56173]},"properties":{"id":"way/229135804","name":"Unnamed site","fuel":"other"}},{"type":"Feature","geometry":{"type":"Point","coordinates":[15.63375,47.57517]},"properties":{"id":"way/229135810","name":"Unnamed site","fuel":"other"}},{"type":"Feature","geometry":{"type":"Point","coordinates":[15.25606,46.716]},"properties":{"id":"way/229190429","name":"Unnamed site","fuel":"hydro","source":"hydro","method":"run-of-the-river","capacityMW":0.054,"operator":"Sigl GmbH & CO KG","start":"1906"}},{"type":"Feature","geometry":{"type":"Point","coordinates":[15.16027,47.01827]},"properties":{"id":"way/229192640","name":"Kraftwerk Arnstein","fuel":"hydro","source":"hydro","method":"water-storage","capacityMW":30,"operator":"Verbund Hydro Power GmbH","start":"1925"}},{"type":"Feature","geometry":{"type":"Point","coordinates":[15.16671,47.02165]},"properties":{"id":"way/229192641","name":"Kraftwerk Teigitschmühle","fuel":"hydro","source":"hydro","method":"run-of-the-river","capacityMW":1.2,"operator":"Verbund Hydro Power GmbH"}},{"type":"Feature","geometry":{"type":"Point","coordinates":[14.18414,47.10901]},"properties":{"id":"way/229416953","name":"Kraftwerk Murau","fuel":"hydro","source":"hydro","method":"run-of-the-river","capacityMW":4.5,"operator":"Murauer Stadtwerke GmbH"}},{"type":"Feature","geometry":{"type":"Point","coordinates":[14.08662,47.10445]},"properties":{"id":"way/229420376","name":"Kraftwerk St. Georgen","fuel":"hydro","source":"hydro","capacityMW":6,"operator":"Verbund Hydro Power GmbH","start":"1985"}},{"type":"Feature","geometry":{"type":"Point","coordinates":[15.59307,46.83323]},"properties":{"id":"way/229434498","name":"Unnamed site","fuel":"other"}},{"type":"Feature","geometry":{"type":"Point","coordinates":[10.21752,47.09941]},"properties":{"id":"way/230130133","name":"Kraftwerk Kartell","fuel":"hydro","source":"hydro","method":"water-storage","capacityMW":8,"operator":"EWA-Energie- und Wirtschaftsbetriebe der Gemeinde St. Anton GmbH"}},{"type":"Feature","geometry":{"type":"Point","coordinates":[13.78309,47.60193]},"properties":{"id":"way/230297900","name":"Kraftwerk Bad Aussee","fuel":"hydro","source":"hydro","method":"run-of-the-river","capacityMW":0.82,"operator":"Energie AG","start":"1993"}},{"type":"Feature","geometry":{"type":"Point","coordinates":[15.13274,47.94391]},"properties":{"id":"way/231409919","name":"Kraftwerk Gaming II","fuel":"hydro","source":"hydro","method":"water-storage","capacityMW":0.685,"operator":"Wien Energie","start":"1987"}},{"type":"Feature","geometry":{"type":"Point","coordinates":[15.40957,47.08121]},"properties":{"id":"way/232857429","name":"Heizzentrale Waagner-Biro-Straße","fuel":"gas","source":"gas","method":"combustion","capacityMW":1,"operator":"Energie Graz"}},{"type":"Feature","geometry":{"type":"Point","coordinates":[13.31271,47.28772]},"properties":{"id":"way/233170566","name":"Kraftwerk Spannberg","fuel":"hydro","source":"hydro","method":"run-of-the-river","capacityMW":1.6,"operator":"Energie AG","start":"1987"}},{"type":"Feature","geometry":{"type":"Point","coordinates":[12.35846,47.27421]},"properties":{"id":"way/233761772","name":"Heizwerk Bramberg","fuel":"bioenergy","source":"biomass","operator":"Salzburg AG","start":"1992"}},{"type":"Feature","geometry":{"type":"Point","coordinates":[15.31028,47.25082]},"properties":{"id":"way/234420432","name":"Kraftwerk Rabenstein","fuel":"hydro","source":"hydro","method":"run-of-the-river","capacityMW":14,"operator":"Verbund Hydro Power GmbH"}},{"type":"Feature","geometry":{"type":"Point","coordinates":[15.39209,47.10862]},"properties":{"id":"way/234674337","name":"Kraftwerk Weinzödl","fuel":"hydro","source":"hydro","method":"run-of-the-river","capacityMW":19,"operator":"Verbund Hydro Power GmbH","start":"1982"}},{"type":"Feature","geometry":{"type":"Point","coordinates":[13.81979,47.92411]},"properties":{"id":"way/234894838","name":"Laufen","fuel":"solar","source":"solar"}},{"type":"Feature","geometry":{"type":"Point","coordinates":[13.10145,47.24363]},"properties":{"id":"way/235370093","name":"BWD Biowärme Dorfgastein","fuel":"other"}},{"type":"Feature","geometry":{"type":"Point","coordinates":[13.10158,47.96524]},"properties":{"id":"way/237441069","name":"Nahwärme Mattsee","fuel":"bioenergy","source":"biomass","method":"combustion"}},{"type":"Feature","geometry":{"type":"Point","coordinates":[15.09713,47.94147]},"properties":{"id":"way/237961465","name":"Kraftwerkshaus","fuel":"hydro","source":"hydro"}},{"type":"Feature","geometry":{"type":"Point","coordinates":[13.47673,47.80126]},"properties":{"id":"way/238039007","name":"Sandoz","fuel":"other"}},{"type":"Feature","geometry":{"type":"Point","coordinates":[15.7949,46.74363]},"properties":{"id":"way/238188733","name":"Unnamed site","fuel":"solar","source":"solar","method":"photovoltaic"}},{"type":"Feature","geometry":{"type":"Point","coordinates":[15.43708,47.04836]},"properties":{"id":"way/240115571","name":"Fernheizkraftwerk Graz-Puchstraße","fuel":"gas","source":"gas","method":"combustion","operator":"Energie Steiermark"}},{"type":"Feature","geometry":{"type":"Point","coordinates":[14.66293,47.58748]},"properties":{"id":"way/241173432","name":"Unnamed site","fuel":"other"}},{"type":"Feature","geometry":{"type":"Point","coordinates":[13.16106,48.28967]},"properties":{"id":"way/242193001","name":"Wasserkraftwerk Ering-Frauenstein","fuel":"hydro","source":"hydro","method":"run-of-the-river","capacityMW":72.9,"operator":"E.ON Wasserkraft"}},{"type":"Feature","geometry":{"type":"Point","coordinates":[13.74275,46.56498]},"properties":{"id":"way/242606813","name":"Kraftwerk Schütt 1","fuel":"hydro","source":"hydro","operator":"KELAG","start":"1911"}},{"type":"Feature","geometry":{"type":"Point","coordinates":[13.75851,46.56013]},"properties":{"id":"way/242606817","name":"Kraftwerk Schütt 2","fuel":"hydro","source":"hydro","capacityMW":10,"operator":"KELAG","start":"1962"}},{"type":"Feature","geometry":{"type":"Point","coordinates":[13.86243,48.69668]},"properties":{"id":"way/246102024","name":"Unnamed site","fuel":"solar","source":"solar","method":"photovoltaic"}},{"type":"Feature","geometry":{"type":"Point","coordinates":[11.67745,47.32581]},"properties":{"id":"way/252379327","name":"Kraftwerk Vomperbach Unterstufe","fuel":"hydro","source":"hydro","method":"run-of-the-river","capacityMW":1.64,"operator":"Stadtwerke Schwaz","start":"1959"}},{"type":"Feature","geometry":{"type":"Point","coordinates":[12.26291,47.23435]},"properties":{"id":"way/253089317","name":"Wasserkraftwerk Untersulzbach","fuel":"hydro","source":"hydro","method":"run-of-the-river","capacityMW":1.795,"operator":"Lichtgenossenschaft Neukirchen","start":"1979"}},{"type":"Feature","geometry":{"type":"Point","coordinates":[13.45481,46.9828]},"properties":{"id":"way/253467838","name":"Kraftwerk Gößfall","fuel":"hydro","source":"hydro","operator":"KELAG"}},{"type":"Feature","geometry":{"type":"Point","coordinates":[13.19052,47.17216]},"properties":{"id":"way/253843701","name":"Unnamed site","fuel":"other","operator":"Lederer"}},{"type":"Feature","geometry":{"type":"Point","coordinates":[10.17296,47.35503]},"properties":{"id":"way/255080438","name":"Biomasse Heizwerk Kleinwalsertal","fuel":"bioenergy","source":"biogas","method":"combustion","operator":"Bioenergie Heizwerk Kleinwalsertal eGen","start":"2011-11-01"}},{"type":"Feature","geometry":{"type":"Point","coordinates":[13.24444,47.15249]},"properties":{"id":"way/255110778","name":"Hubalpenbach","fuel":"hydro","source":"hydro","operator":"EAg"}},{"type":"Feature","geometry":{"type":"Point","coordinates":[13.20356,47.20224]},"properties":{"id":"way/255230518","name":"KW Oflek an der Großarler Ache","fuel":"hydro","source":"hydro","method":"run-of-the-river","capacityMW":2.3,"operator":"Energie AG","start":"2011"}},{"type":"Feature","geometry":{"type":"Point","coordinates":[15.97406,48.7521]},"properties":{"id":"way/256107128","name":"Biogasanlage","fuel":"bioenergy","source":"biomass","method":"anaerobic_digestion"}},{"type":"Feature","geometry":{"type":"Point","coordinates":[13.17428,47.19286]},"properties":{"id":"way/256214982","name":"Unnamed site","fuel":"other"}},{"type":"Feature","geometry":{"type":"Point","coordinates":[14.00922,48.04921]},"properties":{"id":"way/256752485","name":"SolarCampus Eberstalzell","fuel":"solar","source":"solar","method":"photovoltaic","capacityMW":4.32,"operator":"Energie AG","start":"2010-05-21"}},{"type":"Feature","geometry":{"type":"Point","coordinates":[14.84929,48.1095]},"properties":{"id":"way/258105459","name":"Restwasserkraftwerk","fuel":"hydro","source":"hydro","method":"run-of-the-river","capacityMW":0.51}},{"type":"Feature","geometry":{"type":"Point","coordinates":[13.2203,47.28021]},"properties":{"id":"way/258779978","name":"Labenbach","fuel":"other","operator":"Illmer GmbH & Co KG"}},{"type":"Feature","geometry":{"type":"Point","coordinates":[13.20973,47.29429]},"properties":{"id":"way/258779981","name":"Plankenau","fuel":"hydro","source":"hydro","operator":"EAG"}},{"type":"Feature","geometry":{"type":"Point","coordinates":[14.41188,48.01784]},"properties":{"id":"way/259327210","name":"Kraftwerk Garsten-St. Ulrich","fuel":"hydro","source":"hydro","method":"run-of-the-river","capacityMW":38,"operator":"Ennskraftwerke AG"}},{"type":"Feature","geometry":{"type":"Point","coordinates":[13.79658,47.61613]},"properties":{"id":"way/259720749","name":"Heizwerk Bad Aussee","fuel":"bioenergy","source":"biomass"}},{"type":"Feature","geometry":{"type":"Point","coordinates":[14.63221,47.18119]},"properties":{"id":"way/259922196","name":"Unnamed site","fuel":"solar","source":"solar","method":"photovoltaic"}},{"type":"Feature","geometry":{"type":"Point","coordinates":[14.03194,46.52269]},"properties":{"id":"way/260258137","name":"Kraftwerk Bärental Matsching","fuel":"hydro","source":"hydro"}},{"type":"Feature","geometry":{"type":"Point","coordinates":[13.78836,47.61218]},"properties":{"id":"way/260532525","name":"Werk Stögermühle","fuel":"hydro","source":"hydro","method":"run-of-the-river","capacityMW":0.1,"operator":"Schwarz, Wagendorffer & Co."}},{"type":"Feature","geometry":{"type":"Point","coordinates":[14.17004,47.19281]},"properties":{"id":"way/260947134","name":"Sonnenkraftwerk Mitterdorf","fuel":"solar","source":"solar","method":"photovoltaic","capacityMW":0.5,"operator":"Unser Kraftwerk UK-Naturstrom GmbH"}},{"type":"Feature","geometry":{"type":"Point","coordinates":[14.8874,48.23553]},"properties":{"id":"way/262647932","name":"Kraftwerk Gießenbach 1","fuel":"hydro","source":"hydro","operator":"Ebner Strom GmbH"}},{"type":"Feature","geometry":{"type":"Point","coordinates":[13.82924,46.63291]},"properties":{"id":"way/264480024","name":"Kraftwerk Villach","fuel":"hydro","source":"hydro","capacityMW":25,"operator":"Verbund Hydro Power GmbH","start":"1984"}},{"type":"Feature","geometry":{"type":"Point","coordinates":[14.51214,47.89299]},"properties":{"id":"way/266583793","name":"Wasserkraftwerk Grossraming","fuel":"hydro","source":"hydro","method":"run-of-the-river","capacityMW":72,"operator":"Ennskraftwerke AG"}},{"type":"Feature","geometry":{"type":"Point","coordinates":[10.05453,47.1328]},"properties":{"id":"way/266746972","name":"Kraftwerk Spullersee","fuel":"hydro","source":"hydro","method":"water-storage","capacityMW":36,"operator":"ÖBB"}},{"type":"Feature","geometry":{"type":"Point","coordinates":[12.8434,48.03031]},"properties":{"id":"way/267364185","name":"Kraftwerk Riedersbach","fuel":"coal","source":"coal;oil"}},{"type":"Feature","geometry":{"type":"Point","coordinates":[13.18264,47.79309]},"properties":{"id":"way/274060930","name":"Unnamed site","fuel":"hydro","source":"hydro","method":"run-of-the-river"}},{"type":"Feature","geometry":{"type":"Point","coordinates":[15.16469,48.00729]},"properties":{"id":"way/278116806","name":"EVN Wasserkraftwerk Scheibbs","fuel":"hydro","source":"hydro","method":"run-of-the-river","capacityMW":0.14,"operator":"EVN Naturkraft","start":"1894"}},{"type":"Feature","geometry":{"type":"Point","coordinates":[14.31373,46.60389]},"properties":{"id":"way/279109844","name":"Biomasse-Kraftwerk Süd","fuel":"bioenergy","source":"biomass","method":"thermal","capacityMW":5,"operator":"Bioenergiezentrum GmbH"}},{"type":"Feature","geometry":{"type":"Point","coordinates":[16.04673,47.72139]},"properties":{"id":"way/280258437","name":"Biomasse Fernheizwerk Mittleres Schwarzatal","fuel":"bioenergy","source":"biomass","method":"combustion","operator":"EVN","start":"2007"}},{"type":"Feature","geometry":{"type":"Point","coordinates":[15.66926,47.60873]},"properties":{"id":"way/282453043","name":"Wasserkraftwerk Auwehr","fuel":"hydro","source":"hydro","method":"run-of-the-river"}},{"type":"Feature","geometry":{"type":"Point","coordinates":[13.42565,48.13563]},"properties":{"id":"way/285077030","name":"Nahwärme Waldzell","fuel":"bioenergy","source":"biomass"}},{"type":"Feature","geometry":{"type":"Point","coordinates":[14.58555,47.53968]},"properties":{"id":"way/286701058","name":"Kraftwerk Johnsbach I","fuel":"other","operator":"ENVESTA Energie- und Dienstleistungs GmbH"}},{"type":"Feature","geometry":{"type":"Point","coordinates":[14.62964,47.52697]},"properties":{"id":"way/286701066","name":"Kraftwerk Johnsbach II","fuel":"hydro","source":"hydro","method":"run-of-the-river","capacityMW":0.6,"operator":"ENVESTA Energie- und Dienstleistungs GmbH"}},{"type":"Feature","geometry":{"type":"Point","coordinates":[15.02403,48.04633]},"properties":{"id":"way/291209420","name":"Kraftwerk Wang","fuel":"hydro","source":"hydro"}},{"type":"Feature","geometry":{"type":"Point","coordinates":[13.2526,47.16836]},"properties":{"id":"way/293104558","name":"Kraftwerk Hubalpbach","fuel":"hydro","source":"hydro","method":"run-of-the-river"}},{"type":"Feature","geometry":{"type":"Point","coordinates":[16.41017,48.13126]},"properties":{"id":"way/293184909","name":"BürgerInnen-Solarkraftwerk Unterlaa","fuel":"solar","source":"solar","method":"photovoltaic","capacityMW":1.92,"operator":"Wien Energie"}},{"type":"Feature","geometry":{"type":"Point","coordinates":[13.31167,46.87289]},"properties":{"id":"way/293434346","name":"Reißeck-Kreuzeck","fuel":"hydro","source":"hydro","capacityMW":138,"operator":"Verbund Hydro Power GmbH","start":"1950"}},{"type":"Feature","geometry":{"type":"Point","coordinates":[12.42497,47.27839]},"properties":{"id":"way/294212983","name":"Kraftwerk Hollersbach","fuel":"hydro","source":"hydro","method":"water-storage","capacityMW":5.2,"operator":"Salzburg AG","start":"2010"}},{"type":"Feature","geometry":{"type":"Point","coordinates":[15.01609,47.84208]},"properties":{"id":"way/298369066","name":"Wasserkraftwerk Lunz Kasten","fuel":"hydro","source":"hydro","capacityMW":0.27,"operator":"E-Werk Schwaighofer","start":"1970"}},{"type":"Feature","geometry":{"type":"Point","coordinates":[15.57205,47.20621]},"properties":{"id":"way/301151118","name":"Unnamed site","fuel":"other"}},{"type":"Feature","geometry":{"type":"Point","coordinates":[14.89772,47.93639]},"properties":{"id":"way/302427617","name":"Kleinwasserkraftwerk Ybbsitz","fuel":"hydro","source":"hydro","method":"run-of-the-river","operator":"EVN Naturkraft"}},{"type":"Feature","geometry":{"type":"Point","coordinates":[15.02503,47.86025]},"properties":{"id":"way/303573694","name":"Unnamed site","fuel":"other"}},{"type":"Feature","geometry":{"type":"Point","coordinates":[15.82653,47.22682]},"properties":{"id":"way/304180387","name":"Unnamed site","fuel":"other"}},{"type":"Feature","geometry":{"type":"Point","coordinates":[16.19596,47.59807]},"properties":{"id":"way/305415118","name":"Fernheizwerk Lichtenegg","fuel":"other"}},{"type":"Feature","geometry":{"type":"Point","coordinates":[12.1711,47.43809]},"properties":{"id":"way/305455328","name":"Kraftwerk Haslau","fuel":"hydro","source":"hydro","method":"run-of-the-river","operator":"Kommunalbetriebe Hopfgarten GmbH"}},{"type":"Feature","geometry":{"type":"Point","coordinates":[16.25705,47.81493]},"properties":{"id":"way/309312833","name":"Kleinwasserkraftwerk Ungarfeld","fuel":"hydro","source":"hydro","method":"run-of-the-river","capacityMW":0.4,"operator":"EVN Naturkraft"}},{"type":"Feature","geometry":{"type":"Point","coordinates":[10.66237,47.06196]},"properties":{"id":"way/312264489","name":"Gemeinschaftskraftwerk Inn","fuel":"hydro","source":"hydro","method":"run-of-the-river","capacityMW":89,"operator":"Engadiner Kraftwerk AG, TIWAG, Verbund AG"}},{"type":"Feature","geometry":{"type":"Point","coordinates":[14.11691,47.90823]},"properties":{"id":"way/314815423","name":"Zementwerk Kirchdorf","fuel":"other","operator":"Kirchdorfer Zementwerke Hofmann GmbH"}},{"type":"Feature","geometry":{"type":"Point","coordinates":[16.24307,47.9675]},"properties":{"id":"way/314995011","name":"Biomassefernheizwerk Bad Vöslau","fuel":"bioenergy","source":"biomass","method":"combustion"}},{"type":"Feature","geometry":{"type":"Point","coordinates":[12.84244,48.03132]},"properties":{"id":"way/317645193","name":"Thermisches Kraftwerk Riedersbach II","fuel":"coal","source":"coal","method":"combustion"}},{"type":"Feature","geometry":{"type":"Point","coordinates":[12.84266,48.03217]},"properties":{"id":"way/317645194","name":"Unnamed site","fuel":"coal","source":"coal","method":"combustion"}},{"type":"Feature","geometry":{"type":"Point","coordinates":[12.84195,48.03107]},"properties":{"id":"way/317645204","name":"Unnamed site","fuel":"coal","source":"coal","method":"combustion"}},{"type":"Feature","geometry":{"type":"Point","coordinates":[12.84221,48.031]},"properties":{"id":"way/317645206","name":"Unnamed site","fuel":"coal","source":"coal","method":"combustion"}},{"type":"Feature","geometry":{"type":"Point","coordinates":[12.84207,48.03088]},"properties":{"id":"way/317645208","name":"Unnamed site","fuel":"coal","source":"coal","method":"combustion"}},{"type":"Feature","geometry":{"type":"Point","coordinates":[12.84204,48.03163]},"properties":{"id":"way/317645213","name":"Unnamed site","fuel":"coal","source":"coal","method":"combustion"}},{"type":"Feature","geometry":{"type":"Point","coordinates":[12.8419,48.03152]},"properties":{"id":"way/317645216","name":"Unnamed site","fuel":"coal","source":"coal","method":"combustion"}},{"type":"Feature","geometry":{"type":"Point","coordinates":[12.84242,48.03137]},"properties":{"id":"way/317645217","name":"Unnamed site","fuel":"coal","source":"coal","method":"combustion"}},{"type":"Feature","geometry":{"type":"Point","coordinates":[12.84225,48.03176]},"properties":{"id":"way/317645219","name":"Unnamed site","fuel":"coal","source":"coal","method":"combustion"}},{"type":"Feature","geometry":{"type":"Point","coordinates":[14.98578,48.30434]},"properties":{"id":"way/318343645","name":"Kleinwasserkraftwerk Kaltental","fuel":"hydro","source":"hydro","method":"run-of-the-river","capacityMW":0.3326,"operator":"Linz AG","start":"1924"}},{"type":"Feature","geometry":{"type":"Point","coordinates":[10.74873,47.23012]},"properties":{"id":"way/319015442","name":"Fernheizwerk Imst","fuel":"bioenergy","source":"biomass","method":"combustion"}},{"type":"Feature","geometry":{"type":"Point","coordinates":[13.18557,47.36256]},"properties":{"id":"way/320489478","name":"E-Werk Palfnerhof","fuel":"other"}},{"type":"Feature","geometry":{"type":"Point","coordinates":[13.87278,46.92583]},"properties":{"id":"way/325017262","name":"Fernwärme Turracher Höhe","fuel":"other"}},{"type":"Feature","geometry":{"type":"Point","coordinates":[13.06361,47.98771]},"properties":{"id":"way/325403751","name":"Photovoltaik Park","fuel":"solar","source":"solar","method":"photovoltaic","capacityMW":1.235,"operator":"WHB PV-Park GmbH","start":"2013"}},{"type":"Feature","geometry":{"type":"Point","coordinates":[14.32721,46.51878]},"properties":{"id":"way/326589566","name":"Kraftwerk Berg-, Schmelz- und Hammerwerk","fuel":"hydro","source":"hydro","operator":"KELAG"}},{"type":"Feature","geometry":{"type":"Point","coordinates":[16.23069,47.78253]},"properties":{"id":"way/330713121","name":"Kleinwasserkraftwerk Brunnenfeld","fuel":"hydro","source":"hydro","method":"run-of-the-river","operator":"EVN Naturkraft","start":"1924"}},{"type":"Feature","geometry":{"type":"Point","coordinates":[15.21837,46.81938]},"properties":{"id":"way/333044306","name":"Biomasseheizwerk","fuel":"bioenergy","source":"biomass","method":"combustion"}},{"type":"Feature","geometry":{"type":"Point","coordinates":[14.9559,48.57661]},"properties":{"id":"way/336050276","name":"Holzgaskraftwerk Groß Gerungs","fuel":"bioenergy","source":"biomass","method":"gasification","capacityMW":0.245,"operator":"Nawaro"}},{"type":"Feature","geometry":{"type":"Point","coordinates":[15.3782,46.7914]},"properties":{"id":"way/337358318","name":"Heizwerk St.Andrä im Sausal","fuel":"bioenergy","source":"biomass","method":"combustion","operator":"Nahwärme Gleinstätten GmbH","start":"2008"}},{"type":"Feature","geometry":{"type":"Point","coordinates":[15.37714,46.75794]},"properties":{"id":"way/338636666","name":"Heizwerk Gleinstätten","fuel":"bioenergy","source":"biomass","method":"combustion","operator":"Nahwärme Gleinstätten GmbH","start":"2006"}},{"type":"Feature","geometry":{"type":"Point","coordinates":[14.39857,47.58466]},"properties":{"id":"way/339343760","name":"Biomasseheizwerk Frauenberg","fuel":"bioenergy","source":"biomass","operator":"ENVESTA"}},{"type":"Feature","geometry":{"type":"Point","coordinates":[16.46019,48.2003]},"properties":{"id":"way/339349397","name":"Bürgersolarkraftwerk Donaustadt","fuel":"solar","source":"solar","method":"photovoltaic","capacityMW":0.5,"operator":"Wien Energie","start":"2012-05-04"}},{"type":"Feature","geometry":{"type":"Point","coordinates":[15.99435,47.60445]},"properties":{"id":"way/339372833","name":"Nahwärme Kirchberg am Wechsel","fuel":"other"}},{"type":"Feature","geometry":{"type":"Point","coordinates":[13.42414,48.31649]},"properties":{"id":"way/339814753","name":"Unnamed site","fuel":"solar","source":"solar","method":"photovoltaic"}},{"type":"Feature","geometry":{"type":"Point","coordinates":[16.20827,47.93061]},"properties":{"id":"way/340412642","name":"Photovoltaik-Kraftwerk Leobersdorf","fuel":"solar","source":"solar","method":"photovoltaic"}},{"type":"Feature","geometry":{"type":"Point","coordinates":[14.74135,46.69648]},"properties":{"id":"way/341030250","name":"GLOCK Heizkraftwerk","fuel":"other","operator":"GLOCK Ökoenergie GmbH"}},{"type":"Feature","geometry":{"type":"Point","coordinates":[15.13395,48.05145]},"properties":{"id":"way/341397832","name":"Wasserkraftwerk Kerschbaummeier","fuel":"hydro","source":"hydro","method":"run-of-the-river","capacityMW":0.16,"operator":"Rudolf Kerschbaummeier"}},{"type":"Feature","geometry":{"type":"Point","coordinates":[14.75011,47.65069]},"properties":{"id":"way/342158239","name":"Kraftwerk Landl","fuel":"hydro","source":"hydro","method":"run-of-the-river","capacityMW":25,"operator":"Verbund Hydro Power GmbH","start":"1967"}},{"type":"Feature","geometry":{"type":"Point","coordinates":[16.25327,47.99796]},"properties":{"id":"way/347535228","name":"Fernheizwerk Baden","fuel":"gas","source":"gas","operator":"EVN"}},{"type":"Feature","geometry":{"type":"Point","coordinates":[14.74338,47.46413]},"properties":{"id":"way/352110911","name":"Unnamed site","fuel":"hydro","source":"hydro","method":"run-of-the-river"}},{"type":"Feature","geometry":{"type":"Point","coordinates":[16.47133,48.17171]},"properties":{"id":"way/353015458","name":"Abwasserkraftwerk ebswien kläranlage","fuel":"hydro","source":"hydro","method":"run-of-the-river","capacityMW":0.89,"operator":"ebswien"}},{"type":"Feature","geometry":{"type":"Point","coordinates":[11.72179,47.01746]},"properties":{"id":"way/353898141","name":"KlKW Spiegelwald","fuel":"hydro","source":"hydro","method":"water-storage","operator":"VERBUND Hydro Power GmbH"}},{"type":"Feature","geometry":{"type":"Point","coordinates":[11.43795,47.27284]},"properties":{"id":"way/354825596","name":"Unnamed site","fuel":"gas","source":"gas"}},{"type":"Feature","geometry":{"type":"Point","coordinates":[15.13407,48.05734]},"properties":{"id":"way/355533767","name":"Wasserkraftwerk Purgstall","fuel":"hydro","source":"hydro","method":"run-of-the-river","capacityMW":0.54,"operator":"Anton Kittel Mühle Plaika GmbH"}},{"type":"Feature","geometry":{"type":"Point","coordinates":[16.30578,47.95792]},"properties":{"id":"way/355701424","name":"E-Werk Dumba","fuel":"hydro","source":"hydro"}},{"type":"Feature","geometry":{"type":"Point","coordinates":[16.33661,47.96991]},"properties":{"id":"way/355924637","name":"BürgerInnen-Solarkraftwerk Oberwaltersdorf","fuel":"solar","source":"solar","method":"photovoltaic","capacityMW":0.5,"operator":"Wien Energie","start":"2013"}},{"type":"Feature","geometry":{"type":"Point","coordinates":[16.43197,48.18327]},"properties":{"id":"way/356323154","name":"Fernwärmeheizwerk Simmering","fuel":"gas","source":"gas","method":"combustion"}},{"type":"Feature","geometry":{"type":"Point","coordinates":[16.36761,48.14092]},"properties":{"id":"way/356730615","name":"Bürgersolarkraftwerk Liesing II","fuel":"solar","source":"solar","method":"photovoltaic","capacityMW":0.495,"operator":"Wien Energie","start":"2013-04-08"}},{"type":"Feature","geometry":{"type":"Point","coordinates":[16.19578,47.92532]},"properties":{"id":"way/357240174","name":"Fernwärme Heizwerk ARED-Park Leobersdorf","fuel":"bioenergy","source":"biomass","method":"combustion","operator":"H.P.S. Versorgungsgesmbh"}},{"type":"Feature","geometry":{"type":"Point","coordinates":[14.90746,48.7173]},"properties":{"id":"way/360711090","name":"Holzkraftwerk Altweitra","fuel":"bioenergy","source":"biomass","operator":"Nawaro"}},{"type":"Feature","geometry":{"type":"Point","coordinates":[15.69697,48.46909]},