{"type":"FeatureCollection","features":[{"type":"Feature","geometry":{"type":"Point","coordinates":[-66.32555,45.19684]},"properties":{"id":"node/1493863497","name":"Unnamed site","fuel":"other"}},{"type":"Feature","geometry":{"type":"Point","coordinates":[-74.58619,45.59861]},"properties":{"id":"node/7818228257","name":"Voith Paper Canada Inc","fuel":"hydro","source":"hydro"}},{"type":"Feature","geometry":{"type":"Point","coordinates":[-125.31817,50.04324]},"properties":{"id":"node/10208287925","name":"John Hart Generating Station","fuel":"hydro","source":"hydro","capacityMW":126}},{"type":"Feature","geometry":{"type":"Point","coordinates":[-79.17019,43.81647]},"properties":{"id":"way/14340604","name":"ZooShare Biogas Facility","fuel":"bioenergy","source":"biogas","method":"anaerobic_digestion","capacityMW":0.5,"start":"2021"}},{"type":"Feature","geometry":{"type":"Point","coordinates":[-71.25372,48.4507]},"properties":{"id":"way/22819761","name":"Centrale de Chute-à-Caron","fuel":"hydro","source":"hydro","capacityMW":222,"operator":"Rio Tinto Alcan"}},{"type":"Feature","geometry":{"type":"Point","coordinates":[-71.21319,48.45197]},"properties":{"id":"way/22819766","name":"Centrale Murdock Wilson","fuel":"hydro","source":"hydro","capacityMW":53,"operator":"Resolute Forest Products"}},{"type":"Feature","geometry":{"type":"Point","coordinates":[-83.00042,42.32541]},"properties":{"id":"way/23757824","name":"East Windsor Cogeneration Centre","fuel":"gas","source":"gas","method":"combustion","capacityMW":92,"operator":"Capital Power","start":"2009"}},{"type":"Feature","geometry":{"type":"Point","coordinates":[-79.06256,43.81063]},"properties":{"id":"way/24656911","name":"Pickering Nuclear Generating Station","fuel":"nuclear","source":"nuclear","method":"fission","capacityMW":2086,"operator":"Ontario Power Generation","start":"1971-07-29"}},{"type":"Feature","geometry":{"type":"Point","coordinates":[-79.49876,43.77756]},"properties":{"id":"way/29004314","name":"Central Utilities","fuel":"gas","source":"gas","method":"combustion","capacityMW":10,"operator":"York University"}},{"type":"Feature","geometry":{"type":"Point","coordinates":[-79.84499,43.56097]},"properties":{"id":"way/33787918","name":"Halton Hills Generating Station","fuel":"gas","source":"gas","method":"combustion","capacityMW":641.5,"operator":"Atura Power"}},{"type":"Feature","geometry":{"type":"Point","coordinates":[-79.04399,43.14591]},"properties":{"id":"way/37538927","name":"Sir Adam Beck II Generating Station","fuel":"hydro","source":"hydro","method":"water-storage","capacityMW":1499,"operator":"Ontario Power Generation"}},{"type":"Feature","geometry":{"type":"Point","coordinates":[-74.02726,45.30873]},"properties":{"id":"way/43931599","name":"Centrale des Cèdres","fuel":"hydro","source":"hydro","method":"run-of-the-river","capacityMW":122,"operator":"Hydro-Québec"}},{"type":"Feature","geometry":{"type":"Point","coordinates":[-71.66232,45.48269]},"properties":{"id":"way/44666826","name":"East Angus","fuel":"hydro","source":"hydro","method":"run-of-the-river","capacityMW":2,"operator":"Boralex"}},{"type":"Feature","geometry":{"type":"Point","coordinates":[-73.93881,45.40454]},"properties":{"id":"way/47216246","name":"South Power House","fuel":"other"}},{"type":"Feature","geometry":{"type":"Point","coordinates":[-79.24566,43.12204]},"properties":{"id":"way/56989974","name":"Central Utilities Building","fuel":"gas","source":"gas","method":"combustion","capacityMW":8,"operator":"Brock University"}},{"type":"Feature","geometry":{"type":"Point","coordinates":[-113.08366,53.79867]},"properties":{"id":"way/57733291","name":"Air Liquide Scotford Complex Power Plant","fuel":"gas","source":"gas","method":"combustion","capacityMW":80}},{"type":"Feature","geometry":{"type":"Point","coordinates":[-79.67606,44.88423]},"properties":{"id":"way/59442497","name":"Big Chute Hydro-Electric Generating Station","fuel":"hydro","source":"hydro","method":"run-of-the-river","capacityMW":10,"operator":"Ontario Power Generation"}},{"type":"Feature","geometry":{"type":"Point","coordinates":[-75.65427,45.40331]},"properties":{"id":"way/68586722","name":"Ottawa Cogeneration Plant","fuel":"gas","source":"gas","method":"combustion","capacityMW":74,"operator":"TransAlta"}},{"type":"Feature","geometry":{"type":"Point","coordinates":[-75.76454,45.50098]},"properties":{"id":"way/230142958","name":"Centrale des Rapides-Farmer","fuel":"hydro","source":"hydro","capacityMW":98,"operator":"Hydro-Québec","start":"1927"}},{"type":"Feature","geometry":{"type":"Point","coordinates":[-79.2638,43.11746]},"properties":{"id":"way/69966315","name":"DeCew I Generating Station","fuel":"hydro","source":"hydro","method":"run-of-the-river","capacityMW":23,"operator":"Ontario Power Generation"}},{"type":"Feature","geometry":{"type":"Point","coordinates":[-95.54836,50.29814]},"properties":{"id":"way/71186560","name":"Pointe du Bois Generating Station","fuel":"hydro","source":"hydro","method":"run-of-the-river","capacityMW":75,"operator":"Manitoba Hydro","start":"1911"}},{"type":"Feature","geometry":{"type":"Point","coordinates":[-95.9976,50.39802]},"properties":{"id":"way/71349505","name":"McArthur Generating Station","fuel":"hydro","source":"hydro","method":"run-of-the-river","capacityMW":55,"operator":"Manitoba Hydro","start":"1954"}},{"type":"Feature","geometry":{"type":"Point","coordinates":[-77.59338,44.13145]},"properties":{"id":"way/73157080","name":"Sidney","fuel":"hydro","source":"hydro","method":"run-of-the-river","capacityMW":4,"operator":"Ontario Power Generation"}},{"type":"Feature","geometry":{"type":"Point","coordinates":[-77.59462,44.18644]},"properties":{"id":"way/73157444","name":"Frankford Generation Station","fuel":"hydro","source":"hydro","method":"run-of-the-river","capacityMW":3,"operator":"Ontario Power Generation"}},{"type":"Feature","geometry":{"type":"Point","coordinates":[-77.77869,44.37294]},"properties":{"id":"way/73326133","name":"Healey Falls Hydroelectric","fuel":"hydro","source":"hydro","method":"water-storage","capacityMW":18,"operator":"Ontario Power Generation"}},{"type":"Feature","geometry":{"type":"Point","coordinates":[-77.78194,44.32151]},"properties":{"id":"way/73326609","name":"Seymour Generating Station","fuel":"hydro","source":"hydro","method":"run-of-the-river","capacityMW":6,"operator":"Peterborough Utilities"}},{"type":"Feature","geometry":{"type":"Point","coordinates":[-77.80191,44.29208]},"properties":{"id":"way/73328169","name":"Ranney Falls Generating Station","fuel":"hydro","source":"hydro","method":"run-of-the-river","capacityMW":20,"operator":"Ontario Power Generation"}},{"type":"Feature","geometry":{"type":"Point","coordinates":[-95.5689,50.22212]},"properties":{"id":"way/75607227","name":"Slave Falls Generating Station","fuel":"hydro","source":"hydro","method":"run-of-the-river","capacityMW":67,"operator":"Manitoba Hydro","start":"1948"}},{"type":"Feature","geometry":{"type":"Point","coordinates":[-76.60871,44.95368]},"properties":{"id":"way/75815809","name":"High Falls Generating Station","fuel":"hydro","source":"hydro","method":"run-of-the-river","operator":"Ontario Power Generation"}},{"type":"Feature","geometry":{"type":"Point","coordinates":[-78.31403,44.32345]},"properties":{"id":"way/77716497","name":"Auburn Generating Station","fuel":"hydro","source":"hydro","method":"run-of-the-river","capacityMW":2,"operator":"Ontario Power Generation"}},{"type":"Feature","geometry":{"type":"Point","coordinates":[-68.90375,49.70353]},"properties":{"id":"way/79791984","name":"Centrale aux Outardes-4","fuel":"hydro","source":"hydro","capacityMW":785}},{"type":"Feature","geometry":{"type":"Point","coordinates":[-68.32954,49.19123]},"properties":{"id":"way/80574951","name":"Centrale Manic-1","fuel":"hydro","source":"hydro","capacityMW":184,"operator":"Hydro-Québec"}},{"type":"Feature","geometry":{"type":"Point","coordinates":[-68.32683,49.19294]},"properties":{"id":"way/80575096","name":"Centrale McCormick","fuel":"hydro","source":"hydro","capacityMW":335,"operator":"Hydro-Québec"}},{"type":"Feature","geometry":{"type":"Point","coordinates":[-68.3464,49.32107]},"properties":{"id":"way/80891261","name":"Centrale Jean-Lesage","fuel":"hydro","source":"hydro","method":"water-storage","capacityMW":1145,"operator":"Hydro-Québec"}},{"type":"Feature","geometry":{"type":"Point","coordinates":[-68.72677,50.6396]},"properties":{"id":"way/80961191","name":"Centrale Manic-5","fuel":"hydro","source":"hydro","capacityMW":1596,"operator":"Hydro-Québec"}},{"type":"Feature","geometry":{"type":"Point","coordinates":[-63.58598,44.64502]},"properties":{"id":"way/82668550","name":"Camp Hill Power Plant","fuel":"other","method":"combustion"}},{"type":"Feature","geometry":{"type":"Point","coordinates":[-74.79191,45.00815]},"properties":{"id":"way/92195462","name":"R.H. Saunders Generating Station","fuel":"hydro","source":"hydro","method":"run-of-the-river","capacityMW":1045,"operator":"Ontario Power Generation"}},{"type":"Feature","geometry":{"type":"Point","coordinates":[-69.53178,47.84102]},"properties":{"id":"way/98818176","name":"Centrale Fraser","fuel":"hydro","source":"hydro","operator":"Génération Hydro"}},{"type":"Feature","geometry":{"type":"Point","coordinates":[-72.73936,46.44908]},"properties":{"id":"way/100244369","name":"Centrale La Gabelle","fuel":"hydro","source":"hydro","method":"run-of-the-river","capacityMW":131,"operator":"Hydro-Québec","start":"1924"}},{"type":"Feature","geometry":{"type":"Point","coordinates":[-72.76561,46.53378]},"properties":{"id":"way/101757365","name":"Centrale de Shawinigan-3","fuel":"hydro","source":"hydro","method":"run-of-the-river","capacityMW":194,"operator":"Hydro-Québec","start":"1948-11-15"}},{"type":"Feature","geometry":{"type":"Point","coordinates":[-72.41026,46.54844]},"properties":{"id":"way/101859065","name":"Centrale de Saint-Narcisse","fuel":"hydro","source":"hydro","method":"run-of-the-river","capacityMW":15,"operator":"Hydro-Québec","start":"1925"}},{"type":"Feature","geometry":{"type":"Point","coordinates":[-66.86631,45.95532]},"properties":{"id":"way/103615195","name":"Mactaquac Generating Station","fuel":"hydro","source":"hydro","method":"run-of-the-river","capacityMW":653,"operator":"NB Power","start":"1968"}},{"type":"Feature","geometry":{"type":"Point","coordinates":[-71.22047,46.82855]},"properties":{"id":"way/103870819","name":"Incinérateur de Québec","fuel":"waste","source":"waste","method":"combustion"}},{"type":"Feature","geometry":{"type":"Point","coordinates":[-70.82859,47.12258]},"properties":{"id":"way/104578381","name":"Centrale des Sept-Chutes","fuel":"hydro","source":"hydro","method":"run-of-the-river","capacityMW":21.6,"operator":"Hydro-Québec","start":"1916"}},{"type":"Feature","geometry":{"type":"Point","coordinates":[-128.52363,52.64293]},"properties":{"id":"way/104662165","name":"Boat Bluff","fuel":"oil","source":"diesel","method":"combustion"}},{"type":"Feature","geometry":{"type":"Point","coordinates":[-72.83582,47.55603]},"properties":{"id":"way/105668479","name":"Centrale Beaumont","fuel":"hydro","source":"hydro","method":"run-of-the-river","capacityMW":270,"operator":"Hydro-Québec"}},{"type":"Feature","geometry":{"type":"Point","coordinates":[-75.93108,45.80958]},"properties":{"id":"way/106205961","name":"Centrale Paugan","fuel":"hydro","source":"hydro","capacityMW":213,"operator":"Hydro-Québec"}},{"type":"Feature","geometry":{"type":"Point","coordinates":[-117.62094,49.32496]},"properties":{"id":"way/107497456","name":"Brilliant Generating Station","fuel":"hydro","source":"hydro","method":"water-storage","capacityMW":145,"operator":"FortisBC","start":"1944"}},{"type":"Feature","geometry":{"type":"Point","coordinates":[-67.47645,45.26718]},"properties":{"id":"way/107501545","name":"Woodland Pulp Hydro Station","fuel":"hydro","source":"hydro"}},{"type":"Feature","geometry":{"type":"Point","coordinates":[-117.51782,49.45307]},"properties":{"id":"way/107502191","name":"Kootenay Canal Generating Station","fuel":"hydro","source":"hydro","capacityMW":583,"operator":"BC Hydro","start":"1976"}},{"type":"Feature","geometry":{"type":"Point","coordinates":[-72.97345,47.79619]},"properties":{"id":"way/111011770","name":"Centrale du Rapide-Blanc","fuel":"hydro","source":"hydro","method":"water-storage","capacityMW":204,"operator":"Hydro-Québec","start":"1934"}},{"type":"Feature","geometry":{"type":"Point","coordinates":[-72.87827,47.75206]},"properties":{"id":"way/111013066","name":"Centrale de la Trenche","fuel":"hydro","source":"hydro","method":"water-storage","capacityMW":302,"operator":"Hydro-Québec","start":"1950"}},{"type":"Feature","geometry":{"type":"Point","coordinates":[-52.71223,47.46539]},"properties":{"id":"way/112497507","name":"Petty Harbour Generating Station","fuel":"hydro","source":"hydro","method":"water-storage","capacityMW":5.3,"operator":"Newfoundland Power"}},{"type":"Feature","geometry":{"type":"Point","coordinates":[-122.8714,50.34988]},"properties":{"id":"way/115812123","name":"Miller Creek","fuel":"hydro","source":"hydro"}},{"type":"Feature","geometry":{"type":"Point","coordinates":[-79.32929,43.64972]},"properties":{"id":"way/120342220","name":"Portlands Energy Centre","fuel":"gas","source":"gas","method":"combustion","capacityMW":550,"operator":"Ontario Power Generation/TransCanada Energy Limited","start":"2009-04-23"}},{"type":"Feature","geometry":{"type":"Point","coordinates":[-63.77125,44.81127]},"properties":{"id":"way/122593283","name":"Sackville Landfill Methene Recovery","fuel":"bioenergy","source":"biogas","method":"combustion","operator":"Highland Energy"}},{"type":"Feature","geometry":{"type":"Point","coordinates":[-122.2437,50.7232]},"properties":{"id":"way/128097134","name":"Bridge River No. 2 Powerhouse","fuel":"hydro","source":"hydro","method":"water-storage","operator":"BC Hydro"}},{"type":"Feature","geometry":{"type":"Point","coordinates":[-94.52445,49.7716]},"properties":{"id":"way/128220659","name":"Norman Generating Station","fuel":"hydro","source":"hydro","capacityMW":12.8}},{"type":"Feature","geometry":{"type":"Point","coordinates":[-94.50375,49.77245]},"properties":{"id":"way/128220672","name":"Kenora Generating Station","fuel":"hydro","source":"hydro","capacityMW":5.5}},{"type":"Feature","geometry":{"type":"Point","coordinates":[-57.94845,48.95546]},"properties":{"id":"way/128365124","name":"Corner Brook Pulp And Paper","fuel":"bioenergy","source":"biomass","capacityMW":100,"operator":"Kruger"}},{"type":"Feature","geometry":{"type":"Point","coordinates":[-96.538,56.04063]},"properties":{"id":"way/133117561","name":"Kelsey Generating Station","fuel":"hydro","source":"hydro","method":"run-of-the-river","capacityMW":250,"operator":"Manitoba Hydro","start":"1968"}},{"type":"Feature","geometry":{"type":"Point","coordinates":[-94.36898,56.39772]},"properties":{"id":"way/133597201","name":"Long Spruce Generating Station","fuel":"hydro","source":"hydro","method":"run-of-the-river","capacityMW":1010}},{"type":"Feature","geometry":{"type":"Point","coordinates":[-94.63453,56.38078]},"properties":{"id":"way/133597207","name":"Kettle Generating Station","fuel":"hydro","source":"hydro","method":"run-of-the-river","capacityMW":1220,"operator":"Manitoba Hydro","start":"1974"}},{"type":"Feature","geometry":{"type":"Point","coordinates":[-114.28264,51.10093]},"properties":{"id":"way/133667228","name":"Bearspaw Dam","fuel":"hydro","source":"hydro","operator":"TransAlta"}},{"type":"Feature","geometry":{"type":"Point","coordinates":[-94.11107,56.50814]},"properties":{"id":"way/133705329","name":"Limestone Generating Station","fuel":"hydro","source":"hydro","method":"run-of-the-river","capacityMW":1340,"operator":"Manitoba Hydro","start":"1990"}},{"type":"Feature","geometry":{"type":"Point","coordinates":[-80.22657,43.53346]},"properties":{"id":"way/136468289","name":"Central Utilities Plant","fuel":"gas","source":"gas","method":"combustion","operator":"University of Guelph"}},{"type":"Feature","geometry":{"type":"Point","coordinates":[-68.23533,47.46845]},"properties":{"id":"way/136595209","name":"Second Falls Dam","fuel":"hydro","source":"hydro","method":"run-of-the-river","capacityMW":3.2,"operator":"Edmundston Energy"}},{"type":"Feature","geometry":{"type":"Point","coordinates":[-76.4406,44.2933]},"properties":{"id":"way/139495688","name":"Kingston Mills Generating Station","fuel":"hydro","source":"hydro","method":"water-storage","capacityMW":1.9,"operator":"Energy Ottawa"}},{"type":"Feature","geometry":{"type":"Point","coordinates":[-71.63509,48.57686]},"properties":{"id":"way/143637579","name":"Centrale d'isle Maligne","fuel":"hydro","source":"hydro","method":"water-storage","capacityMW":448,"operator":"Rio Tinto Alcan","start":"1926"}},{"type":"Feature","geometry":{"type":"Point","coordinates":[-118.1938,51.04842]},"properties":{"id":"way/145535457","name":"Revelstoke Generating Station","fuel":"hydro","source":"hydro","method":"water-storage","capacityMW":2480,"operator":"BC Hydro","start":"1977"}},{"type":"Feature","geometry":{"type":"Point","coordinates":[-117.76885,49.34307]},"properties":{"id":"way/146195894","name":"Arrow Lakes Generating Station","fuel":"hydro","source":"hydro","method":"water-storage","capacityMW":185,"operator":"Columbia Power Corporation"}},{"type":"Feature","geometry":{"type":"Point","coordinates":[-115.50223,51.20018]},"properties":{"id":"way/151537883","name":"Cascade Hydro Power Plant","fuel":"hydro","source":"hydro","method":"water-storage","capacityMW":36,"operator":"TransAlta Corporation"}},{"type":"Feature","geometry":{"type":"Point","coordinates":[-67.66863,46.54282]},"properties":{"id":"way/151544743","name":"Beechwood Generating Station","fuel":"hydro","source":"hydro","capacityMW":112,"operator":"NB Power"}},{"type":"Feature","geometry":{"type":"Point","coordinates":[-125.5855,49.99803]},"properties":{"id":"way/156983889","name":"Strathcona Dam Generating Station","fuel":"hydro","source":"hydro","method":"water-storage","capacityMW":64,"operator":"BC Hydro"}},{"type":"Feature","geometry":{"type":"Point","coordinates":[-79.04465,43.14902]},"properties":{"id":"way/158460554","name":"Sir Adam Beck I Generating Station","fuel":"hydro","source":"hydro","method":"water-storage","capacityMW":437,"operator":"Ontario Power Generation"}},{"type":"Feature","geometry":{"type":"Point","coordinates":[-79.06047,43.1444]},"properties":{"id":"way/158460599","name":"Sir Adam Beck Pump Generating Station","fuel":"pumped","source":"hydro","method":"water-pumped-storage","capacityMW":174}},{"type":"Feature","geometry":{"type":"Point","coordinates":[-79.68055,43.74654]},"properties":{"id":"way/158464934","name":"Goreway Power Station","fuel":"gas","source":"gas","method":"combustion","capacityMW":839.1,"operator":"Ontario Power Authority","start":"2009-06-04"}},{"type":"Feature","geometry":{"type":"Point","coordinates":[-122.86863,49.37539]},"properties":{"id":"way/158593528","name":"Buntzen powerhouse #1","fuel":"hydro","source":"hydro","method":"water-storage","capacityMW":60,"operator":"BC Hydro","start":"1904"}},{"type":"Feature","geometry":{"type":"Point","coordinates":[-76.7592,45.24951]},"properties":{"id":"way/158762846","name":"Barrett Chute power plant","fuel":"hydro","source":"hydro","capacityMW":176,"operator":"Ontario Power Generation"}},{"type":"Feature","geometry":{"type":"Point","coordinates":[-76.237,45.47457]},"properties":{"id":"way/158763288","name":"Chats Falls Power Station","fuel":"hydro","source":"hydro","method":"run-of-the-river","capacityMW":188,"operator":"Hydro One Networks Inc.","start":"1931"}},{"type":"Feature","geometry":{"type":"Point","coordinates":[-82.16601,50.00454]},"properties":{"id":"way/158944951","name":"Little Long Generating Station","fuel":"hydro","source":"hydro","method":"run-of-the-river","capacityMW":233.3,"operator":"Ontario Power Generation and Moose Cree First Nation"}},{"type":"Feature","geometry":{"type":"Point","coordinates":[-82.16141,50.06126]},"properties":{"id":"way/158945914","name":"Smoky Falls Generating Station","fuel":"hydro","source":"hydro","method":"run-of-the-river","capacityMW":267.9,"operator":"Ontario Power Generation and Moose Cree First Nation"}},{"type":"Feature","geometry":{"type":"Point","coordinates":[-82.20836,50.14521]},"properties":{"id":"way/158946417","name":"Kipling Generating Station","fuel":"hydro","source":"hydro","method":"run-of-the-river","capacityMW":203.5,"operator":"Ontario Power Generation and Moose Cree First Nation"}},{"type":"Feature","geometry":{"type":"Point","coordinates":[-78.57078,53.73352]},"properties":{"id":"way/158957854","name":"Centrale La Grande-1","fuel":"hydro","source":"hydro","capacityMW":1436,"operator":"Hydro-Québec"}},{"type":"Feature","geometry":{"type":"Point","coordinates":[-120.66888,56.1446]},"properties":{"id":"way/159946093","name":"McMahon Cogeneration Plant","fuel":"gas","source":"gas","method":"combustion","capacityMW":120,"operator":"NorthRiver Midstream;Heartland Generation","start":"1993"}},{"type":"Feature","geometry":{"type":"Point","coordinates":[-123.29108,49.93356]},"properties":{"id":"way/161277535","name":"Cheakamus/Squamish River Powerhouse","fuel":"hydro","source":"hydro","capacityMW":157,"operator":"BC Hydro"}},{"type":"Feature","geometry":{"type":"Point","coordinates":[-65.79191,47.40549]},"properties":{"id":"way/161596460","name":"Nepisiguit Falls Generating Station","fuel":"hydro","source":"hydro","method":"run-of-the-river","capacityMW":11,"operator":"NB Power"}},{"type":"Feature","geometry":{"type":"Point","coordinates":[-83.09473,42.28001]},"properties":{"id":"way/165631500","name":"Brighton Beach LP Power Station","fuel":"gas","source":"gas","method":"combustion","capacityMW":580,"operator":"Atco Power & Ontario Power Generation","start":"07/2004"}},{"type":"Feature","geometry":{"type":"Point","coordinates":[-83.08623,42.28033]},"properties":{"id":"way/165631501","name":"West Windsor Power Plant","fuel":"gas","source":"gas","method":"combustion","capacityMW":72,"operator":"TransAlta"}},{"type":"Feature","geometry":{"type":"Point","coordinates":[-75.4216,45.5439]},"properties":{"id":"way/168639540","name":"Centrale Masson","fuel":"hydro","source":"hydro","capacityMW":105}},{"type":"Feature","geometry":{"type":"Point","coordinates":[-57.43623,49.16972]},"properties":{"id":"way/168810534","name":"Deer Lake Hydro Plant","fuel":"hydro","source":"hydro","method":"water-storage","capacityMW":129,"operator":"Kruger Energy"}},{"type":"Feature","geometry":{"type":"Point","coordinates":[-76.92239,45.91667]},"properties":{"id":"way/168812375","name":"W.R. Beatty Generating Station","fuel":"hydro","source":"hydro","method":"run-of-the-river","capacityMW":11,"operator":"Brookfield Renewable Power"}},{"type":"Feature","geometry":{"type":"Point","coordinates":[-71.69759,48.78073]},"properties":{"id":"way/171599031","name":"Centrale Chute-du-Diable","fuel":"hydro","source":"hydro","capacityMW":240,"operator":"Rio Tinto Alcan"}},{"type":"Feature","geometry":{"type":"Point","coordinates":[-124.05233,48.42968]},"properties":{"id":"way/172745437","name":"Jordan River Generating Station","fuel":"hydro","source":"hydro","method":"water-storage","capacityMW":170}},{"type":"Feature","geometry":{"type":"Point","coordinates":[-76.1981,45.22586]},"properties":{"id":"way/176790271","name":"Almonte Electric Plant","fuel":"hydro","source":"hydro","method":"run-of-the-river","operator":"Mississippi River Power Corp"}},{"type":"Feature","geometry":{"type":"Point","coordinates":[-66.09173,45.26176]},"properties":{"id":"way/179537056","name":"Irving Pulp and Paper","fuel":"bioenergy","source":"biomass","method":"combustion","capacityMW":30}},{"type":"Feature","geometry":{"type":"Point","coordinates":[-81.66933,42.95345]},"properties":{"id":"way/183497847","name":"Ruby Farms","fuel":"solar","source":"solar","method":"photovoltaic","capacityMW":2,"operator":"Vine Fresh Produce Limited"}},{"type":"Feature","geometry":{"type":"Point","coordinates":[-71.83949,48.75346]},"properties":{"id":"way/184094773","name":"Centrale de Chute-Savane","fuel":"hydro","source":"hydro","method":"run-of-the-river","capacityMW":245,"operator":"Rio Tinto Alcan","start":"1953"}},{"type":"Feature","geometry":{"type":"Point","coordinates":[-76.05098,52.18187]},"properties":{"id":"way/184454879","name":"Centrale Eastmain-1","fuel":"hydro","source":"hydro","method":"run-of-the-river","capacityMW":507,"operator":"Hydro-Québec"}},{"type":"Feature","geometry":{"type":"Point","coordinates":[-76.042,52.17945]},"properties":{"id":"way/184454880","name":"Centrale Bernard-Landry","fuel":"hydro","source":"hydro","method":"run-of-the-river","capacityMW":829,"operator":"Hydro-Québec"}},{"type":"Feature","geometry":{"type":"Point","coordinates":[-77.53265,53.78142]},"properties":{"id":"way/184454881","name":"Centrale Robert-Bourassa","fuel":"hydro","source":"hydro","method":"water-storage","capacityMW":5616,"operator":"Hydro-Québec"}},{"type":"Feature","geometry":{"type":"Point","coordinates":[-75.77769,45.51243]},"properties":{"id":"way/184454885","name":"Centrale de Chelsea","fuel":"hydro","source":"hydro","method":"run-of-the-river","capacityMW":152,"operator":"Hydro-Québec"}},{"type":"Feature","geometry":{"type":"Point","coordinates":[-67.9121,51.78541]},"properties":{"id":"way/184454886","name":"Centrale de la Hart-Jaune","fuel":"hydro","source":"hydro","capacityMW":51,"operator":"Hydro-Québec"}},{"type":"Feature","geometry":{"type":"Point","coordinates":[-73.71852,47.89278]},"properties":{"id":"way/184454888","name":"Centrale de la chute Allard","fuel":"hydro","source":"hydro","method":"water-storage","capacityMW":62,"operator":"Hydro-Québec"}},{"type":"Feature","geometry":{"type":"Point","coordinates":[-59.06199,50.99909]},"properties":{"id":"way/184454890","name":"Centrale du lac-Robertson","fuel":"hydro","source":"hydro","capacityMW":21,"operator":"Hydro-Québec"}},{"type":"Feature","geometry":{"type":"Point","coordinates":[-68.73397,50.64605]},"properties":{"id":"way/184496025","name":"Centrale Manic-5-PA","fuel":"hydro","source":"hydro","capacityMW":1064,"operator":"Hydro-Québec"}},{"type":"Feature","geometry":{"type":"Point","coordinates":[-125.30916,49.28766]},"properties":{"id":"way/185739263","name":"South Sutton Crekk","fuel":"hydro","source":"hydro"}},{"type":"Feature","geometry":{"type":"Point","coordinates":[-127.23344,50.38848]},"properties":{"id":"way/186062015","name":"Raging River 2","fuel":"hydro","source":"hydro"}},{"type":"Feature","geometry":{"type":"Point","coordinates":[-131.87942,53.23541]},"properties":{"id":"way/188031620","name":"Sandspit Power Plant","fuel":"oil","source":"diesel","method":"combustion","capacityMW":10.2,"operator":"BC Hydro"}},{"type":"Feature","geometry":{"type":"Point","coordinates":[-73.46671,53.88607]},"properties":{"id":"way/188623562","name":"Centrale La Grande-4","fuel":"hydro","source":"hydro","capacityMW":2779}},{"type":"Feature","geometry":{"type":"Point","coordinates":[-96.17855,50.56696]},"properties":{"id":"way/188852793","name":"Pine Falls Generating Station","fuel":"hydro","source":"hydro","method":"run-of-the-river","capacityMW":88,"operator":"Manitoba Hydro"}},{"type":"Feature","geometry":{"type":"Point","coordinates":[-84.83766,47.93885]},"properties":{"id":"way/190529867","name":"Harris Generating Station","fuel":"hydro","source":"hydro","capacityMW":13}},{"type":"Feature","geometry":{"type":"Point","coordinates":[-76.34704,45.41888]},"properties":{"id":"way/196436145","name":"Arnprior Generating Station","fuel":"hydro","source":"hydro","method":"run-of-the-river","capacityMW":82,"operator":"Ontario Power Generation"}},{"type":"Feature","geometry":{"type":"Point","coordinates":[-81.58093,44.32064]},"properties":{"id":"way/198181501","name":"Bruce Nuclear Generating Station","fuel":"nuclear","source":"nuclear","method":"fission","capacityMW":6232,"operator":"Bruce Power","start":"1977"}},{"type":"Feature","geometry":{"type":"Point","coordinates":[-76.84625,44.14882]},"properties":{"id":"way/198183739","name":"Lennox Generating Station","fuel":"gas","source":"gas","method":"combustion","capacityMW":2100}},{"type":"Feature","geometry":{"type":"Point","coordinates":[-103.02618,49.09727]},"properties":{"id":"way/198187522","name":"Boundary Dam Power Station","fuel":"coal","source":"coal","method":"combustion","capacityMW":813,"operator":"SaskPower","start":"1959"}},{"type":"Feature","geometry":{"type":"Point","coordinates":[-96.00972,50.46169]},"properties":{"id":"way/198552826","name":"Great Falls Generating Station","fuel":"hydro","source":"hydro","method":"run-of-the-river","capacityMW":129,"operator":"Manitoba Hydro"}},{"type":"Feature","geometry":{"type":"Point","coordinates":[-103.34802,53.6888]},"properties":{"id":"way/199258044","name":"E.B. Campbell Hydroelectric Station","fuel":"hydro","source":"hydro","capacityMW":288,"operator":"SaskPower","start":"1963"}},{"type":"Feature","geometry":{"type":"Point","coordinates":[-111.90853,57.04089]},"properties":{"id":"way/199754283","name":"MacKay River TC Power Plant","fuel":"gas","source":"gas","method":"combustion","capacityMW":165}},{"type":"Feature","geometry":{"type":"Point","coordinates":[-96.01769,50.12049]},"properties":{"id":"way/201056604","name":"Seven Sisters Generating Station","fuel":"hydro","source":"hydro","capacityMW":165,"operator":"Manitoba Hydro"}},{"type":"Feature","geometry":{"type":"Point","coordinates":[-98.02855,54.54298]},"properties":{"id":"way/202058738","name":"Jenpeg Generating Station","fuel":"hydro","source":"hydro","method":"run-of-the-river","capacityMW":129,"operator":"Manitoba Hydro"}},{"type":"Feature","geometry":{"type":"Point","coordinates":[-109.03299,51.85794]},"properties":{"id":"way/203294681","name":"Ermine Power Station","fuel":"gas","source":"gas","method":"combustion","capacityMW":90,"operator":"SaskPower","start":"2009"}},{"type":"Feature","geometry":{"type":"Point","coordinates":[-82.84342,42.16779]},"properties":{"id":"way/205140345","name":"Unnamed site","fuel":"solar","source":"solar","method":"photovoltaic"}},{"type":"Feature","geometry":{"type":"Point","coordinates":[-68.72317,49.55649]},"properties":{"id":"way/206042491","name":"Centrale Outardes-3","fuel":"hydro","source":"hydro","method":"run-of-the-river","capacityMW":1026,"operator":"Hydro-Québec","start":"1969"}},{"type":"Feature","geometry":{"type":"Point","coordinates":[-53.09787,47.45122]},"properties":{"id":"way/206110308","name":"Holyrood Thermal Generating Station","fuel":"oil","source":"oil","capacityMW":450,"operator":"Nalcor"}},{"type":"Feature","geometry":{"type":"Point","coordinates":[-56.37974,47.09837]},"properties":{"id":"way/206464510","name":"Centrale thermique de Miquelon","fuel":"oil","source":"oil","method":"combustion","capacityMW":5.2,"operator":"EDF PEI","start":"1992"}},{"type":"Feature","geometry":{"type":"Point","coordinates":[-78.27221,44.421]},"properties":{"id":"way/207119980","name":"Lakefield Hydroelectric Generating Station","fuel":"hydro","source":"hydro","capacityMW":2}},{"type":"Feature","geometry":{"type":"Point","coordinates":[-121.92421,50.67274]},"properties":{"id":"way/207996766","name":"Seton Powerhouse","fuel":"hydro","source":"hydro","capacityMW":42,"operator":"BC Hydro"}},{"type":"Feature","geometry":{"type":"Point","coordinates":[-99.88999,49.84611]},"properties":{"id":"way/208771199","name":"Brandon Generating Station","fuel":"gas","source":"gas","method":"combustion","capacityMW":333}},{"type":"Feature","geometry":{"type":"Point","coordinates":[-125.28151,50.06903]},"properties":{"id":"way/209264752","name":"Island Cogeneration Plant","fuel":"gas","source":"gas","method":"combustion","capacityMW":254,"operator":"Capital Power Corporation","start":"2002 04"}},{"type":"Feature","geometry":{"type":"Point","coordinates":[-79.23061,56.53825]},"properties":{"id":"way/209542244","name":"Sanikiluaq Power Plant","fuel":"oil","source":"oil","method":"combustion","capacityMW":1.43,"operator":"Qulliq Energy Corporation"}},{"type":"Feature","geometry":{"type":"Point","coordinates":[-79.68306,43.69681]},"properties":{"id":"way/210146279","name":"Emerald Energy from Waste","fuel":"waste","source":"waste","method":"thermal","capacityMW":0.42,"operator":"Emerald Energy From Waste Inc."}},{"type":"Feature","geometry":{"type":"Point","coordinates":[-60.03614,46.23754]},"properties":{"id":"way/211134768","name":"Lingan Generating Station","fuel":"coal","source":"coal","method":"combustion","capacityMW":620}},{"type":"Feature","geometry":{"type":"Point","coordinates":[-62.64546,45.62139]},"properties":{"id":"way/211202482","name":"Trenton Generating Station","fuel":"coal","source":"coal","method":"combustion","capacityMW":310,"operator":"Nova Scotia Power"}},{"type":"Feature","geometry":{"type":"Point","coordinates":[-114.70764,51.21887]},"properties":{"id":"way/212058320","name":"Ghost Lake Hydroelectric Plant","fuel":"hydro","source":"hydro","method":"water-storage","capacityMW":56,"operator":"TransAlta"}},{"type":"Feature","geometry":{"type":"Point","coordinates":[-105.4764,49.05159]},"properties":{"id":"way/214301225","name":"Poplar River Power Station","fuel":"coal","source":"coal","method":"combustion","capacityMW":582,"operator":"SaskPower","start":"1981"}},{"type":"Feature","geometry":{"type":"Point","coordinates":[-63.96805,53.53098]},"properties":{"id":"way/218607387","name":"Churchill Falls Generating Station","fuel":"hydro","source":"hydro","method":"water-storage","capacityMW":5428,"operator":"Newfoundland and Labrador Hydro"}},{"type":"Feature","geometry":{"type":"Point","coordinates":[-113.87129,50.65226]},"properties":{"id":"way/219007214","name":"Unnamed site","fuel":"solar","source":"solar","method":"photovoltaic"}},{"type":"Feature","geometry":{"type":"Point","coordinates":[-104.0434,53.32097]},"properties":{"id":"way/221395530","name":"Nipawin Hydroelectric Station","fuel":"hydro","source":"hydro","method":"run-of-the-river","capacityMW":255,"operator":"SaskPower","start":"1985"}},{"type":"Feature","geometry":{"type":"Point","coordinates":[-114.01509,51.3975]},"properties":{"id":"way/223756830","name":"ENMAX Crossfield Energy Centre","fuel":"gas","source":"gas","method":"combustion","capacityMW":144,"operator":"Enmax"}},{"type":"Feature","geometry":{"type":"Point","coordinates":[-91.56803,48.83606]},"properties":{"id":"way/225965807","name":"Atikokan Generating Station","fuel":"bioenergy","source":"biomass","capacityMW":205}},{"type":"Feature","geometry":{"type":"Point","coordinates":[-76.63193,45.66097]},"properties":{"id":"way/229067013","name":"Centrale de Bryson","fuel":"hydro","source":"hydro","method":"run-of-the-river","capacityMW":56}},{"type":"Feature","geometry":{"type":"Point","coordinates":[-76.6742,45.58371]},"properties":{"id":"way/229406171","name":"Chenaux Station","fuel":"hydro","source":"hydro","capacityMW":144,"operator":"Ontario Power Generation"}},{"type":"Feature","geometry":{"type":"Point","coordinates":[-73.90856,45.31353]},"properties":{"id":"way/230166225","name":"Centrale de Beauharnois","fuel":"hydro","source":"hydro","method":"run-of-the-river","capacityMW":1903,"operator":"Hydro-Québec","start":"1932-01-01"}},{"type":"Feature","geometry":{"type":"Point","coordinates":[-76.27335,45.40865]},"properties":{"id":"way/230242213","name":"Arnprior Solar Project","fuel":"solar","source":"solar","method":"photovoltaic","capacityMW":23.4,"operator":"EDF Renewables"}},{"type":"Feature","geometry":{"type":"Point","coordinates":[-76.93341,45.50856]},"properties":{"id":"way/230890644","name":"Douglas Generating Station","fuel":"hydro","source":"hydro","method":"run-of-the-river","capacityMW":0.6,"operator":"Multistream Power Corporation"}},{"type":"Feature","geometry":{"type":"Point","coordinates":[-76.69224,45.47736]},"properties":{"id":"way/232154731","name":"Renfrew Power Generation","fuel":"hydro","source":"hydro","method":"run-of-the-river"}},{"type":"Feature","geometry":{"type":"Point","coordinates":[-114.32406,52.35833]},"properties":{"id":"way/233689038","name":"ConocoPhillips Gas Plant","fuel":"gas","source":"gas","method":"combustion"}},{"type":"Feature","geometry":{"type":"Point","coordinates":[-108.17156,52.68312]},"properties":{"id":"way/234881431","name":"North Battleford Energy Centre","fuel":"gas","source":"gas","method":"combustion","capacityMW":260}},{"type":"Feature","geometry":{"type":"Point","coordinates":[-81.63758,50.18134]},"properties":{"id":"way/236458306","name":"Otter Rapids Generating Station","fuel":"hydro","source":"hydro","method":"run-of-the-river","capacityMW":182,"operator":"Ontario Power Generation"}},{"type":"Feature","geometry":{"type":"Point","coordinates":[-52.93724,47.09579]},"properties":{"id":"way/238383738","name":"Cape Broyle Generating Station","fuel":"hydro","source":"hydro","method":"water-storage","capacityMW":6.28,"operator":"Newfoundland Power"}},{"type":"Feature","geometry":{"type":"Point","coordinates":[-77.69708,46.18244]},"properties":{"id":"way/238620183","name":"Des Joachims Power Station","fuel":"hydro","source":"hydro","capacityMW":429}},{"type":"Feature","geometry":{"type":"Point","coordinates":[-79.93571,46.36942]},"properties":{"id":"way/238998323","name":"Sturgeon Falls Generating Station","fuel":"hydro","source":"hydro","method":"run-of-the-river","capacityMW":8,"operator":"West Nipissing Power Generation"}},{"type":"Feature","geometry":{"type":"Point","coordinates":[-81.56705,49.88213]},"properties":{"id":"way/239147093","name":"Abitibi Canyon Generating Station","fuel":"hydro","source":"hydro","capacityMW":349}},{"type":"Feature","geometry":{"type":"Point","coordinates":[-117.48436,49.45996]},"properties":{"id":"way/239619835","name":"Upper Bonnington Generating Station","fuel":"hydro","source":"hydro","method":"run-of-the-river","capacityMW":66,"operator":"FortisBC"}},{"type":"Feature","geometry":{"type":"Point","coordinates":[-79.86288,46.45012]},"properties":{"id":"way/239845640","name":"Crystal Falls Generating Station","fuel":"hydro","source":"hydro","capacityMW":8}},{"type":"Feature","geometry":{"type":"Point","coordinates":[-73.61447,45.50167]},"properties":{"id":"way/242514438","name":"Centrale thermique","fuel":"gas","source":"gas","method":"thermal"}},{"type":"Feature","geometry":{"type":"Point","coordinates":[-80.58164,48.74677]},"properties":{"id":"way/243988768","name":"Twin Falls Generating Station","fuel":"hydro","source":"hydro","capacityMW":27.5}},{"type":"Feature","geometry":{"type":"Point","coordinates":[-88.31033,49.30735]},"properties":{"id":"way/244226942","name":"Pine Portage Generating Station","fuel":"hydro","source":"hydro","method":"run-of-the-river","capacityMW":145}},{"type":"Feature","geometry":{"type":"Point","coordinates":[-79.53138,44.07538]},"properties":{"id":"way/247885747","name":"York Energy Centre","fuel":"gas","source":"gas","method":"combustion","capacityMW":462}},{"type":"Feature","geometry":{"type":"Point","coordinates":[-69.22594,49.17534]},"properties":{"id":"way/252894913","name":"Centrale Bersimis-2","fuel":"hydro","source":"hydro","method":"run-of-the-river","capacityMW":869,"operator":"Hydro-Québec"}},{"type":"Feature","geometry":{"type":"Point","coordinates":[-84.07229,49.7449]},"properties":{"id":"way/253815017","name":"Calstock Power Plant","fuel":"bioenergy","source":"biomass"}},{"type":"Feature","geometry":{"type":"Point","coordinates":[-96.85166,50.13418]},"properties":{"id":"way/254282268","name":"Selkirk Generating Station","fuel":"gas","source":"gas","method":"combustion","capacityMW":125,"operator":"Manitoba Hydro"}},{"type":"Feature","geometry":{"type":"Point","coordinates":[-76.50667,45.40705]},"properties":{"id":"way/255478124","name":"Stewartville Generating Station","fuel":"hydro","source":"hydro","method":"run-of-the-river","capacityMW":182,"operator":"Ontario Power Generation"}},{"type":"Feature","geometry":{"type":"Point","coordinates":[-65.49671,44.72661]},"properties":{"id":"way/255678766","name":"Lequille Hydroelectric Power Station","fuel":"hydro","source":"hydro","method":"water-storage","capacityMW":11,"operator":"Nova Scotia Power"}},{"type":"Feature","geometry":{"type":"Point","coordinates":[-79.45265,47.60037]},"properties":{"id":"way/256301205","name":"Centrale de la Première-Chute","fuel":"hydro","source":"hydro","capacityMW":130,"operator":"Hydro-Québec"}},{"type":"Feature","geometry":{"type":"Point","coordinates":[-63.1184,46.23882]},"properties":{"id":"way/256613488","name":"Maritime Electric Diesel Generator","fuel":"oil","source":"diesel","method":"combustion","capacityMW":50,"operator":"Maritime Electric"}},{"type":"Feature","geometry":{"type":"Point","coordinates":[-63.11834,46.23852]},"properties":{"id":"way/256613509","name":"Charlottetown Thermal Generating Station","fuel":"other"}},{"type":"Feature","geometry":{"type":"Point","coordinates":[-88.35808,49.13531]},"properties":{"id":"way/256661255","name":"Alexander Falls Generating Station","fuel":"hydro","source":"hydro","method":"run-of-the-river","capacityMW":69,"operator":"Ontario Power Generation"}},{"type":"Feature","geometry":{"type":"Point","coordinates":[-81.38215,49.57738]},"properties":{"id":"way/257841182","name":"Island Falls Generating Station","fuel":"hydro","source":"hydro","method":"run-of-the-river","capacityMW":44.3,"operator":"H2O Power"}},{"type":"Feature","geometry":{"type":"Point","coordinates":[-81.02037,49.21358]},"properties":{"id":"way/258892405","name":"Long Sault Rapids Generating Station","fuel":"hydro","source":"hydro","method":"run-of-the-river","capacityMW":16,"operator":"Algonquin Power"}},{"type":"Feature","geometry":{"type":"Point","coordinates":[-121.45851,49.81145]},"properties":{"id":"way/258998295","name":"Unnamed site","fuel":"hydro","source":"hydro"}},{"type":"Feature","geometry":{"type":"Point","coordinates":[-78.728,46.37834]},"properties":{"id":"way/259144136","name":"Otto Holden Generating Station","fuel":"hydro","source":"hydro","capacityMW":243,"operator":"Ontario Power Generation","start":"1952"}},{"type":"Feature","geometry":{"type":"Point","coordinates":[-93.45441,50.58313]},"properties":{"id":"way/262626314","name":"Manitou Station","fuel":"hydro","source":"hydro","capacityMW":73,"operator":"Ontario Power Generation","start":"1956"}},{"type":"Feature","geometry":{"type":"Point","coordinates":[-83.21303,46.90949]},"properties":{"id":"way/263554703","name":"Aubrey Falls","fuel":"hydro","source":"hydro","capacityMW":162}},{"type":"Feature","geometry":{"type":"Point","coordinates":[-93.22069,50.63105]},"properties":{"id":"way/263918556","name":"Ear Falls Generating Station","fuel":"hydro","source":"hydro","method":"run-of-the-river","capacityMW":22,"operator":"Ontario Power Generation"}},{"type":"Feature","geometry":{"type":"Point","coordinates":[-75.49998,46.55476]},"properties":{"id":"way/264807363","name":"Centrale hydroélectrique Daniel Larocque","fuel":"hydro","source":"hydro","method":"run-of-the-river","capacityMW":2.725,"operator":"Électricité Algonquin Power"}},{"type":"Feature","geometry":{"type":"Point","coordinates":[-111.79171,51.43936]},"properties":{"id":"way/267883403","name":"Sheerness Generating Station","fuel":"gas","source":"gas","method":"combustion","capacityMW":800,"operator":"ATCO Electric - TransAlta Utilities"}},{"type":"Feature","geometry":{"type":"Point","coordinates":[-82.45301,42.76943]},"properties":{"id":"way/268086514","name":"Greenfield Energy Centre","fuel":"gas","source":"gas","method":"combustion","capacityMW":1038,"operator":"Calpine"}},{"type":"Feature","geometry":{"type":"Point","coordinates":[-106.87349,51.27484]},"properties":{"id":"way/269127372","name":"Coteau Creek Hydroelectric Station","fuel":"hydro","source":"hydro","capacityMW":186,"operator":"SaskPower","start":"1969"}},{"type":"Feature","geometry":{"type":"Point","coordinates":[-58.51785,48.53535]},"properties":{"id":"way/271670221","name":"Stephenville Turbine Station","fuel":"oil","source":"diesel","method":"combustion","capacityMW":50,"operator":"Newfoundland and Labrador Hydro"}},{"type":"Feature","geometry":{"type":"Point","coordinates":[-115.04096,51.03422]},"properties":{"id":"way/272511584","name":"Unnamed site","fuel":"hydro","source":"hydro","method":"water-storage","capacityMW":12,"operator":"TransAlta"}},{"type":"Feature","geometry":{"type":"Point","coordinates":[-116.32447,52.30823]},"properties":{"id":"way/273633391","name":"Bighorn Hydroelectric Plant","fuel":"hydro","source":"hydro","method":"water-storage","capacityMW":120,"operator":"TransAlta"}},{"type":"Feature","geometry":{"type":"Point","coordinates":[-78.72014,43.87049]},"properties":{"id":"way/274901437","name":"Darlington Nuclear Generating Station","fuel":"nuclear","source":"nuclear","method":"fission","capacityMW":3512,"operator":"Ontario Power Generation"}},{"type":"Feature","geometry":{"type":"Point","coordinates":[-76.92479,44.28923]},"properties":{"id":"way/275731287","name":"First Light 1","fuel":"solar","source":"solar","method":"photovoltaic","capacityMW":9.1,"operator":"SunEdison / Sky Power"}},{"type":"Feature","geometry":{"type":"Point","coordinates":[-80.02669,45.3504]},"properties":{"id":"way/275805474","name":"Cascade Street Generating Station","fuel":"hydro","source":"hydro","capacityMW":1.2,"operator":"Bracebridge Generation"}},{"type":"Feature","geometry":{"type":"Point","coordinates":[-106.70546,52.09469]},"properties":{"id":"way/287655599","name":"Queen Elizabeth Power Station","fuel":"gas","source":"gas","method":"combustion","capacityMW":634}},{"type":"Feature","geometry":{"type":"Point","coordinates":[-80.89336,48.87099]},"properties":{"id":"way/295323519","name":"Tunis Power Plant","fuel":"gas","source":"gas","method":"combustion","operator":"Atlantic Power"}},{"type":"Feature","geometry":{"type":"Point","coordinates":[-82.20844,50.11142]},"properties":{"id":"way/297490838","name":"Harmon","fuel":"hydro","source":"hydro","method":"run-of-the-river","capacityMW":141,"operator":"Ontario Power Generation and Moose Cree First Nation"}},{"type":"Feature","geometry":{"type":"Point","coordinates":[-81.4875,48.81307]},"properties":{"id":"way/299604013","name":"Lower Sturgeon Falls Hydroelectric Generating Station","fuel":"hydro","source":"hydro","method":"run-of-the-river","capacityMW":14}},{"type":"Feature","geometry":{"type":"Point","coordinates":[-115.03431,51.11804]},"properties":{"id":"way/303703062","name":"Horseshoe Plant","fuel":"hydro","source":"hydro","method":"run-of-the-river","capacityMW":14,"operator":"TransAlta","start":"1911"}},{"type":"Feature","geometry":{"type":"Point","coordinates":[-79.4539,47.13907]},"properties":{"id":"way/308277345","name":"Unnamed site","fuel":"hydro","source":"hydro","operator":"Ontario Power Generation"}},{"type":"Feature","geometry":{"type":"Point","coordinates":[-87.16098,48.7867]},"properties":{"id":"way/308435211","name":"Aguasabon Generating Station","fuel":"hydro","source":"hydro"}},{"type":"Feature","geometry":{"type":"Point","coordinates":[-86.14416,48.53582]},"properties":{"id":"way/308445089","name":"Unnamed site","fuel":"hydro","source":"hydro"}},{"type":"Feature","geometry":{"type":"Point","coordinates":[-52.91906,47.53949]},"properties":{"id":"way/318465055","name":"Topsail Generating Station","fuel":"hydro","source":"hydro","method":"water-storage","capacityMW":2.6,"operator":"Newfoundland Power Inc."}},{"type":"Feature","geometry":{"type":"Point","coordinates":[-74.97411,45.00497]},"properties":{"id":"way/320126402","name":"SunE Rutley Solar Farm","fuel":"solar","source":"solar","method":"photovoltaic","capacityMW":10,"operator":"SunEdison"}},{"type":"Feature","geometry":{"type":"Point","coordinates":[-75.49292,44.72595]},"properties":{"id":"way/320126586","name":"Edwardsburgh Morrisburg Solar Project","fuel":"solar","source":"solar","method":"photovoltaic","capacityMW":10,"operator":"Penn Energy Renewables, Ltd"}},{"type":"Feature","geometry":{"type":"Point","coordinates":[-76.19901,45.22549]},"properties":{"id":"way/320311679","name":"Brian J. Gallagher Generating Station","fuel":"hydro","source":"hydro","method":"run-of-the-river","capacityMW":4.6,"operator":"Mississippi River Power Corporation","start":"2010-04-09"}},{"type":"Feature","geometry":{"type":"Point","coordinates":[-66.78172,50.7148]},"properties":{"id":"way/320744441","name":"Centrale de la Sainte-Marguerite-3","fuel":"hydro","source":"hydro","method":"water-storage","capacityMW":884,"operator":"Hydro-Québec"}},{"type":"Feature","geometry":{"type":"Point","coordinates":[-75.98747,53.72754]},"properties":{"id":"way/321910705","name":"La Grande-3","fuel":"hydro","source":"hydro","method":"run-of-the-river","capacityMW":2418,"operator":"Hydro-Québec"}},{"type":"Feature","geometry":{"type":"Point","coordinates":[-70.51304,54.44939]},"properties":{"id":"way/322119602","name":"Centrale Brisay","fuel":"hydro","source":"hydro","capacityMW":469,"operator":"Hydro-Québec"}},{"type":"Feature","geometry":{"type":"Point","coordinates":[-71.21253,48.69872]},"properties":{"id":"way/322119606","name":"Centrale Jim-Gray","fuel":"hydro","source":"hydro","method":"water-storage","capacityMW":63,"operator":"Produits forestiers Resolu","start":"1953"}},{"type":"Feature","geometry":{"type":"Point","coordinates":[-76.63233,52.6678]},"properties":{"id":"way/322153179","name":"Centrale de la Sarcelle","fuel":"hydro","source":"hydro","method":"run-of-the-river","capacityMW":150,"operator":"SEBJ"}},{"type":"Feature","geometry":{"type":"Point","coordinates":[-68.59555,49.73966]},"properties":{"id":"way/322366621","name":"Centrale René-Lévesque","fuel":"hydro","source":"hydro","method":"water-storage","capacityMW":1183,"operator":"Hydro-Québec"}},{"type":"Feature","geometry":{"type":"Point","coordinates":[-77.54947,53.78082]},"properties":{"id":"way/323897853","name":"Centrale La Grande-2A","fuel":"hydro","source":"hydro","method":"water-storage","capacityMW":2106,"operator":"Hydro-Québec"}},{"type":"Feature","geometry":{"type":"Point","coordinates":[-94.25547,48.71596]},"properties":{"id":"way/328684097","name":"Dave Rampel Solar Farm","fuel":"solar","source":"solar","method":"photovoltaic","capacityMW":10,"operator":"Rainy River First Nations","start":"2015-02-01"}},{"type":"Feature","geometry":{"type":"Point","coordinates":[-94.24582,48.70465]},"properties":{"id":"way/328684126","name":"Morley Solar Farm","fuel":"solar","source":"solar","method":"photovoltaic","capacityMW":10,"operator":"Rainy River First Nations","start":"2015-02-01"}},{"type":"Feature","geometry":{"type":"Point","coordinates":[-94.25358,48.70864]},"properties":{"id":"way/328684295","name":"Vanzwolf Solar Farm","fuel":"solar","source":"solar","method":"photovoltaic","capacityMW":5,"operator":"Rainy River First Nations","start":"2015-02-01"}},{"type":"Feature","geometry":{"type":"Point","coordinates":[-78.96661,44.46634]},"properties":{"id":"way/330116318","name":"Glenarm Solar Farm","fuel":"solar","source":"solar","method":"photovoltaic","capacityMW":10,"operator":"DIF Infrastructure"}},{"type":"Feature","geometry":{"type":"Point","coordinates":[-79.06853,44.43998]},"properties":{"id":"way/330371016","name":"DiscoveryLight","fuel":"solar","source":"solar","method":"photovoltaic","capacityMW":10,"operator":"DiscoveryLightLP (aka Canadian Solar Solutions Inc.)"}},{"type":"Feature","geometry":{"type":"Point","coordinates":[-117.50051,49.46182]},"properties":{"id":"way/334450101","name":"Lower Bonnington Generating Station","fuel":"hydro","source":"hydro","method":"run-of-the-river","capacityMW":54,"operator":"FortisBC"}},{"type":"Feature","geometry":{"type":"Point","coordinates":[-117.52,49.45561]},"properties":{"id":"way/334450102","name":"South Slocan Generating Station","fuel":"hydro","source":"hydro","method":"run-of-the-river","capacityMW":54,"operator":"FortisBC","start":"1928"}},{"type":"Feature","geometry":{"type":"Point","coordinates":[-117.46864,49.46894]},"properties":{"id":"way/334450103","name":"Corra Linn Generating Station","fuel":"hydro","source":"hydro","method":"water-storage","capacityMW":49,"operator":"FortisBC"}},{"type":"Feature","geometry":{"type":"Point","coordinates":[-121.98335,50.66058]},"properties":{"id":"way/334628974","name":"Unnamed site","fuel":"hydro","source":"hydro","capacityMW":16,"operator":"Innergex","start":"1992"}},{"type":"Feature","geometry":{"type":"Point","coordinates":[-122.85593,50.8396]},"properties":{"id":"way/334799585","name":"La Joie Generating Station","fuel":"hydro","source":"hydro","capacityMW":25,"operator":"BC Hydro","start":"1956"}},{"type":"Feature","geometry":{"type":"Point","coordinates":[-121.995,55.98256]},"properties":{"id":"way/334801748","name":"Peace Canyon Generating Station","fuel":"hydro","source":"hydro","capacityMW":736,"operator":"BC Hydro"}},{"type":"Feature","geometry":{"type":"Point","coordinates":[-74.69459,45.10436]},"properties":{"id":"way/335155098","name":"Cornwall Solar","fuel":"solar","source":"solar","method":"photovoltaic","capacityMW":10,"operator":"Algonquin Power","start":"2014-06-01"}},{"type":"Feature","geometry":{"type":"Point","coordinates":[-122.24036,50.72966]},"properties":{"id":"way/335699604","name":"Bridge River No. 1 Powerhouse","fuel":"hydro","source":"hydro","capacityMW":180,"operator":"BC Hydro","start":"1948"}},{"type":"Feature","geometry":{"type":"Point","coordinates":[-94.8689,50.11478]},"properties":{"id":"way/336933592","name":"Whitedog Falls Generating Station","fuel":"hydro","source":"hydro","method":"run-of-the-river","capacityMW":68,"operator":"Ontario Power Generation"}},{"type":"Feature","geometry":{"type":"Point","coordinates":[-68.3293,47.36903]},"properties":{"id":"way/349697953","name":"Twin Rivers Paper","fuel":"bioenergy","source":"biomass","method":"combustion","capacityMW":87,"operator":"Twin Rivers Paper"}},{"type":"Feature","geometry":{"type":"Point","coordinates":[-115.37534,52.91012]},"properties":{"id":"way/360219314","name":"Brazeau Powerhouse","fuel":"hydro","source":"hydro","capacityMW":355,"operator":"TransAlta","start":"1965"}},{"type":"Feature","geometry":{"type":"Point","coordinates":[-74.02745,45.31036]},"properties":{"id":"way/361196161","name":"Poste des Cèdres","fuel":"hydro","source":"hydro","method":"run-of-the-river","capacityMW":103,"operator":"Hydro-Québec"}},{"type":"Feature","geometry":{"type":"Point","coordinates":[-135.04004,60.69399]},"properties":{"id":"way/361337877","name":"Whitehorse Hydro Plant","fuel":"hydro","source":"hydro","capacityMW":40,"operator":"Yukon Power"}},{"type":"Feature","geometry":{"type":"Point","coordinates":[-115.37353,51.08866]},"properties":{"id":"way/361734577","name":"Rundle Hydro Plant","fuel":"hydro","source":"hydro","method":"water-storage","capacityMW":50,"operator":"TransAlta"}},{"type":"Feature","geometry":{"type":"Point","coordinates":[-75.00534,45.00609]},"properties":{"id":"way/367273277","name":"David Brown Solar Park","fuel":"solar","source":"solar","method":"photovoltaic","capacityMW":10,"operator":"Saturn Power Inc."}},{"type":"Feature","geometry":{"type":"Point","coordinates":[-75.73794,44.59849]},"properties":{"id":"way/370583119","name":"Brockville Solar Farm","fuel":"solar","source":"solar","method":"photovoltaic","capacityMW":10,"operator":"EffiSolar"}},{"type":"Feature","geometry":{"type":"Point","coordinates":[-79.75294,45.0206]},"properties":{"id":"way/373238989","name":"Big Eddy Generating Station","fuel":"hydro","source":"hydro","method":"run-of-the-river","capacityMW":8,"operator":"Ontario Power Generation"}},{"type":"Feature","geometry":{"type":"Point","coordinates":[-84.83075,47.95769]},"properties":{"id":"way/374714746","name":"Michipicoten High Falls Generation Station","fuel":"hydro","source":"hydro","method":"water-storage","capacityMW":45,"operator":"Great Lakes Power"}},{"type":"Feature","geometry":{"type":"Point","coordinates":[-80.66655,48.76964]},"properties":{"id":"way/375112638","name":"Iroquois Falls NPI Power Plant","fuel":"gas","source":"gas","method":"combustion"}},{"type":"Feature","geometry":{"type":"Point","coordinates":[-84.71572,47.90697]},"properties":{"id":"way/380823490","name":"Unnamed site","fuel":"hydro","source":"hydro"}},{"type":"Feature","geometry":{"type":"Point","coordinates":[-84.34929,46.50604]},"properties":{"id":"way/381244727","name":"Saint Marys Falls Power Plant","fuel":"hydro","source":"hydro","capacityMW":23.7,"operator":"U.S. Army Corps of Engineers","start":"1932-07"}},{"type":"Feature","geometry":{"type":"Point","coordinates":[-74.91021,45.36389]},"properties":{"id":"way/381674554","name":"St. Isidore","fuel":"solar","source":"solar","method":"photovoltaic","capacityMW":24,"operator":"EDF Renewables"}},{"type":"Feature","geometry":{"type":"Point","coordinates":[-84.42734,46.51872]},"properties":{"id":"way/382735251","name":"Starwood Solar Sault Ste. Marie","fuel":"solar","source":"solar","method":"photovoltaic","capacityMW":35,"operator":"EDF Renewables"}},{"type":"Feature","geometry":{"type":"Point","coordinates":[-84.28309,46.5421]},"properties":{"id":"way/382951542","name":"Starwood Solar Sault Ste. Marie 2/3","fuel":"solar","source":"solar","method":"photovoltaic","capacityMW":45,"operator":"KKR Global Infrastructure"}},{"type":"Feature","geometry":{"type":"Point","coordinates":[-74.71781,45.10107]},"properties":{"id":"way/384903887","name":"Glendale Solar Project","fuel":"solar","source":"solar","method":"photovoltaic","capacityMW":10,"operator":"Northland Power Inc."}},{"type":"Feature","geometry":{"type":"Point","coordinates":[-118.81328,50.29601]},"properties":{"id":"way/391945907","name":"Shuswap Falls Powerhouse","fuel":"hydro","source":"hydro"}},{"type":"Feature","geometry":{"type":"Point","coordinates":[-80.38676,43.04936]},"properties":{"id":"way/396745472","name":"Penn Energy - Brantgate Solar Project","fuel":"solar","source":"solar","method":"photovoltaic","capacityMW":8,"operator":"Penn Energy Renewables Ltd."}},{"type":"Feature","geometry":{"type":"Point","coordinates":[-114.5536,53.50802]},"properties":{"id":"way/398222940","name":"Sundance Power Station","fuel":"gas","source":"gas","method":"combustion","capacityMW":514}},{"type":"Feature","geometry":{"type":"Point","coordinates":[-111.13803,57.42922]},"properties":{"id":"way/398417798","name":"Kearl","fuel":"gas","source":"gas","method":"combustion","capacityMW":255,"operator":"Imperial Oil"}},{"type":"Feature","geometry":{"type":"Point","coordinates":[-72.063,45.8625]},"properties":{"id":"way/398966141","name":"Alain-Lemaire Solar Park","fuel":"solar","source":"solar","method":"thermal","operator":"RSP Energie Inc","start":"2014"}},{"type":"Feature","geometry":{"type":"Point","coordinates":[-119.21203,55.33117]},"properties":{"id":"way/401184624","name":"Grande Prairie Generating Station","fuel":"gas","source":"gas","method":"combustion","capacityMW":105,"operator":"Constellation Energy Corporation"}},{"type":"Feature","geometry":{"type":"Point","coordinates":[-119.21906,55.33858]},"properties":{"id":"way/401184626","name":"Poplar Hills","fuel":"other"}},{"type":"Feature","geometry":{"type":"Point","coordinates":[-119.10575,54.00794]},"properties":{"id":"way/401218986","name":"H.R. Milner Plant","fuel":"gas","source":"gas","method":"combustion","capacityMW":300,"operator":"Maxim Power Corp"}},{"type":"Feature","geometry":{"type":"Point","coordinates":[-115.73405,54.16174]},"properties":{"id":"way/401286624","name":"Whitecourt Power","fuel":"bioenergy","source":"biofuel","method":"combustion","capacityMW":25,"operator":"Capstone"}},{"type":"Feature","geometry":{"type":"Point","coordinates":[-115.58922,52.96268]},"properties":{"id":"way/402535304","name":"Brazeau Rubber Dam","fuel":"hydro","source":"hydro"}},{"type":"Feature","geometry":{"type":"Point","coordinates":[-114.30566,53.34222]},"properties":{"id":"way/402718554","name":"Genesee Generating Station","fuel":"gas","source":"gas","method":"combustion","capacityMW":1857,"operator":"Capital Power"}},{"type":"Feature","geometry":{"type":"Point","coordinates":[-114.44697,53.4461]},"properties":{"id":"way/402718555","name":"Keephills Generating Station","fuel":"gas","source":"gas","method":"combustion","capacityMW":858,"operator":"TransAlta"}},{"type":"Feature","geometry":{"type":"Point","coordinates":[-68.32479,47.36302]},"properties":{"id":"way/409431523","name":"Madawaska Hydro-Dam Fraser Plant","fuel":"hydro","source":"hydro","method":"run-of-the-river","capacityMW":5.3,"operator":"Edmundston Energy"}},{"type":"Feature","geometry":{"type":"Point","coordinates":[-123.18209,55.33704]},"properties":{"id":"way/412994909","name":"Mackenzie Conifex Timber Power","fuel":"bioenergy","source":"biomass"}},{"type":"Feature","geometry":{"type":"Point","coordinates":[-89.32596,48.36694]},"properties":{"id":"way/416178295","name":"Thunder Bay Airport Solar Farm","fuel":"solar","source":"solar","method":"photovoltaic","capacityMW":8.5,"operator":"SkyPower","start":"December 2011"}},{"type":"Feature","geometry":{"type":"Point","coordinates":[-92.58115,62.17036]},"properties":{"id":"way/416607400","name":"Qulliq Energy Corporation  Whale Cove","fuel":"oil","source":"diesel","method":"combustion","capacityMW":1.07,"operator":"Qulliq Energy Corporation"}},{"type":"Feature","geometry":{"type":"Point","coordinates":[-68.38965,49.14459]},"properties":{"id":"way/418101749","name":"Centrale aux Outardes-2","fuel":"hydro","source":"hydro","method":"run-of-the-river","capacityMW":523}},{"type":"Feature","geometry":{"type":"Point","coordinates":[-79.26141,43.11893]},"properties":{"id":"way/418129924","name":"DeCew II Generating Station","fuel":"hydro","source":"hydro","method":"run-of-the-river","capacityMW":144,"operator":"Ontario Power Generation"}},{"type":"Feature","geometry":{"type":"Point","coordinates":[-74.79765,45.00516]},"properties":{"id":"way/418179055","name":"St. Lawrence-Franklin D. Roosevelt Power Project","fuel":"hydro","source":"hydro","capacityMW":912,"operator":"New York Power Authority","start":"1958-07"}},{"type":"Feature","geometry":{"type":"Point","coordinates":[-71.17984,49.50991]},"properties":{"id":"way/418200919","name":"Centrale de la Péribonka","fuel":"hydro","source":"hydro","capacityMW":385}},{"type":"Feature","geometry":{"type":"Point","coordinates":[-78.29468,44.35224]},"properties":{"id":"way/418200920","name":"Stan Adamson Power House","fuel":"hydro","source":"hydro","capacityMW":3.9}},{"type":"Feature","geometry":{"type":"Point","coordinates":[-74.38268,45.56882]},"properties":{"id":"way/418202531","name":"Centrale de Carillon","fuel":"hydro","source":"hydro","method":"run-of-the-river","capacityMW":753,"operator":"Hydro-Québec"}},{"type":"Feature","geometry":{"type":"Point","coordinates":[-72.79903,47.44446]},"properties":{"id":"way/418202535","name":"Centrale de La Tuque","fuel":"hydro","source":"hydro","method":"water-storage","capacityMW":294}},{"type":"Feature","geometry":{"type":"Point","coordinates":[-122.97789,49.18611]},"properties":{"id":"way/418204624","name":"Metro Vancouver Waste-to-Energy Facility","fuel":"waste","source":"waste","method":"combustion","capacityMW":22,"operator":"Covanta","start":"1988"}},{"type":"Feature","geometry":{"type":"Point","coordinates":[-88.34544,49.15346]},"properties":{"id":"way/423894829","name":"Cameron Falls Generating Station","fuel":"hydro","source":"hydro","method":"run-of-the-river","capacityMW":92}},{"type":"Feature","geometry":{"type":"Point","coordinates":[-73.37525,47.78661]},"properties":{"id":"way/428068665","name":"Centrale des Rapide-des-Cœurs","fuel":"hydro","source":"hydro","method":"run-of-the-river","capacityMW":76,"operator":"Hydro-Québec","start":"2008"}},{"type":"Feature","geometry":{"type":"Point","coordinates":[-113.36527,53.58716]},"properties":{"id":"way/431214436","name":"Clover Bar Energy Centre","fuel":"gas","source":"gas","method":"combustion","capacityMW":243,"operator":"Capital Power"}},{"type":"Feature","geometry":{"type":"Point","coordinates":[-110.72253,50.04115]},"properties":{"id":"way/431696982","name":"Medicine Hat Plant","fuel":"gas","source":"gas","method":"combustion","capacityMW":255,"operator":"City of Medicine Hat"}},{"type":"Feature","geometry":{"type":"Point","coordinates":[-76.5649,44.32189]},"properties":{"id":"way/431769415","name":"Kingston Gardiner TS Unity Road Solar Project","fuel":"solar","source":"solar","method":"photovoltaic","capacityMW":10,"operator":"SunEdison"}},{"type":"Feature","geometry":{"type":"Point","coordinates":[-69.6232,61.04676]},"properties":{"id":"way/431798224","name":"Hydro Quebec Power Plant Quaqtaq","fuel":"oil","source":"diesel","method":"combustion","capacityMW":1.1,"operator":"Hydro-Québec"}},{"type":"Feature","geometry":{"type":"Point","coordinates":[-84.43698,47.26893]},"properties":{"id":"way/432358487","name":"MacKay Generating Station","fuel":"hydro","source":"hydro","method":"run-of-the-river","capacityMW":62,"operator":"Brookfield Renewable Energy"}},{"type":"Feature","geometry":{"type":"Point","coordinates":[-124.73953,49.18561]},"properties":{"id":"way/434301233","name":"China Creek","fuel":"hydro","source":"hydro"}},{"type":"Feature","geometry":{"type":"Point","coordinates":[-114.05368,51.04408]},"properties":{"id":"way/439043716","name":"Downtown District Energy Centre","fuel":"gas","source":"gas","method":"combustion","capacityMW":3.3,"operator":"Calgary District Heating Inc."}},{"type":"Feature","geometry":{"type":"Point","coordinates":[-72.61537,54.16915]},"properties":{"id":"way/440985895","name":"Centrale Laforge-1","fuel":"hydro","source":"hydro","capacityMW":878,"operator":"Hydro-Québec"}},{"type":"Feature","geometry":{"type":"Point","coordinates":[-71.27932,54.59078]},"properties":{"id":"way/442136079","name":"Centrale Laforge-2","fuel":"hydro","source":"hydro","capacityMW":319,"operator":"SEBJ; Hydro-Québec"}},{"type":"Feature","geometry":{"type":"Point","coordinates":[-65.45419,47.07272]},"properties":{"id":"way/448588814","name":"Millbank power plant","fuel":"oil","source":"diesel","capacityMW":397,"operator":"Energie NB Power"}},{"type":"Feature","geometry":{"type":"Point","coordinates":[-67.40162,45.15685]},"properties":{"id":"way/449750850","name":"Woodland Pulp Power Plant","fuel":"bioenergy","source":"biomass","capacityMW":49.8,"operator":"Woodland Pulp LLC"}},{"type":"Feature","geometry":{"type":"Point","coordinates":[-63.10784,46.25162]},"properties":{"id":"way/451913412","name":"PEI Energy Systems District Heating Plant","fuel":"waste","source":"waste","method":"combustion","operator":"Enwave"}},{"type":"Feature","geometry":{"type":"Point","coordinates":[-75.41786,45.58438]},"properties":{"id":"way/465013690","name":"Centrale Dufferin","fuel":"hydro","source":"hydro","method":"water-storage","operator":"Boralex","start":"1913"}},{"type":"Feature","geometry":{"type":"Point","coordinates":[-75.42225,45.58948]},"properties":{"id":"way/466115439","name":"Unnamed site","fuel":"other"}},{"type":"Feature","geometry":{"type":"Point","coordinates":[-82.39981,42.57897]},"properties":{"id":"way/467521424","name":"Chatham-Kent PUC Solar Garden","fuel":"solar","source":"solar","method":"photovoltaic"}},{"type":"Feature","geometry":{"type":"Point","coordinates":[-82.41863,42.86751]},"properties":{"id":"way/467526818","name":"Moore Solar","fuel":"solar","source":"solar","method":"photovoltaic","capacityMW":20,"operator":"NextEra Energy Canadian Operating Services"}},{"type":"Feature","geometry":{"type":"Point","coordinates":[-106.6773,51.24088]},"properties":{"id":"way/469847283","name":"NRGreen Loreburn Heat Recovery Facility","fuel":"gas","source":"gas","method":"thermal","capacityMW":5,"operator":"NRGreen Power Limited Partnership","start":"2008"}},{"type":"Feature","geometry":{"type":"Point","coordinates":[-63.60954,44.71491]},"properties":{"id":"way/472428351","name":"Burnside Combustion Turbine Power Plant","fuel":"oil","source":"oil","method":"combustion","capacityMW":120,"operator":"Nova Scotia Power"}},{"type":"Feature","geometry":{"type":"Point","coordinates":[-55.76606,53.45652]},"properties":{"id":"way/474979132","name":"Black Tickle & Domino","fuel":"oil","source":"diesel","method":"combustion","capacityMW":1.005,"operator":"Newfoundland and Labrador Hydro"}},{"type":"Feature","geometry":{"type":"Point","coordinates":[-57.01385,53.70883]},"properties":{"id":"way/475171749","name":"Cartwright","fuel":"oil","source":"diesel","method":"combustion","capacityMW":1.485,"operator":"Newfoundland and Labrador Hydro"}},{"type":"Feature","geometry":{"type":"Point","coordinates":[-79.06119,44.46137]},"properties":{"id":"way/475533694","name":"SparkleLight Solar Farm","fuel":"solar","source":"solar","method":"photovoltaic","capacityMW":10,"operator":"BluEarth Renewables"}},{"type":"Feature","geometry":{"type":"Point","coordinates":[-83.06674,42.11428]},"properties":{"id":"way/475681896","name":"Amherstburg II","fuel":"solar","source":"solar","method":"photovoltaic","capacityMW":15,"operator":"Enbridge"}},{"type":"Feature","geometry":{"type":"Point","coordinates":[-82.42686,42.2746]},"properties":{"id":"way/475681901","name":"Enbridge Tilbury","fuel":"solar","source":"solar","method":"photovoltaic","capacityMW":5,"operator":"Enbridge Income Fund"}},{"type":"Feature","geometry":{"type":"Point","coordinates":[-81.84901,42.4454]},"properties":{"id":"way/475879159","name":"Erie Ridge Solar Field","fuel":"solar","source":"solar","method":"photovoltaic","capacityMW":10}},{"type":"Feature","geometry":{"type":"Point","coordinates":[-76.92488,44.2075]},"properties":{"id":"way/476436468","name":"Little Creek Solar Project","fuel":"solar","source":"solar","method":"photovoltaic","capacityMW":10,"operator":"Canadian Solar"}},{"type":"Feature","geometry":{"type":"Point","coordinates":[-78.89063,44.4187]},"properties":{"id":"way/476437730","name":"Simcoe Solar Energy Centre 3","fuel":"solar","source":"solar","method":"photovoltaic","capacityMW":10,"operator":"TerraForm Power"}},{"type":"Feature","geometry":{"type":"Point","coordinates":[-78.96406,44.47649]},"properties":{"id":"way/476445919","name":"Simcoe Solar Energy Centre 1","fuel":"solar","source":"solar","method":"photovoltaic","capacityMW":10,"operator":"TerraForm Power"}},{"type":"Feature","geometry":{"type":"Point","coordinates":[-80.92079,46.67724]},"properties":{"id":"way/476584835","name":"Highlight Solar Project","fuel":"solar","source":"solar","method":"photovoltaic","capacityMW":10,"operator":"CSI GP Val Caron Ltd. (Canadian Solar)"}},{"type":"Feature","geometry":{"type":"Point","coordinates":[-76.06961,44.84765]},"properties":{"id":"way/476673224","name":"Elmsley Solar East","fuel":"solar","source":"solar","method":"photovoltaic","capacityMW":12,"operator":"EDF Renewables"}},{"type":"Feature","geometry":{"type":"Point","coordinates":[-76.94384,44.29869]},"properties":{"id":"way/476944429","name":"First Light 2","fuel":"solar","source":"solar","method":"photovoltaic","capacityMW":10.4,"operator":"SunEdison / Sky Power"}},{"type":"Feature","geometry":{"type":"Point","coordinates":[-79.76222,44.53978]},"properties":{"id":"way/477215391","name":"Midhurst 2","fuel":"solar","source":"solar","method":"photovoltaic","capacityMW":3.5,"operator":"Recurrent Energy"}},{"type":"Feature","geometry":{"type":"Point","coordinates":[-79.81243,44.65689]},"properties":{"id":"way/477215923","name":"Unnamed site","fuel":"solar","source":"solar","method":"photovoltaic"}},{"type":"Feature","geometry":{"type":"Point","coordinates":[-79.84797,44.69413]},"properties":{"id":"way/477215924","name":"RayLight Solar Park","fuel":"solar","source":"solar","method":"photovoltaic","capacityMW":10,"operator":"RayLight LP (aka Canadian Solar)"}},{"type":"Feature","geometry":{"type":"Point","coordinates":[-79.63442,44.77378]},"properties":{"id":"way/477216474","name":"Waubaushene 4","fuel":"solar","source":"solar","method":"photovoltaic","capacityMW":8,"operator":"Recurrent Energy"}},{"type":"Feature","geometry":{"type":"Point","coordinates":[-79.60335,44.76813]},"properties":{"id":"way/477216475","name":"Waubaushene 5","fuel":"solar","source":"solar","method":"photovoltaic","capacityMW":5,"operator":"Recurrent Energy"}},{"type":"Feature","geometry":{"type":"Point","coordinates":[-79.56976,44.47419]},"properties":{"id":"way/477217230","name":"Midhurst 3","fuel":"solar","source":"solar","method":"photovoltaic","capacityMW":3.5,"operator":"Recurrent Energy"}},{"type":"Feature","geometry":{"type":"Point","coordinates":[-79.56053,44.4716]},"properties":{"id":"way/477217231","name":"Midhurst 4","fuel":"solar","source":"solar","method":"photovoltaic","capacityMW":6.5,"operator":"Recurrent Energy"}},{"type":"Feature","geometry":{"type":"Point","coordinates":[-78.39187,43.94874]},"properties":{"id":"way/477222007","name":"Penn Energy - Van Dorp Solar Projects","fuel":"solar","source":"solar","method":"photovoltaic","capacityMW":10,"operator":"Port Hope Solar Farm Partnership"}},{"type":"Feature","geometry":{"type":"Point","coordinates":[-78.12282,44.02327]},"properties":{"id":"way/477222916","name":"Hamilton (Port Hope 4) Solar Facility","fuel":"solar","source":"solar","method":"photovoltaic","capacityMW":10,"operator":"Penn Energy"}},{"type":"Feature","geometry":{"type":"Point","coordinates":[-78.09576,44.19256]},"properties":{"id":"way/477222983","name":"Alderville First Nation Solar Facility","fuel":"solar","source":"solar","method":"photovoltaic","capacityMW":5,"operator":"Alderville First Nation"}},{"type":"Feature","geometry":{"type":"Point","coordinates":[-75.22636,45.15952]},"properties":{"id":"way/477224400","name":"CityLights Solar Farm","fuel":"solar","source":"solar","method":"photovoltaic","capacityMW":10,"operator":"Renewable Energy Trust Capital Inc."}},{"type":"Feature","geometry":{"type":"Point","coordinates":[-75.2567,45.12582]},"properties":{"id":"way/477224451","name":"Mighty Solar Project","fuel":"solar","source":"solar","method":"photovoltaic","capacityMW":10,"operator":"Concord Green Energy"}},{"type":"Feature","geometry":{"type":"Point","coordinates":[-75.46469,45.30439]},"properties":{"id":"way/477224513","name":"Parkway Solar","fuel":"solar","source":"solar","method":"photovoltaic","capacityMW":12.7,"operator":"GS One-Parkway Solar Farm LP"}},{"type":"Feature","geometry":{"type":"Point","coordinates":[-74.88794,45.53949]},"properties":{"id":"way/477224703","name":"Alfred Solar Energy Project","fuel":"solar","source":"solar","method":"photovoltaic","capacityMW":10,"operator":"SunE Alfred LP (SunEdison) formerly 2225049 Ontario Inc."}},{"type":"Feature","geometry":{"type":"Point","coordinates":[-76.0864,44.84071]},"properties":{"id":"way/477225047","name":"Elmsley Solar West","fuel":"solar","source":"solar","method":"photovoltaic","capacityMW":12,"operator":"EDF Renewables"}},{"type":"Feature","geometry":{"type":"Point","coordinates":[-79.19197,42.97116]},"properties":{"id":"way/477766466","name":"Welland Ridge Road Solar Project","fuel":"solar","source":"solar","method":"photovoltaic","capacityMW":10,"operator":"SunE Welland Ridge GP Corp. operating as SunE Welland Ridge LP"}},{"type":"Feature","geometry":{"type":"Point","coordinates":[-75.02064,44.98707]},"properties":{"id":"way/477776381","name":"SunEdison Bruining 1 Solar Project","fuel":"solar","source":"solar","method":"photovoltaic","capacityMW":10,"operator":"SunE South Stormont GP Corp. (SunEdison)"}},{"type":"Feature","geometry":{"type":"Point","coordinates":[-81.11155,42.89189]},"properties":{"id":"way/477900041","name":"Abw Solar Belmont","fuel":"solar","source":"solar","method":"photovoltaic","capacityMW":20,"operator":"First Solar"}},{"type":"Feature","geometry":{"type":"Point","coordinates":[-81.6733,42.96383]},"properties":{"id":"way/477900899","name":"Adelaide 1","fuel":"solar","source":"solar","method":"photovoltaic","capacityMW":10,"operator":"Met Axium Solar Adelaide 1 Limited Partnership"}},{"type":"Feature","geometry":{"type":"Point","coordinates":[-56.11685,52.77299]},"properties":{"id":"way/478513274","name":"Charlottetown Diesel Generating Station","fuel":"oil","source":"diesel","method":"combustion","capacityMW":2.545,"operator":"Newfoundland and Labrador Hydro"}},{"type":"Feature","geometry":{"type":"Point","coordinates":[-76.14127,45.16751]},"properties":{"id":"way/479982314","name":"Beckwith Solar","fuel":"solar","source":"solar","method":"photovoltaic","capacityMW":12.7,"operator":"EffiSolar Energy, Engie Energy Services International and Mitsui. Engie Energy Services International"}},{"type":"Feature","geometry":{"type":"Point","coordinates":[-63.19409,50.62442]},"properties":{"id":"way/483138845","name":"Centrale La Romaine-2","fuel":"hydro","source":"hydro","method":"water-storage","capacityMW":640,"operator":"Hydro-Québec","start":"2014"}},{"type":"Feature","geometry":{"type":"Point","coordinates":[-63.26044,50.38593]},"properties":{"id":"way/483553769","name":"Centrale La Romaine-1","fuel":"hydro","source":"hydro","capacityMW":270,"operator":"Hydro-Québec","start":"2015"}},{"type":"Feature","geometry":{"type":"Point","coordinates":[-79.18621,44.06183]},"properties":{"id":"way/484300125","name":"Roseplain Solar Farm","fuel":"solar","source":"solar","method":"photovoltaic","capacityMW":6.5,"operator":"Roseplain General Partner 1 Inc. Roseplain General Partner 2 Inc. operating as Roseplain Solar Farm Partnership (Penn Energy)"}},{"type":"Feature","geometry":{"type":"Point","coordinates":[-80.36187,42.85877]},"properties":{"id":"way/486151934","name":"13th Side Road Solar Power Plant","fuel":"solar","source":"solar","method":"photovoltaic","capacityMW":9.5,"operator":"Skypower"}},{"type":"Feature","geometry":{"type":"Point","coordinates":[-81.68499,42.56446]},"properties":{"id":"way/486229286","name":"West Elgin Solar Farm","fuel":"solar","source":"solar","method":"photovoltaic","capacityMW":1.1,"operator":"Intech"}},{"type":"Feature","geometry":{"type":"Point","coordinates":[-80.96108,42.98383]},"properties":{"id":"way/487238335","name":"Breen 2","fuel":"solar","source":"solar","method":"photovoltaic","capacityMW":10,"operator":"Recurrent Energy"}},{"type":"Feature","geometry":{"type":"Point","coordinates":[-72.76571,46.53629]},"properties":{"id":"way/487456979","name":"Complexe hydroélectrique de Shawinigan","fuel":"hydro","source":"hydro","method":"run-of-the-river","capacityMW":394,"operator":"Hydro-Québec","start":"1901-10-22"}},{"type":"Feature","geometry":{"type":"Point","coordinates":[-82.39834,42.89721]},"properties":{"id":"way/488285723","name":"St Clair Energy Centre","fuel":"gas","source":"gas","method":"combustion"}},{"type":"Feature","geometry":{"type":"Point","coordinates":[-83.07821,42.14621]},"properties":{"id":"way/488365094","name":"Amherstburg Solar","fuel":"solar","source":"solar","method":"photovoltaic","capacityMW":20,"operator":"Capstone Infrastructure"}},{"type":"Feature","geometry":{"type":"Point","coordinates":[-82.39257,49.37539]},"properties":{"id":"way/488559119","name":"Kap Solar Project","fuel":"solar","source":"solar","method":"photovoltaic","capacityMW":6,"operator":"Ontario Solar PV Fields"}},{"type":"Feature","geometry":{"type":"Point","coordinates":[-135.21237,59.53573]},"properties":{"id":"way/489475217","name":"Goat Lake hydroelectric facility","fuel":"hydro","source":"hydro","method":"water-storage","capacityMW":4,"operator":"Alaska Power & Telephone","start":"1997-12"}},{"type":"Feature","geometry":{"type":"Point","coordinates":[-95.20211,56.35028]},"properties":{"id":"way/489879533","name":"Keeyask Generating Station","fuel":"hydro","source":"hydro","capacityMW":695,"start":"2021"}},{"type":"Feature","geometry":{"type":"Point","coordinates":[-99.28621,53.16025]},"properties":{"id":"way/490725972","name":"Grand Rapids Generating Station","fuel":"hydro","source":"hydro","method":"run-of-the-river","capacityMW":472,"operator":"Manitoba Hydro"}},{"type":"Feature","geometry":{"type":"Point","coordinates":[-84.5837,47.24004]},"properties":{"id":"way/492366725","name":"Gartshore Generating Station","fuel":"hydro","source":"hydro","method":"water-storage","capacityMW":23,"operator":"Brookfield Renewable Energy"}},{"type":"Feature","geometry":{"type":"Point","coordinates":[-61.68826,56.5388]},"properties":{"id":"way/498377134","name":"Nain Power Plant","fuel":"oil","source":"diesel","method":"combustion","capacityMW":3.755,"operator":"Newfoundland and Labrador Hydro"}},{"type":"Feature","geometry":{"type":"Point","coordinates":[-61.12579,55.92009]},"properties":{"id":"way/498597452","name":"Natuashish","fuel":"oil","source":"diesel","method":"combustion","capacityMW":3.996,"operator":"Mushuau Innu First Nation"}},{"type":"Feature","geometry":{"type":"Point","coordinates":[-65.9439,58.69902]},"properties":{"id":"way/502403916","name":"Hydo Quebec Kangiqsualujjuaq","fuel":"oil","source":"diesel","method":"combustion","capacityMW":2,"operator":"Hydo Quebec"}},{"type":"Feature","geometry":{"type":"Point","coordinates":[-69.60484,59.30673]},"properties":{"id":"way/504399319","name":"ᐊᐅᐸᓗᒃ (ᒐᕙᒪᖃᕐᕕᐅᔪᖅ) / Aupaluk (village)","fuel":"oil","source":"diesel","method":"combustion","capacityMW":0.8,"operator":"Hydo Quebec"}},{"type":"Feature","geometry":{"type":"Point","coordinates":[-77.26541,60.03613]},"properties":{"id":"way/506292352","name":"Hydro Quebec Puvirnituq","fuel":"oil","source":"oil","method":"combustion","capacityMW":2.9,"operator":"Hydro-Québec"}},{"type":"Feature","geometry":{"type":"Point","coordinates":[-77.91797,62.4174]},"properties":{"id":"way/507065152","name":"Hydro Quebec Ivujivik","fuel":"oil","source":"diesel","method":"combustion","capacityMW":1,"operator":"Hydro-Québec"}},{"type":"Feature","geometry":{"type":"Point","coordinates":[-66.75901,44.66124]},"properties":{"id":"way/508759389","name":"Grand Manan Power Station","fuel":"oil","source":"diesel","method":"combustion","capacityMW":29,"operator":"NB Power"}},{"type":"Feature","geometry":{"type":"Point","coordinates":[-113.93602,51.18103]},"properties":{"id":"way/509105980","name":"Calgary Energy Centre","fuel":"gas","source":"gas","method":"combustion","capacityMW":320,"operator":"Enmax"}},{"type":"Feature","geometry":{"type":"Point","coordinates":[-113.8876,50.96942]},"properties":{"id":"way/509135604","name":"Shepard Energy Centre","fuel":"gas","source":"gas","method":"combustion","capacityMW":860,"operator":"Enmax / Capital Power"}},{"type":"Feature","geometry":{"type":"Point","coordinates":[-113.94107,51.19252]},"properties":{"id":"way/509137528","name":"Balzac Power Station","fuel":"gas","source":"gas","method":"combustion","capacityMW":120,"operator":"Nexen"}},{"type":"Feature","geometry":{"type":"Point","coordinates":[-113.17139,51.00581]},"properties":{"id":"way/509139474","name":"Cavalier Energy Centre","fuel":"gas","source":"gas","method":"combustion","capacityMW":120,"operator":"Enmax"}},{"type":"Feature","geometry":{"type":"Point","coordinates":[-68.15942,49.97073]},"properties":{"id":"way/510260101","name":"Centrale de la Toulnustouc","fuel":"hydro","source":"hydro","capacityMW":526,"operator":"Hydro-Québec"}},{"type":"Feature","geometry":{"type":"Point","coordinates":[-69.55149,49.2934]},"properties":{"id":"way/510844848","name":"Centrale Bersimis 1","fuel":"hydro","source":"hydro","capacityMW":1178,"operator":"Hydro-Québec","start":"1956"}},{"type":"Feature","geometry":{"type":"Point","coordinates":[-82.43855,42.93538]},"properties":{"id":"way/514000842","name":"Sarnia Regional Cogeneration Plant","fuel":"gas","source":"gas","capacityMW":444,"operator":"TransAlta","start":"2/1/2006"}},{"type":"Feature","geometry":{"type":"Point","coordinates":[-64.45442,50.32268]},"properties":{"id":"way/518003874","name":"Centrale de Magpie","fuel":"hydro","source":"hydro","capacityMW":40.6,"operator":"Innergex","start":"2007"}},{"type":"Feature","geometry":{"type":"Point","coordinates":[-77.31601,44.06236]},"properties":{"id":"way/519767567","name":"Belleville South Generating Station","fuel":"solar","source":"solar","method":"photovoltaic","capacityMW":10,"operator":"Northland Power","start":"2013"}},{"type":"Feature","geometry":{"type":"Point","coordinates":[-83.68647,49.67847]},"properties":{"id":"way/521066523","name":"Mattawiskwia Solar Project","fuel":"solar","source":"solar","method":"photovoltaic","capacityMW":10,"operator":"Ontario Solar PV Fields"}},{"type":"Feature","geometry":{"type":"Point","coordinates":[-78.98793,44.51171]},"properties":{"id":"way/521449156","name":"GoodLight Solar Project","fuel":"solar","source":"solar","method":"photovoltaic","capacityMW":10,"operator":"BluEarth Renewables"}},{"type":"Feature","geometry":{"type":"Point","coordinates":[-76.89498,44.29606]},"properties":{"id":"way/525387527","name":"Stone Mills","fuel":"solar","source":"solar","method":"photovoltaic","capacityMW":11,"operator":"DIF Infrastructure"}},{"type":"Feature","geometry":{"type":"Point","coordinates":[-76.76998,44.26801]},"properties":{"id":"way/525387529","name":"Kingston Gardiner TS Odessa Solar Project","fuel":"solar","source":"solar","method":"photovoltaic","capacityMW":10,"operator":"Axio Power and SunEdison"}},{"type":"Feature","geometry":{"type":"Point","coordinates":[-123.54814,49.67752]},"properties":{"id":"way/525760569","name":"Sechelt Creek Generating Station","fuel":"hydro","source":"hydro","capacityMW":16}},{"type":"Feature","geometry":{"type":"Point","coordinates":[-123.53217,49.71091]},"properties":{"id":"way/525762967","name":"Clowhom Powerhouse","fuel":"hydro","source":"hydro","method":"water-storage","capacityMW":33}},{"type":"Feature","geometry":{"type":"Point","coordinates":[-123.51599,49.74811]},"properties":{"id":"way/525763316","name":"Unnamed site","fuel":"hydro","source":"hydro"}},{"type":"Feature","geometry":{"type":"Point","coordinates":[-123.57187,49.79535]},"properties":{"id":"way/525766958","name":"Unnamed site","fuel":"hydro","source":"hydro"}},{"type":"Feature","geometry":{"type":"Point","coordinates":[-56.21262,46.77542]},"properties":{"id":"way/528332750","name":"Unnamed site","fuel":"hydro","source":"hydro","method":"water-storage"}},{"type":"Feature","geometry":{"type":"Point","coordinates":[-63.40041,51.11395]},"properties":{"id":"way/533642342","name":"Centrale La Romaine-3","fuel":"hydro","source":"hydro","method":"water-storage","capacityMW":414,"operator":"Hydro-Québec","start":"2017"}},{"type":"Feature","geometry":{"type":"Point","coordinates":[-75.8219,44.98058]},"properties":{"id":"way/546733447","name":"Burritts Rapids Solar Farm","fuel":"solar","source":"solar","method":"photovoltaic","capacityMW":7,"operator":"Canadian Solar"}},{"type":"Feature","geometry":{"type":"Point","coordinates":[-122.84133,49.18123]},"properties":{"id":"way/547109988","name":"City of Surrey District Energy Boiler Plant","fuel":"gas","source":"gas","method":"combustion","operator":"Fir District Heating;All-Pro Services","start":"2016-08"}},{"type":"Feature","geometry":{"type":"Point","coordinates":[-64.90937,50.3133]},"properties":{"id":"way/550179813","name":"Aménagement hydroélectrique Sheldrake","fuel":"hydro","source":"hydro","method":"run-of-the-river","capacityMW":25,"operator":"MRC de Minganie et Nation Innu d'Ekuanitshit"}},{"type":"Feature","geometry":{"type":"Point","coordinates":[-123.32503,49.91431]},"properties":{"id":"way/551541766","name":"Ashlu Creek Generating Station","fuel":"hydro","source":"hydro","capacityMW":49.9,"operator":"Innergex","start":"2009"}},{"type":"Feature","geometry":{"type":"Point","coordinates":[-76.24388,45.30308]},"properties":{"id":"way/553104099","name":"Mississippi Mills Solar Park","fuel":"solar","source":"solar","capacityMW":10,"operator":"Canadian Solar"}},{"type":"Feature","geometry":{"type":"Point","coordinates":[-125.27557,49.29642]},"properties":{"id":"way/553899385","name":"Doran Taylor Hydro","fuel":"hydro","source":"hydro","method":"water-storage","capacityMW":6,"operator":"Summit Power"}},{"type":"Feature","geometry":{"type":"Point","coordinates":[-102.35582,55.52774]},"properties":{"id":"way/562572819","name":"Island Falls Hydroelectric Station","fuel":"hydro","source":"hydro","method":"water-storage","capacityMW":111,"start":"1930"}},{"type":"Feature","geometry":{"type":"Point","coordinates":[-79.29635,44.29073]},"properties":{"id":"way/562918438","name":"GoldLight Solar Project","fuel":"solar","source":"solar","method":"photovoltaic","capacityMW":10,"operator":"GoldLight LP (Canadian Solar)"}},{"type":"Feature","geometry":{"type":"Point","coordinates":[-55.35743,46.9287]},"properties":{"id":"way/563065506","name":"Fall Pond Hydro Electric Station","fuel":"hydro","source":"hydro","method":"water-storage","capacityMW":0.35,"operator":"Newfoundland Power"}},{"type":"Feature","geometry":{"type":"Point","coordinates":[-89.5971,48.66091]},"properties":{"id":"way/563742964","name":"Silver Falls Generating Station","fuel":"hydro","source":"hydro","method":"water-storage","capacityMW":48,"operator":"Ontario Power Generation"}},{"type":"Feature","geometry":{"type":"Point","coordinates":[-94.97445,50.26243]},"properties":{"id":"way/565448115","name":"Caribou Falls Generation Station","fuel":"hydro","source":"hydro","method":"run-of-the-river","capacityMW":91,"operator":"Ontario Power Generation"}},{"type":"Feature","geometry":{"type":"Point","coordinates":[-80.01456,46.12366]},"properties":{"id":"way/570717592","name":"Okikendawt Hydroelectric Project","fuel":"hydro","source":"hydro","method":"run-of-the-river","capacityMW":10,"operator":"Dokis First Nation"}},{"type":"Feature","geometry":{"type":"Point","coordinates":[-76.27399,44.68365]},"properties":{"id":"way/571127017","name":"McCann Solar Project","fuel":"solar","source":"solar","method":"photovoltaic","capacityMW":10,"operator":"Northland Power Inc."}},{"type":"Feature","geometry":{"type":"Point","coordinates":[-76.27122,44.67389]},"properties":{"id":"way/571127018","name":"Newboro 1","fuel":"solar","source":"solar","capacityMW":10,"operator":"SunEdison","start":"2014"}},{"type":"Feature","geometry":{"type":"Point","coordinates":[-76.27577,44.6665]},"properties":{"id":"way/571127019","name":"Rideau Lakes Generating Station","fuel":"solar","source":"solar","capacityMW":10,"operator":"Northland Power","start":"2013"}},{"type":"Feature","geometry":{"type":"Point","coordinates":[-76.30854,44.66931]},"properties":{"id":"way/571127020","name":"Crosby Generating Station","fuel":"solar","source":"solar","capacityMW":10,"operator":"Northland Power","start":"2013"}},{"type":"Feature","geometry":{"type":"Point","coordinates":[-112.13077,52.46892]},"properties":{"id":"way/576459218","name":"Battle River Generating Station","fuel":"gas","source":"gas","method":"combustion","capacityMW":540,"operator":"ATCO Power"}},{"type":"Feature","geometry":{"type":"Point","coordinates":[-62.50054,44.93411]},"properties":{"id":"way/578677460","name":"Ruth Falls Hydro Station","fuel":"hydro","source":"hydro","method":"water-storage","capacityMW":5,"operator":"Nova Scotia Power"}},{"type":"Feature","geometry":{"type":"Point","coordinates":[-62.48418,44.98765]},"properties":{"id":"way/580284138","name":"Malay Falls Hydroelectric Plant","fuel":"hydro","source":"hydro","method":"water-storage","capacityMW":5,"operator":"Nova Scotia Power"}},{"type":"Feature","geometry":{"type":"Point","coordinates":[-76.35468,44.65163]},"properties":{"id":"way/580987489","name":"Newsboro 4","fuel":"solar","source":"solar","capacityMW":10,"operator":"SunEdison","start":"2014"}},{"type":"Feature","geometry":{"type":"Point","coordinates":[-77.33347,44.06003]},"properties":{"id":"way/580989594","name":"Belleville North Generating Station","fuel":"solar","source":"solar","method":"photovoltaic","capacityMW":10,"operator":"Northland Power","start":"2013"}},{"type":"Feature","geometry":{"type":"Point","coordinates":[-79.42272,45.60886]},"properties":{"id":"way/580991738","name":"Burk's Falls West Solar Project","fuel":"solar","source":"solar","method":"photovoltaic","capacityMW":10,"operator":"Northland Power"}},{"type":"Feature","geometry":{"type":"Point","coordinates":[-79.3556,45.60902]},"properties":{"id":"way/580991740","name":"Burk's Falls East Solar Project","fuel":"solar","source":"solar","method":"photovoltaic","capacityMW":10,"operator":"Northland Power","start":"2013"}},{"type":"Feature","geometry":{"type":"Point","coordinates":[-74.82131,45.57102]},"properties":{"id":"way/583369575","name":"Longueuil TS Malbouef","fuel":"solar","source":"solar","method":"photovoltaic","capacityMW":10}},{"type":"Feature","geometry":{"type":"Point","coordinates":[-113.67321,49.32909]},"properties":{"id":"way/583496095","name":"Waterton Hydro","fuel":"hydro","source":"hydro"}},{"type":"Feature","geometry":{"type":"Point","coordinates":[-72.6794,46.61545]},"properties":{"id":"way/585405404","name":"Centrale de Grand-Mère","fuel":"hydro","source":"hydro","method":"water-storage","capacityMW":105}},{"type":"Feature","geometry":{"type":"Point","coordinates":[-71.20328,48.65114]},"properties":{"id":"way/585997438","name":"Chute-aux-Galets","fuel":"hydro","source":"hydro","method":"run-of-the-river","capacityMW":14.4,"operator":"Resolute Forest Products","start":"1921"}},{"type":"Feature","geometry":{"type":"Point","coordinates":[-71.1708,48.65815]},"properties":{"id":"way/585997620","name":"Centrale Adam-Cunningham","fuel":"hydro","source":"hydro","method":"water-storage","capacityMW":169.9,"operator":"Produits forestiers Resolu","start":"1953"}},{"type":"Feature","geometry":{"type":"Point","coordinates":[-63.60499,44.80705]},"properties":{"id":"way/594785944","name":"Fall River Hydro Plant","fuel":"hydro","source":"hydro","method":"water-storage","capacityMW":0.5,"operator":"Nova Scotia Power"}},{"type":"Feature","geometry":{"type":"Point","coordinates":[-79.35481,47.57701]},"properties":{"id":"way/595665959","name":"Centrale des Rapides-des-Îles","fuel":"hydro","source":"hydro","capacityMW":176}},{"type":"Feature","geometry":{"type":"Point","coordinates":[-78.57636,47.93377]},"properties":{"id":"way/595665973","name":"Centrale de Rapide-2","fuel":"hydro","source":"hydro","capacityMW":67}},{"type":"Feature","geometry":{"type":"Point","coordinates":[-78.31003,47.7685]},"properties":{"id":"way/595666022","name":"Centrale de Rapide-7","fuel":"hydro","source":"hydro","method":"water-storage","capacityMW":67}},{"type":"Feature","geometry":{"type":"Point","coordinates":[-79.29413,47.59118]},"properties":{"id":"way/595675031","name":"Centrale des Rapides-des-Quinze","fuel":"hydro","source":"hydro","method":"run-of-the-river","capacityMW":109,"operator":"Hydro Quebec"}},{"type":"Feature","geometry":{"type":"Point","coordinates":[-52.84179,47.24791]},"properties":{"id":"way/604960344","name":"Mobile Hydro Plant","fuel":"hydro","source":"hydro","method":"water-storage","capacityMW":10.5,"operator":"Newfoundland Power"}},{"type":"Feature","geometry":{"type":"Point","coordinates":[-72.96833,46.42347]},"properties":{"id":"way/606151066","name":"Centrale Lefrançois","fuel":"hydro","source":"hydro","method":"run-of-the-river","capacityMW":7.2,"operator":"Innergex inc.","start":"1994"}},{"type":"Feature","geometry":{"type":"Point","coordinates":[-78.75818,44.64975]},"properties":{"id":"way/609989893","name":"Balsam Lake Solar Farm","fuel":"solar","source":"solar","method":"photovoltaic","capacityMW":3,"operator":"Balsam Lake Green Energy"}},{"type":"Feature","geometry":{"type":"Point","coordinates":[-137.05375,61.03591]},"properties":{"id":"way/610215390","name":"Aishihik Hydro Plant","fuel":"hydro","source":"hydro","method":"run-of-the-river","capacityMW":22,"operator":"Yukon Energy Corporation"}},{"type":"Feature","geometry":{"type":"Point","coordinates":[-133.36157,62.23329]},"properties":{"id":"way/610215391","name":"Faro Diesel Facility","fuel":"oil","source":"diesel","method":"combustion","capacityMW":8.5,"operator":"Yukon Energy"}},{"type":"Feature","geometry":{"type":"Point","coordinates":[-74.68581,45.10813]},"properties":{"id":"way/610832060","name":"South Glengarry Solar Project","fuel":"solar","source":"solar","method":"photovoltaic","capacityMW":10,"operator":"Penn Energy"}},{"type":"Feature","geometry":{"type":"Point","coordinates":[-75.80402,44.63148]},"properties":{"id":"way/610905716","name":"Brockville 2 Solar Facility","fuel":"solar","source":"solar","method":"photovoltaic","capacityMW":9,"operator":"Axium Infinity Solar"}},{"type":"Feature","geometry":{"type":"Point","coordinates":[-74.93804,45.42862]},"properties":{"id":"way/611235503","name":"Saint Isidore Solar","fuel":"solar","source":"solar","method":"photovoltaic","capacityMW":12,"operator":"EDF Renewables"}},{"type":"Feature","geometry":{"type":"Point","coordinates":[-79.72035,44.47656]},"properties":{"id":"way/612709465","name":"Midhurst 6","fuel":"solar","source":"solar","method":"photovoltaic","capacityMW":3.5,"operator":"Recurrent Energy"}},{"type":"Feature","geometry":{"type":"Point","coordinates":[-122.17095,52.16225]},"properties":{"id":"way/614144503","name":"Williams Lake Power Plant","fuel":"bioenergy","source":"biomass","method":"combustion","capacityMW":66,"operator":"Atlantic Power Corporation"}},{"type":"Feature","geometry":{"type":"Point","coordinates":[-117.50454,49.03024]},"properties":{"id":"way/614612313","name":"Seven Mile Dam Generating Station","fuel":"hydro","source":"hydro","capacityMW":848,"operator":"FortisBC"}},{"type":"Feature","geometry":{"type":"Point","coordinates":[-57.20123,49.08247]},"properties":{"id":"way/628367550","name":"Hinds Lake Generating Station","fuel":"hydro","source":"hydro","method":"run-of-the-river","capacityMW":75}},{"type":"Feature","geometry":{"type":"Point","coordinates":[-64.21731,44.88148]},"properties":{"id":"way/629531442","name":"Avon","fuel":"hydro","source":"hydro","method":"water-storage","capacityMW":7,"operator":"Nova Scotia Power"}},{"type":"Feature","geometry":{"type":"Point","coordinates":[-78.75337,43.87378]},"properties":{"id":"way/639142492","name":"Durham York Energy Centre","fuel":"waste","source":"waste","method":"combustion","capacityMW":17.5,"operator":"Regional Municipalities Of Durham And York"}},{"type":"Feature","geometry":{"type":"Point","coordinates":[-76.72464,44.21028]},"properties":{"id":"way/639142496","name":"Kingston Generating Station","fuel":"gas","source":"gas","method":"combustion","capacityMW":110,"operator":"Northland Power"}},{"type":"Feature","geometry":{"type":"Point","coordinates":[-76.31107,44.41529]},"properties":{"id":"way/656363538","name":"Brewers Mills Generating Station","fuel":"hydro","source":"hydro","method":"run-of-the-river","capacityMW":0.6,"operator":"Hydro One"}},{"type":"Feature","geometry":{"type":"Point","coordinates":[-68.42514,58.11498]},"properties":{"id":"way/656579672","name":"Kuujjuaq Power Plant","fuel":"oil","source":"diesel","method":"combustion","capacityMW":6.01,"operator":"Hydro-Québec"}},{"type":"Feature","geometry":{"type":"Point","coordinates":[-79.31059,45.06256]},"properties":{"id":"way/658942647","name":"Unnamed site","fuel":"hydro","source":"hydro","method":"run-of-the-river"}},{"type":"Feature","geometry":{"type":"Point","coordinates":[-57.2056,48.55247]},"properties":{"id":"way/658954149","name":"Star Lake Hydroelectric Generating Station","fuel":"hydro","source":"hydro","capacityMW":18.4,"operator":"Enel Green Power, Newfoundland and Labrador Hydro"}},{"type":"Feature","geometry":{"type":"Point","coordinates":[-79.30864,45.03879]},"properties":{"id":"way/659058908","name":"Bracebridge Falls Generating Station","fuel":"hydro","source":"hydro","method":"run-of-the-river","operator":"Bracebridge Generating Ltd","start":"1902"}},{"type":"Feature","geometry":{"type":"Point","coordinates":[-79.29775,45.00085]},