{"type":"FeatureCollection","features":[{"type":"Feature","geometry":{"type":"Point","coordinates":[23.33072,61.475]},"properties":{"id":"node/1585227430","name":"Siuron voimala","fuel":"hydro","source":"hydro"}},{"type":"Feature","geometry":{"type":"Point","coordinates":[24.05333,63.87371]},"properties":{"id":"node/4214561205","name":"Korpelan voimalaitos","fuel":"other","operator":"Korpelan Voima"}},{"type":"Feature","geometry":{"type":"Point","coordinates":[25.71983,60.99155]},"properties":{"id":"node/12623314201","name":"Kymijärvi IV","fuel":"other","source":"electricity","operator":"Lahti Energia","start":"2024-12"}},{"type":"Feature","geometry":{"type":"Point","coordinates":[20.11,60.07043]},"properties":{"id":"node/13796777104","name":"Unnamed site","fuel":"storage","source":"battery"}},{"type":"Feature","geometry":{"type":"Point","coordinates":[25.07931,60.22588]},"properties":{"id":"way/19371922","name":"Myllypuron huippulämpökeskus","fuel":"other","start":"1978"}},{"type":"Feature","geometry":{"type":"Point","coordinates":[26.77127,60.76685]},"properties":{"id":"way/22919787","name":"Unnamed site","fuel":"hydro","source":"hydro","method":"run-of-the-river"}},{"type":"Feature","geometry":{"type":"Point","coordinates":[25.47351,65.02281]},"properties":{"id":"way/23586865","name":"Merikosken voimalaitos","fuel":"hydro","source":"hydro","method":"run-of-the-river","capacityMW":40,"operator":"Oulun Energia","start":"1948"}},{"type":"Feature","geometry":{"type":"Point","coordinates":[28.77451,61.16692]},"properties":{"id":"way/25952051","name":"Imatran vesivoimalaitos","fuel":"hydro","source":"hydro","method":"run-of-the-river","capacityMW":192,"operator":"Fortum","start":"1929"}},{"type":"Feature","geometry":{"type":"Point","coordinates":[21.43847,61.23772]},"properties":{"id":"way/26504079","name":"Olkiluodon ydinvoimalaitos","fuel":"nuclear","source":"nuclear","method":"fission","capacityMW":3380,"operator":"Teollisuuden Voima"}},{"type":"Feature","geometry":{"type":"Point","coordinates":[21.55491,63.09113]},"properties":{"id":"way/26844188","name":"Vaskiluodon yhteistuotanto­voimalaitos","fuel":"bioenergy","source":"biomass;coal","capacityMW":230,"operator":"Vaasan Voima"}},{"type":"Feature","geometry":{"type":"Point","coordinates":[22.31508,60.47782]},"properties":{"id":"way/27949586","name":"Orikedon biolämpökeskus","fuel":"bioenergy","source":"biomass","method":"combustion","operator":"Turun Seudun Energiatuotanto Oy"}},{"type":"Feature","geometry":{"type":"Point","coordinates":[24.90879,60.16192]},"properties":{"id":"way/28231918","name":"Kellosaaren varavoimala","fuel":"oil","source":"oil","method":"combustion","capacityMW":120,"operator":"Fingrid"}},{"type":"Feature","geometry":{"type":"Point","coordinates":[25.06374,60.28985]},"properties":{"id":"way/39685444","name":"Maarinkunnaan lämpökeskus","fuel":"gas","source":"gas","method":"combustion","operator":"Vantaan Energia Oy","start":"2002"}},{"type":"Feature","geometry":{"type":"Point","coordinates":[25.10551,60.42337]},"properties":{"id":"way/40680493","name":"Unnamed site","fuel":"other"}},{"type":"Feature","geometry":{"type":"Point","coordinates":[25.16636,60.22056]},"properties":{"id":"way/45449567","name":"Vuosaaren voimalaitokset","fuel":"gas","source":"gas","method":"combustion","capacityMW":650,"operator":"Helsingin Energia"}},{"type":"Feature","geometry":{"type":"Point","coordinates":[25.53967,66.42417]},"properties":{"id":"way/55609851","name":"Valajaskosken vesivoimalaitos","fuel":"hydro","source":"hydro","method":"run-of-the-river","capacityMW":101,"operator":"Kemijoki Oy","start":"1960"}},{"type":"Feature","geometry":{"type":"Point","coordinates":[29.65031,62.68001]},"properties":{"id":"way/60164794","name":"Puntarikosken voimalaitos","fuel":"hydro","source":"hydro"}},{"type":"Feature","geometry":{"type":"Point","coordinates":[23.67615,61.51027]},"properties":{"id":"way/64526826","name":"Lielahden voimalaitos","fuel":"gas","source":"gas;oil","capacityMW":147,"operator":"Tampereen Energia","start":"1988"}},{"type":"Feature","geometry":{"type":"Point","coordinates":[22.6956,61.27888]},"properties":{"id":"way/69762775","name":"Äetsän voimalaitos","fuel":"hydro","source":"hydro","method":"run-of-the-river","capacityMW":16,"operator":"UPM Energy Oy","start":"1921"}},{"type":"Feature","geometry":{"type":"Point","coordinates":[23.75947,61.50253]},"properties":{"id":"way/72503697","name":"Yläkosken voimalaitos, Finlayson","fuel":"hydro","source":"hydro","capacityMW":4.4,"operator":"Tampereen Energia","start":"1926"}},{"type":"Feature","geometry":{"type":"Point","coordinates":[23.7632,61.50033]},"properties":{"id":"way/72651774","name":"Keskikosken voimalaitos","fuel":"hydro","source":"hydro","capacityMW":8.7,"operator":"Tampereen Energia","start":"1932"}},{"type":"Feature","geometry":{"type":"Point","coordinates":[25.81027,62.23763]},"properties":{"id":"way/83058580","name":"Rauhalahden voimalaitos","fuel":"bioenergy","source":"biomass;peat;coal;oil","method":"combustion","capacityMW":87,"operator":"Jyväskylän energiantuotanto"}},{"type":"Feature","geometry":{"type":"Point","coordinates":[23.86271,61.45841]},"properties":{"id":"way/88309217","name":"Hervannan hakelämpölaitos","fuel":"bioenergy","source":"biomass","method":"combustion","operator":"Tampereen Energia","start":"2015"}},{"type":"Feature","geometry":{"type":"Point","coordinates":[25.88762,62.24477]},"properties":{"id":"way/91572432","name":"Unnamed site","fuel":"hydro","source":"hydro"}},{"type":"Feature","geometry":{"type":"Point","coordinates":[28.17659,61.04073]},"properties":{"id":"way/91947293","name":"Ihalaisen lämpölaitos","fuel":"other","method":"combustion","operator":"Lappeenrannan Lämpövoima"}},{"type":"Feature","geometry":{"type":"Point","coordinates":[23.76447,61.49618]},"properties":{"id":"way/93500720","name":"Alakosken voimalaitos","fuel":"hydro","source":"hydro","capacityMW":4,"start":"1938"}},{"type":"Feature","geometry":{"type":"Point","coordinates":[26.91633,60.47083]},"properties":{"id":"way/94806668","name":"Hovinsaaren voimalaitos","fuel":"bioenergy","source":"biomass","operator":"Kotkan Energia"}},{"type":"Feature","geometry":{"type":"Point","coordinates":[27.67601,62.21153]},"properties":{"id":"way/98736918","name":"Huutokosken varavoimalaitokset","fuel":"oil","source":"oil","method":"combustion","capacityMW":180,"operator":"Fingrid","start":"1973"}},{"type":"Feature","geometry":{"type":"Point","coordinates":[23.77578,61.50906]},"properties":{"id":"way/105203805","name":"Naistenlahden voimalaitos","fuel":"gas","source":"gas;biomass;oil","method":"combustion","capacityMW":189,"operator":"Tampereen Energia"}},{"type":"Feature","geometry":{"type":"Point","coordinates":[25.76,65.12487]},"properties":{"id":"way/106626974","name":"Unnamed site","fuel":"other"}},{"type":"Feature","geometry":{"type":"Point","coordinates":[27.73564,64.22652]},"properties":{"id":"way/116907604","name":"Koivukosken voimalaitos","fuel":"hydro","source":"hydro","method":"water-storage","capacityMW":6.5,"operator":"Kainuun Voima Oy","start":"1943"}},{"type":"Feature","geometry":{"type":"Point","coordinates":[24.4144,60.98484]},"properties":{"id":"way/117138940","name":"Unnamed site","fuel":"other"}},{"type":"Feature","geometry":{"type":"Point","coordinates":[24.50576,60.97481]},"properties":{"id":"way/120415742","name":"Vanajan voimalaitos","fuel":"bioenergy","source":"biomass;gas","capacityMW":61,"operator":"Elenia"}},{"type":"Feature","geometry":{"type":"Point","coordinates":[27.68545,62.92876]},"properties":{"id":"way/121126504","name":"Unnamed site","fuel":"oil","source":"oil","method":"combustion","start":"1975"}},{"type":"Feature","geometry":{"type":"Point","coordinates":[27.88684,64.45544]},"properties":{"id":"way/121627356","name":"Leppikosken voimalaitos","fuel":"hydro","source":"hydro","method":"run-of-the-river","capacityMW":23,"operator":"Fortum","start":"1962"}},{"type":"Feature","geometry":{"type":"Point","coordinates":[22.14336,63.00762]},"properties":{"id":"way/125570500","name":"Hiirikosken Energia Oy","fuel":"hydro","source":"hydro"}},{"type":"Feature","geometry":{"type":"Point","coordinates":[25.41152,65.33426]},"properties":{"id":"way/126414180","name":"Raasakan voimalaitos","fuel":"hydro","source":"hydro","method":"run-of-the-river","capacityMW":64.3,"operator":"Pohjolan Voima"}},{"type":"Feature","geometry":{"type":"Point","coordinates":[26.01437,64.82067]},"properties":{"id":"way/126760134","name":"Montan voimalaitos","fuel":"hydro","source":"hydro","method":"run-of-the-river","capacityMW":47,"operator":"Fortum Oyj"}},{"type":"Feature","geometry":{"type":"Point","coordinates":[27.67678,63.08497]},"properties":{"id":"way/133370067","name":"Tiprusniemen lämpövoimalaitos","fuel":"bioenergy","source":"biomass","method":"combustion","capacityMW":10,"operator":"Savon Voima Oy"}},{"type":"Feature","geometry":{"type":"Point","coordinates":[25.07914,60.22632]},"properties":{"id":"way/134689531","name":"Myllypuron voimalalaitos","fuel":"other","start":"1962..1966"}},{"type":"Feature","geometry":{"type":"Point","coordinates":[25.57824,60.32064]},"properties":{"id":"way/136494011","name":"Tolkkisten kaasuturbiinilaitos","fuel":"gas","source":"gas","capacityMW":80,"operator":"Fingrid Oyj"}},{"type":"Feature","geometry":{"type":"Point","coordinates":[25.71087,62.2412]},"properties":{"id":"way/140505921","name":"Savelan Voimalaitos","fuel":"oil","source":"oil","operator":"Alva","start":"1974"}},{"type":"Feature","geometry":{"type":"Point","coordinates":[26.03915,64.84583]},"properties":{"id":"way/149965688","name":"Pyhäkosken vesivoimalaitos","fuel":"hydro","source":"hydro","method":"run-of-the-river","capacityMW":147,"operator":"Fortum","start":"1949"}},{"type":"Feature","geometry":{"type":"Point","coordinates":[23.61946,62.63004]},"properties":{"id":"way/152610076","name":"Karsinakosken voimala","fuel":"hydro","source":"hydro","method":"run-of-the-river"}},{"type":"Feature","geometry":{"type":"Point","coordinates":[25.2816,60.86394]},"properties":{"id":"way/153334613","name":"Vuokkoharjun biolämpölaitos","fuel":"bioenergy","source":"biomass"}},{"type":"Feature","geometry":{"type":"Point","coordinates":[27.40065,68.78225]},"properties":{"id":"way/154416761","name":"Voimala","fuel":"hydro","source":"hydro"}},{"type":"Feature","geometry":{"type":"Point","coordinates":[22.27723,60.50968]},"properties":{"id":"way/157153756","name":"Lentoaseman lämpökeskus","fuel":"oil","source":"oil","method":"combustion","operator":"Turku Energia"}},{"type":"Feature","geometry":{"type":"Point","coordinates":[26.2694,60.92632]},"properties":{"id":"way/159542313","name":"Mankalan voimalaitos","fuel":"hydro","source":"hydro","method":"run-of-the-river","capacityMW":27,"operator":"Helen","start":"1950"}},{"type":"Feature","geometry":{"type":"Point","coordinates":[24.84665,60.65249]},"properties":{"id":"way/160669795","name":"Hyvinkään Lämpövoima","fuel":"gas","source":"gas","method":"combustion"}},{"type":"Feature","geometry":{"type":"Point","coordinates":[25.19419,63.80851]},"properties":{"id":"way/162548628","name":"Oksavan voimalaitos","fuel":"hydro","source":"hydro","method":"run-of-the-river"}},{"type":"Feature","geometry":{"type":"Point","coordinates":[26.64869,60.90725]},"properties":{"id":"way/162690579","name":"Kuusankosken voimalaitos","fuel":"hydro","source":"hydro","method":"run-of-the-river","capacityMW":29.4,"operator":"UPM"}},{"type":"Feature","geometry":{"type":"Point","coordinates":[26.61396,60.87381]},"properties":{"id":"way/162950421","name":"Keltin voimalaitos","fuel":"hydro","source":"hydro","method":"run-of-the-river","capacityMW":17,"operator":"UPM","start":"1939-11"}},{"type":"Feature","geometry":{"type":"Point","coordinates":[22.81622,62.74078]},"properties":{"id":"way/167040166","name":"Seinäjoen voimalaitos","fuel":"bioenergy","source":"biomass","capacityMW":120,"operator":"Seinäjoen voima","start":"1990"}},{"type":"Feature","geometry":{"type":"Point","coordinates":[26.45107,60.49372]},"properties":{"id":"way/168775089","name":"Ahvenkosken vesivoimalaitos","fuel":"hydro","source":"hydro","method":"run-of-the-river","capacityMW":27,"operator":"Helen Oy"}},{"type":"Feature","geometry":{"type":"Point","coordinates":[26.81698,60.69838]},"properties":{"id":"way/168963124","name":"Vesivoimalaitos, Inkeroinen","fuel":"hydro","source":"hydro"}},{"type":"Feature","geometry":{"type":"Point","coordinates":[26.81383,60.6977]},"properties":{"id":"way/168963132","name":"Vesivoimalaitos, Anjala","fuel":"hydro","source":"hydro","method":"run-of-the-river","capacityMW":20}},{"type":"Feature","geometry":{"type":"Point","coordinates":[26.64148,61.06216]},"properties":{"id":"way/169072879","name":"Verlan voimalaitos","fuel":"hydro","source":"hydro","capacityMW":3,"operator":"KSS Energia Oy"}},{"type":"Feature","geometry":{"type":"Point","coordinates":[24.71407,65.9308]},"properties":{"id":"way/169899620","name":"Taivalkosken vesivoimalaitos","fuel":"hydro","source":"hydro","method":"run-of-the-river","capacityMW":133,"operator":"Kemijoki Oy","start":"1976"}},{"type":"Feature","geometry":{"type":"Point","coordinates":[26.66649,60.87287]},"properties":{"id":"way/172611512","name":"Hinkismäen maakaasuvoimalaitos","fuel":"gas","source":"gas","capacityMW":40,"operator":"KSS"}},{"type":"Feature","geometry":{"type":"Point","coordinates":[28.78382,61.21049]},"properties":{"id":"way/174170518","name":"Tainionkosken voimalaitos","fuel":"hydro","source":"hydro","method":"run-of-the-river","capacityMW":65,"operator":"Fortum","start":"1949"}},{"type":"Feature","geometry":{"type":"Point","coordinates":[30.49616,62.24917]},"properties":{"id":"way/176258772","name":"Saarion voimalaitos","fuel":"hydro","source":"hydro","method":"run-of-the-river","capacityMW":1.6,"operator":"Pohjois-Karjalan Sähkö Oy","start":"1984"}},{"type":"Feature","geometry":{"type":"Point","coordinates":[28.85204,64.83593]},"properties":{"id":"way/176491173","name":"Aittokosken voimalaitos","fuel":"hydro","source":"hydro","method":"run-of-the-river","capacityMW":45,"operator":"Fortum","start":"1960"}},{"type":"Feature","geometry":{"type":"Point","coordinates":[28.91486,64.87967]},"properties":{"id":"way/176511615","name":"Ämmän vesivoimalaitos","fuel":"hydro","source":"hydro","method":"run-of-the-river","capacityMW":16,"operator":"Fortum","start":"1959"}},{"type":"Feature","geometry":{"type":"Point","coordinates":[26.47771,64.73646]},"properties":{"id":"way/178126421","name":"Utasen voimalaitos","fuel":"hydro","source":"hydro","method":"run-of-the-river","capacityMW":58,"operator":"Fortum","start":"1957"}},{"type":"Feature","geometry":{"type":"Point","coordinates":[26.78086,64.57218]},"properties":{"id":"way/178199664","name":"Jylhämän voimalaitos","fuel":"hydro","source":"hydro","method":"run-of-the-river","capacityMW":55,"operator":"Fortum Oyj"}},{"type":"Feature","geometry":{"type":"Point","coordinates":[26.71283,64.5774]},"properties":{"id":"way/178199756","name":"Nuojuan voimalaitos","fuel":"hydro","source":"hydro","method":"run-of-the-river","capacityMW":85,"operator":"Fortum","start":"1955"}},{"type":"Feature","geometry":{"type":"Point","coordinates":[25.91191,65.3594]},"properties":{"id":"way/178848367","name":"Kierikin voimalaitos","fuel":"hydro","source":"hydro","method":"run-of-the-river","capacityMW":37.5,"operator":"Pohjolan Voima"}},{"type":"Feature","geometry":{"type":"Point","coordinates":[27.24425,60.96513]},"properties":{"id":"way/180784581","name":"Kannuskosken voimalaitos","fuel":"hydro","source":"hydro","capacityMW":0.25}},{"type":"Feature","geometry":{"type":"Point","coordinates":[25.94796,62.37583]},"properties":{"id":"way/180974536","name":"Kuhankosken voimalaitos","fuel":"hydro","source":"hydro","method":"water-storage","capacityMW":3.4}},{"type":"Feature","geometry":{"type":"Point","coordinates":[26.90801,60.53125]},"properties":{"id":"way/182995397","name":"Korkeakosken voimalaitos","fuel":"hydro","source":"hydro","capacityMW":10,"operator":"Kolsin Voima Oy","start":"1926"}},{"type":"Feature","geometry":{"type":"Point","coordinates":[27.69142,61.1991]},"properties":{"id":"way/190011889","name":"Lämpökeskus","fuel":"other","method":"combustion"}},{"type":"Feature","geometry":{"type":"Point","coordinates":[25.41438,64.12271]},"properties":{"id":"way/194462564","name":"Haapaveden voimalaitos","fuel":"bioenergy","source":"biomass;oil","capacityMW":160,"operator":"Kanteleen Voima"}},{"type":"Feature","geometry":{"type":"Point","coordinates":[25.13123,60.2608]},"properties":{"id":"way/207163568","name":"Vantaan Energian jätevoimala","fuel":"waste","source":"waste","method":"combustion","operator":"Vantaan Energia"}},{"type":"Feature","geometry":{"type":"Point","coordinates":[26.71273,61.09313]},"properties":{"id":"way/208411465","name":"Siikakosken voimala","fuel":"hydro","source":"hydro","capacityMW":1.8}},{"type":"Feature","geometry":{"type":"Point","coordinates":[26.32421,60.88676]},"properties":{"id":"way/213562316","name":"Kausalan Lämpö OY","fuel":"bioenergy","source":"biomass","method":"combustion"}},{"type":"Feature","geometry":{"type":"Point","coordinates":[25.67719,66.49536]},"properties":{"id":"way/215062206","name":"Suosiolan voimalaitos","fuel":"bioenergy","source":"biomass","method":"combustion","capacityMW":32,"operator":"Neve"}},{"type":"Feature","geometry":{"type":"Point","coordinates":[23.18654,61.66884]},"properties":{"id":"way/219387992","name":"Hämeenkyrön biovoimalaitos","fuel":"bioenergy","source":"biomass","capacityMW":12,"start":"2012"}},{"type":"Feature","geometry":{"type":"Point","coordinates":[26.34693,60.37027]},"properties":{"id":"way/225399990","name":"Loviisan ydinvoimalaitos","fuel":"nuclear","source":"nuclear","capacityMW":1014,"operator":"Fortum","start":"1977"}},{"type":"Feature","geometry":{"type":"Point","coordinates":[26.59494,67.45507]},"properties":{"id":"way/226433332","name":"Kelukosken voimalaitos","fuel":"hydro","source":"hydro","method":"run-of-the-river","capacityMW":11,"operator":"Kemijoki Oy","start":"2001"}},{"type":"Feature","geometry":{"type":"Point","coordinates":[27.05587,60.94043]},"properties":{"id":"way/233724868","name":"Unnamed site","fuel":"hydro","source":"hydro","method":"run-of-the-river"}},{"type":"Feature","geometry":{"type":"Point","coordinates":[24.71877,60.14962]},"properties":{"id":"way/236712763","name":"Suomenojan yhteistuotantolaitos","fuel":"coal","source":"coal;gas","capacityMW":359,"operator":"Fortum","start":"1977"}},{"type":"Feature","geometry":{"type":"Point","coordinates":[22.84636,61.32861]},"properties":{"id":"way/237985251","name":"Tyrvään voimalaitos","fuel":"hydro","source":"hydro","method":"water-storage","capacityMW":16.8}},{"type":"Feature","geometry":{"type":"Point","coordinates":[30.50029,62.21422]},"properties":{"id":"way/239455953","name":"Vääräkosken voimala","fuel":"hydro","source":"hydro","capacityMW":1.8,"operator":"Pohjois-Karjalan Sähkö Oy","start":"1992"}},{"type":"Feature","geometry":{"type":"Point","coordinates":[23.69948,63.55162]},"properties":{"id":"way/241289593","name":"Pirttikosken voimalaitos","fuel":"hydro","source":"hydro","method":"run-of-the-river","capacityMW":0.5,"operator":"Korpelan Voima","start":"1918"}},{"type":"Feature","geometry":{"type":"Point","coordinates":[24.55278,64.06936]},"properties":{"id":"way/244010628","name":"Ylivieskan voimalaitos","fuel":"other"}},{"type":"Feature","geometry":{"type":"Point","coordinates":[21.76992,63.1252]},"properties":{"id":"way/250022977","name":"Westenergy Oy Ab","fuel":"waste","source":"waste","method":"combustion","capacityMW":15,"operator":"Westenergy Oy Ab"}},{"type":"Feature","geometry":{"type":"Point","coordinates":[21.40556,61.63188]},"properties":{"id":"way/253861182","name":"Meri-Porin voimalaitos","fuel":"coal","source":"coal","method":"combustion","capacityMW":565,"operator":"Fortum"}},{"type":"Feature","geometry":{"type":"Point","coordinates":[24.93909,61.24972]},"properties":{"id":"way/257321790","name":"Porraskosken voimalaitos","fuel":"hydro","source":"hydro","method":"water-storage","capacityMW":0.002}},{"type":"Feature","geometry":{"type":"Point","coordinates":[26.183,61.07979]},"properties":{"id":"way/260656930","name":"Vuolenkosken voimalaitos","fuel":"hydro","source":"hydro","method":"run-of-the-river"}},{"type":"Feature","geometry":{"type":"Point","coordinates":[25.07947,60.22575]},"properties":{"id":"way/269023618","name":"Unnamed site","fuel":"other"}},{"type":"Feature","geometry":{"type":"Point","coordinates":[22.58027,62.72364]},"properties":{"id":"way/285868985","name":"Unnamed site","fuel":"other"}},{"type":"Feature","geometry":{"type":"Point","coordinates":[22.6923,60.50468]},"properties":{"id":"way/286678791","name":"Askalan vesivoimalaitos","fuel":"hydro","source":"hydro","method":"water-storage","capacityMW":1,"operator":"Koskienergia Oy","start":"1938"}},{"type":"Feature","geometry":{"type":"Point","coordinates":[21.82733,61.10087]},"properties":{"id":"way/300039022","name":"Unnamed site","fuel":"bioenergy","source":"biomass","operator":"Euran Energia Oy"}},{"type":"Feature","geometry":{"type":"Point","coordinates":[25.11442,60.36801]},"properties":{"id":"way/301709185","name":"Keravan lämpövoimalaitos","fuel":"bioenergy","source":"biomass"}},{"type":"Feature","geometry":{"type":"Point","coordinates":[22.4157,62.62153]},"properties":{"id":"way/305520720","name":"Kurikan kaukolämpö","fuel":"bioenergy","source":"biomass","method":"combustion"}},{"type":"Feature","geometry":{"type":"Point","coordinates":[25.13056,60.45533]},"properties":{"id":"way/310677351","name":"Järvenpään voimalaitos","fuel":"bioenergy","source":"biomass","method":"combustion"}},{"type":"Feature","geometry":{"type":"Point","coordinates":[21.55212,63.05631]},"properties":{"id":"way/311568288","name":"Unnamed site","fuel":"other"}},{"type":"Feature","geometry":{"type":"Point","coordinates":[23.43684,61.46331]},"properties":{"id":"way/324492601","name":"Melon vesivoimala","fuel":"hydro","source":"hydro","capacityMW":67.9,"operator":"Pohjolan voima"}},{"type":"Feature","geometry":{"type":"Point","coordinates":[21.97289,61.2243]},"properties":{"id":"way/340453272","name":"Sähkötehdas","fuel":"hydro","source":"hydro","operator":"Panelian Voima Oy","start":"1921"}},{"type":"Feature","geometry":{"type":"Point","coordinates":[22.53799,62.93959]},"properties":{"id":"way/343718361","name":"Unnamed site","fuel":"other"}},{"type":"Feature","geometry":{"type":"Point","coordinates":[24.9505,60.30469]},"properties":{"id":"way/351442845","name":"Unnamed site","fuel":"other"}},{"type":"Feature","geometry":{"type":"Point","coordinates":[26.74527,67.58473]},"properties":{"id":"way/355797494","name":"Matarakoski","fuel":"hydro","source":"hydro","method":"water-storage","capacityMW":11,"operator":"Kemijoki Oy","start":"1995"}},{"type":"Feature","geometry":{"type":"Point","coordinates":[29.87577,62.09491]},"properties":{"id":"way/357366748","name":"Unnamed site","fuel":"other"}},{"type":"Feature","geometry":{"type":"Point","coordinates":[30.13051,62.76966]},"properties":{"id":"way/358330647","name":"Kaltimon voimalaitos","fuel":"hydro","source":"hydro","capacityMW":32,"operator":"UPM-Kymmene","start":"1958"}},{"type":"Feature","geometry":{"type":"Point","coordinates":[24.42616,66.64698]},"properties":{"id":"way/362077002","name":"Kaaranneskosken voimalaitos","fuel":"hydro","source":"hydro","method":"run-of-the-river","capacityMW":3,"operator":"Tornionlaakson Voima","start":"1954"}},{"type":"Feature","geometry":{"type":"Point","coordinates":[28.41553,64.59229]},"properties":{"id":"way/363178753","name":"Seitenoikean vesivoimalaitos","fuel":"hydro","source":"hydro","method":"water-storage","capacityMW":39,"operator":"Fortum","start":"1961"}},{"type":"Feature","geometry":{"type":"Point","coordinates":[22.23806,60.43865]},"properties":{"id":"way/376638913","name":"Linnankadun öljylämpökeskus","fuel":"oil","source":"oil","method":"combustion"}},{"type":"Feature","geometry":{"type":"Point","coordinates":[29.10637,63.55193]},"properties":{"id":"way/386128468","name":"Unnamed site","fuel":"other","operator":"Nurmeksen Lämpö Oy"}},{"type":"Feature","geometry":{"type":"Point","coordinates":[22.11447,61.33827]},"properties":{"id":"way/391896477","name":"Harjavallan vesivoimalaitos","fuel":"hydro","source":"hydro","capacityMW":105,"operator":"Länsi-Suomen Voima","start":"1939"}},{"type":"Feature","geometry":{"type":"Point","coordinates":[27.32965,66.40539]},"properties":{"id":"way/399928466","name":"Seitakorvan vesivoimalaitos","fuel":"hydro","source":"hydro","method":"run-of-the-river","capacityMW":144,"operator":"Kemijoki Oy","start":"1963"}},{"type":"Feature","geometry":{"type":"Point","coordinates":[27.15119,66.33999]},"properties":{"id":"way/399958502","name":"Pirttikosken tunnelivoimalaitos","fuel":"hydro","source":"hydro","method":"run-of-the-river","capacityMW":152,"operator":"Kemijoki Oy","start":"1959"}},{"type":"Feature","geometry":{"type":"Point","coordinates":[30.46265,62.38232]},"properties":{"id":"way/400418403","name":"Vihtakosken voimalaitos","fuel":"hydro","source":"hydro","method":"run-of-the-river","capacityMW":1.4,"operator":"Pohjois-Karjalan Sähkö O","start":"1952"}},{"type":"Feature","geometry":{"type":"Point","coordinates":[26.12823,66.49222]},"properties":{"id":"way/401430829","name":"Permantokosken vesivoimalaitos","fuel":"hydro","source":"hydro","method":"run-of-the-river","capacityMW":13,"operator":"Kemijoki Oy","start":"1961"}},{"type":"Feature","geometry":{"type":"Point","coordinates":[25.12506,60.42255]},"properties":{"id":"way/403691685","name":"Keravan aurinkovoimala","fuel":"solar","source":"solar","method":"photovoltaic","operator":"Keravan Energia Oy","start":"2016"}},{"type":"Feature","geometry":{"type":"Point","coordinates":[22.15777,60.47129]},"properties":{"id":"way/414326531","name":"Kemppilän varalämpökeskus","fuel":"other"}},{"type":"Feature","geometry":{"type":"Point","coordinates":[26.86363,60.52268]},"properties":{"id":"way/424100905","name":"Koivukosken voimala","fuel":"hydro","source":"hydro","method":"run-of-the-river","capacityMW":1.9,"operator":"Kolsin Voima Oy","start":"1933"}},{"type":"Feature","geometry":{"type":"Point","coordinates":[26.86504,60.48346]},"properties":{"id":"way/424111810","name":"Karhuvuoren lämpökeskus","fuel":"oil","source":"oil","method":"combustion"}},{"type":"Feature","geometry":{"type":"Point","coordinates":[22.74961,60.17153]},"properties":{"id":"way/430333723","name":"Kemiön biolämpölaitos","fuel":"bioenergy","source":"biomass","method":"combustion","operator":"Kimitoöns Värme Ab"}},{"type":"Feature","geometry":{"type":"Point","coordinates":[29.83516,62.54375]},"properties":{"id":"way/430808056","name":"Unnamed site","fuel":"other"}},{"type":"Feature","geometry":{"type":"Point","coordinates":[23.06683,63.09175]},"properties":{"id":"way/433217747","name":"Kauhavan lämpölaitos","fuel":"bioenergy","source":"biomass","method":"combustion","operator":"Kauhavan Kaukolämpö","start":"2015-12"}},{"type":"Feature","geometry":{"type":"Point","coordinates":[26.68648,66.36963]},"properties":{"id":"way/435510883","name":"Vanttauskosken vesivoimalaitos","fuel":"hydro","source":"hydro","capacityMW":95,"operator":"Kemijoki Oy","start":"1972"}},{"type":"Feature","geometry":{"type":"Point","coordinates":[24.90525,60.16512]},"properties":{"id":"way/438003909","name":"Salmisaaren voimalaitos","fuel":"coal","source":"coal;biomass","capacityMW":160,"operator":"Helsingin Energia"}},{"type":"Feature","geometry":{"type":"Point","coordinates":[28.97356,64.09634]},"properties":{"id":"way/446720855","name":"Katerman voimalaitos","fuel":"hydro","source":"hydro","capacityMW":12.5,"start":"1950"}},{"type":"Feature","geometry":{"type":"Point","coordinates":[23.58951,60.09545]},"properties":{"id":"way/450589472","name":"Unnamed site","fuel":"hydro","source":"hydro"}},{"type":"Feature","geometry":{"type":"Point","coordinates":[30.44204,62.4269]},"properties":{"id":"way/452543204","name":"Ruskeakosken voimalaitos","fuel":"hydro","source":"hydro","method":"run-of-the-river","capacityMW":3.2,"operator":"Pohjois-Karjalan Sähkö Oy","start":"1957"}},{"type":"Feature","geometry":{"type":"Point","coordinates":[24.36813,61.68642]},"properties":{"id":"way/479893682","name":"Oriveden aluelämpö","fuel":"gas","source":"gas"}},{"type":"Feature","geometry":{"type":"Point","coordinates":[22.28563,60.42959]},"properties":{"id":"way/481072219","name":"Luolavuoren lämpökeskus","fuel":"other"}},{"type":"Feature","geometry":{"type":"Point","coordinates":[24.34999,61.67665]},"properties":{"id":"way/485334406","name":"Unnamed site","fuel":"other"}},{"type":"Feature","geometry":{"type":"Point","coordinates":[22.21279,60.49451]},"properties":{"id":"way/491420151","name":"Unnamed site","fuel":"other","method":"combustion"}},{"type":"Feature","geometry":{"type":"Point","coordinates":[24.30724,60.32437]},"properties":{"id":"way/491840787","name":"Nummelan lämpölaitos","fuel":"bioenergy","source":"biomass","method":"combustion","capacityMW":6,"operator":"Adven Oy","start":"2007"}},{"type":"Feature","geometry":{"type":"Point","coordinates":[28.17237,61.08112]},"properties":{"id":"way/492035550","name":"Mertaniemen voimalaitos","fuel":"gas","source":"gas","method":"combustion","capacityMW":193,"operator":"Lappeenrannan energia"}},{"type":"Feature","geometry":{"type":"Point","coordinates":[26.20543,65.32964]},"properties":{"id":"way/492134882","name":"Haapakosken voimalaitos","fuel":"hydro","source":"hydro","capacityMW":32.6,"operator":"Pohjolan Voima","start":"1963"}},{"type":"Feature","geometry":{"type":"Point","coordinates":[25.36846,60.43757]},"properties":{"id":"way/513673406","name":"Laukkosken vesivoimala","fuel":"hydro","source":"hydro","method":"run-of-the-river","operator":"Porvoon energia"}},{"type":"Feature","geometry":{"type":"Point","coordinates":[23.0528,63.84718]},"properties":{"id":"way/520418869","name":"Unnamed site","fuel":"bioenergy","source":"biomass","capacityMW":20,"operator":"Kokkolan Energia","start":"2001"}},{"type":"Feature","geometry":{"type":"Point","coordinates":[25.12536,66.15574]},"properties":{"id":"way/536134774","name":"Ossauskosken voimalaitos","fuel":"hydro","source":"hydro","capacityMW":124,"operator":"Kemijoki Oy"}},{"type":"Feature","geometry":{"type":"Point","coordinates":[25.33659,66.27145]},"properties":{"id":"way/536423593","name":"Petäjäskosken voimalaitos","fuel":"hydro","source":"hydro","method":"run-of-the-river","capacityMW":182,"operator":"Kemijoki Oy","start":"1957"}},{"type":"Feature","geometry":{"type":"Point","coordinates":[25.8717,64.33627]},"properties":{"id":"way/536949361","name":"Uljuan voimalaitos","fuel":"hydro","source":"hydro","method":"run-of-the-river","capacityMW":4,"operator":"Vattenfall"}},{"type":"Feature","geometry":{"type":"Point","coordinates":[26.19446,64.84348]},"properties":{"id":"way/543062352","name":"Pällin voimalaitos","fuel":"hydro","source":"hydro","method":"run-of-the-river","capacityMW":51,"operator":"Fortum","start":"1954"}},{"type":"Feature","geometry":{"type":"Point","coordinates":[26.45152,64.75092]},"properties":{"id":"way/543160809","name":"Ala-Utoksen voimalaitos","fuel":"hydro","source":"hydro","capacityMW":0.5,"operator":"Fortum"}},{"type":"Feature","geometry":{"type":"Point","coordinates":[25.69314,65.31077]},"properties":{"id":"way/543867032","name":"Maalismaan voimalaitos","fuel":"hydro","source":"hydro","capacityMW":38.6,"operator":"Pohjolan Voima","start":"1967"}},{"type":"Feature","geometry":{"type":"Point","coordinates":[23.62007,60.81608]},"properties":{"id":"way/545037811","name":"Forssan vesivoimala","fuel":"hydro","source":"hydro"}},{"type":"Feature","geometry":{"type":"Point","coordinates":[25.7493,60.80895]},"properties":{"id":"way/545191459","name":"Unnamed site","fuel":"other"}},{"type":"Feature","geometry":{"type":"Point","coordinates":[19.92566,60.10457]},"properties":{"id":"way/550296764","name":"Mariehamns Energi Ab","fuel":"other"}},{"type":"Feature","geometry":{"type":"Point","coordinates":[26.9535,66.32031]},"properties":{"id":"way/551855260","name":"Juotaksen voimalaitos","fuel":"hydro","source":"hydro","operator":"Koillislapin sähkö"}},{"type":"Feature","geometry":{"type":"Point","coordinates":[24.3596,60.03292]},"properties":{"id":"way/573525783","name":"Unnamed site","fuel":"other"}},{"type":"Feature","geometry":{"type":"Point","coordinates":[24.99169,60.22532]},"properties":{"id":"way/575707699","name":"Unnamed site","fuel":"solar","source":"solar","method":"photovoltaic","operator":"Helsingin seudun ympäristöpalvelut HSY","start":"2016-05-15"}},{"type":"Feature","geometry":{"type":"Point","coordinates":[28.84637,64.09324]},"properties":{"id":"way/575985843","name":"Kallioisen voimalaitos","fuel":"hydro","source":"hydro","capacityMW":13.5,"start":"1957"}},{"type":"Feature","geometry":{"type":"Point","coordinates":[24.37,61.66363]},"properties":{"id":"way/589771975","name":"Unnamed site","fuel":"other","operator":"Oriveden Aluelämpö"}},{"type":"Feature","geometry":{"type":"Point","coordinates":[27.67161,62.87826]},"properties":{"id":"way/592466728","name":"Haapaniemen voimalaitos","fuel":"bioenergy","source":"biomass","capacityMW":145,"operator":"Kuopion Energia","start":"1972"}},{"type":"Feature","geometry":{"type":"Point","coordinates":[22.60323,62.96318]},"properties":{"id":"way/604779416","name":"Unnamed site","fuel":"other"}},{"type":"Feature","geometry":{"type":"Point","coordinates":[29.69898,62.6268]},"properties":{"id":"way/609247381","name":"Noljakan lämpökeskus","fuel":"other","operator":"Fortum Power and Heat Oy"}},{"type":"Feature","geometry":{"type":"Point","coordinates":[22.1807,60.44875]},"properties":{"id":"way/628394099","name":"Artukaisten höyryntuotantolaitos","fuel":"other","source":"wood","method":"combustion","operator":"Turku Energia"}},{"type":"Feature","geometry":{"type":"Point","coordinates":[22.05483,60.45976]},"properties":{"id":"way/653307622","name":"Naantalin voimalaitos","fuel":"coal","source":"coal;biomass","method":"combustion","capacityMW":261,"operator":"Turun Seudun Energiatuotanto Oy"}},{"type":"Feature","geometry":{"type":"Point","coordinates":[27.85931,62.17008]},"properties":{"id":"way/653411342","name":"Unnamed site","fuel":"solar","source":"solar","method":"photovoltaic"}},{"type":"Feature","geometry":{"type":"Point","coordinates":[22.14117,60.45343]},"properties":{"id":"way/654534631","name":"Ankkurikylänkadun lämpökeskus","fuel":"oil","source":"oil","method":"combustion","operator":"Turku Energia"}},{"type":"Feature","geometry":{"type":"Point","coordinates":[28.61841,65.93899]},"properties":{"id":"way/654748197","name":"Soilun voimalaitos","fuel":"hydro","source":"hydro","method":"run-of-the-river","capacityMW":1.8,"operator":"Koskienergia Oy","start":"1960"}},{"type":"Feature","geometry":{"type":"Point","coordinates":[23.97492,60.18167]},"properties":{"id":"way/659348445","name":"Kirkniemen aurinkopuisto","fuel":"solar","source":"solar","method":"photovoltaic","capacityMW":6.8,"operator":"Helen","start":"2024-12"}},{"type":"Feature","geometry":{"type":"Point","coordinates":[25.73518,62.59852]},"properties":{"id":"way/659547196","name":"Unnamed site","fuel":"hydro","source":"hydro"}},{"type":"Feature","geometry":{"type":"Point","coordinates":[22.20497,60.46338]},"properties":{"id":"way/666599056","name":"Härkämäen lämpökeskus","fuel":"oil","source":"oil","method":"combustion","capacityMW":40,"operator":"Turku Energia"}},{"type":"Feature","geometry":{"type":"Point","coordinates":[29.78324,62.58817]},"properties":{"id":"way/670783564","name":"Nepenmäen lämpökeskus","fuel":"oil","source":"oil","method":"combustion","operator":"Savon Voima Oyj","start":"2015"}},{"type":"Feature","geometry":{"type":"Point","coordinates":[22.36445,60.44456]},"properties":{"id":"way/677369714","name":"Varissuon Lämpö","fuel":"other"}},{"type":"Feature","geometry":{"type":"Point","coordinates":[23.0749,60.8588]},"properties":{"id":"way/689211250","name":"Aurinkopuisto","fuel":"solar","source":"solar","operator":"Sallila Energia Oy","start":"2016-07"}},{"type":"Feature","geometry":{"type":"Point","coordinates":[21.9955,63.05132]},"properties":{"id":"way/689252437","name":"Unnamed site","fuel":"other"}},{"type":"Feature","geometry":{"type":"Point","coordinates":[22.00507,63.04987]},"properties":{"id":"way/689252441","name":"Unnamed site","fuel":"other"}},{"type":"Feature","geometry":{"type":"Point","coordinates":[21.99516,63.04243]},"properties":{"id":"way/689252442","name":"Unnamed site","fuel":"other"}},{"type":"Feature","geometry":{"type":"Point","coordinates":[22.00091,63.04022]},"properties":{"id":"way/689252443","name":"Unnamed site","fuel":"other"}},{"type":"Feature","geometry":{"type":"Point","coordinates":[22.01674,63.04149]},"properties":{"id":"way/689252444","name":"Unnamed site","fuel":"other"}},{"type":"Feature","geometry":{"type":"Point","coordinates":[22.01476,63.03786]},"properties":{"id":"way/689397033","name":"Unnamed site","fuel":"other"}},{"type":"Feature","geometry":{"type":"Point","coordinates":[25.50783,65.03231]},"properties":{"id":"way/696687657","name":"Laanilan lämpökeskus","fuel":"other"}},{"type":"Feature","geometry":{"type":"Point","coordinates":[29.87422,62.70503]},"properties":{"id":"way/697810350","name":"Kuurnan voimala","fuel":"hydro","source":"hydro","capacityMW":18,"operator":"PKS","start":"1971"}},{"type":"Feature","geometry":{"type":"Point","coordinates":[25.41574,65.01142]},"properties":{"id":"way/698659918","name":"Oomi Vihreäsaari 1","fuel":"solar","source":"solar","method":"photovoltaic"}},{"type":"Feature","geometry":{"type":"Point","coordinates":[27.72996,64.2294]},"properties":{"id":"way/705583057","name":"Unnamed site","fuel":"hydro","source":"hydro"}},{"type":"Feature","geometry":{"type":"Point","coordinates":[22.89251,60.93838]},"properties":{"id":"way/716042407","name":"Vuolteen voimalaitos","fuel":"hydro","source":"hydro","operator":"Sallila Energia"}},{"type":"Feature","geometry":{"type":"Point","coordinates":[25.8042,62.28501]},"properties":{"id":"way/717614041","name":"Unnamed site","fuel":"other"}},{"type":"Feature","geometry":{"type":"Point","coordinates":[23.56435,60.80329]},"properties":{"id":"way/719029523","name":"Forssan varavoimalaitos","fuel":"oil","source":"oil","method":"combustion","capacityMW":320,"operator":"Fingrid"}},{"type":"Feature","geometry":{"type":"Point","coordinates":[23.13859,62.95019]},"properties":{"id":"way/733398179","name":"Hourunkosken voimalaitos","fuel":"hydro","source":"hydro","capacityMW":0.6,"operator":"Koskienergia"}},{"type":"Feature","geometry":{"type":"Point","coordinates":[27.6899,62.84118]},"properties":{"id":"way/743390962","name":"Rautaniemen lämpökeskus","fuel":"oil","source":"oil","method":"combustion","capacityMW":40,"operator":"Kuopion Energia Oy","start":"~2008"}},{"type":"Feature","geometry":{"type":"Point","coordinates":[27.63508,62.88926]},"properties":{"id":"way/744376572","name":"Iloharjun lämpökeskus","fuel":"oil","source":"oil","method":"combustion","capacityMW":80,"operator":"Kuopion Energia Oy"}},{"type":"Feature","geometry":{"type":"Point","coordinates":[24.67372,66.64856]},"properties":{"id":"way/750463028","name":"Jolmankosken voimalaitos","fuel":"hydro","source":"hydro","method":"run-of-the-river","capacityMW":0.5,"operator":"Tornionlaakson Voima","start":"1955"}},{"type":"Feature","geometry":{"type":"Point","coordinates":[22.40812,61.8065]},"properties":{"id":"way/753424610","name":"Unnamed site","fuel":"other"}},{"type":"Feature","geometry":{"type":"Point","coordinates":[29.55563,66.15604]},"properties":{"id":"way/758551069","name":"Myllykosken voimala","fuel":"hydro","source":"hydro","method":"run-of-the-river"}},{"type":"Feature","geometry":{"type":"Point","coordinates":[24.53672,60.23216]},"properties":{"id":"way/759531498","name":"Unnamed site","fuel":"other"}},{"type":"Feature","geometry":{"type":"Point","coordinates":[23.71706,63.55291]},"properties":{"id":"way/768088971","name":"Unnamed site","fuel":"other"}},{"type":"Feature","geometry":{"type":"Point","coordinates":[24.54711,60.23771]},"properties":{"id":"way/770591751","name":"Unnamed site","fuel":"waste","source":"waste","method":"combustion"}},{"type":"Feature","geometry":{"type":"Point","coordinates":[29.03132,62.74078]},"properties":{"id":"way/772913746","name":"Miilun lämpökeskus","fuel":"bioenergy","source":"biomass","method":"combustion","operator":"Outokummun Energia Oy"}},{"type":"Feature","geometry":{"type":"Point","coordinates":[24.01665,61.15981]},"properties":{"id":"way/795240329","name":"Unnamed site","fuel":"bioenergy","source":"biomass","method":"combustion"}},{"type":"Feature","geometry":{"type":"Point","coordinates":[23.07342,63.86613]},"properties":{"id":"way/799348327","name":"Unnamed site","fuel":"wind_offshore","source":"wind","method":"wind_turbine"}},{"type":"Feature","geometry":{"type":"Point","coordinates":[23.05895,63.87171]},"properties":{"id":"way/799348330","name":"Unnamed site","fuel":"wind_offshore","source":"wind","method":"wind_turbine"}},{"type":"Feature","geometry":{"type":"Point","coordinates":[23.07221,63.85679]},"properties":{"id":"way/799348335","name":"Unnamed site","fuel":"wind_offshore","source":"wind","method":"wind_turbine"}},{"type":"Feature","geometry":{"type":"Point","coordinates":[28.83403,61.87713]},"properties":{"id":"way/804147353","name":"Biolämpölaitos","fuel":"bioenergy","source":"biomass","method":"combustion","operator":"Suur-Savon Sähkö"}},{"type":"Feature","geometry":{"type":"Point","coordinates":[27.67281,63.06815]},"properties":{"id":"way/821629508","name":"Risuharjun varatuotantolaitos","fuel":"oil","source":"oil","method":"combustion"}},{"type":"Feature","geometry":{"type":"Point","coordinates":[27.68504,63.07025]},"properties":{"id":"way/821961549","name":"Leppäkaarteen varatuotantolaitos","fuel":"oil","source":"oil","method":"combustion"}},{"type":"Feature","geometry":{"type":"Point","coordinates":[27.72991,64.22943]},"properties":{"id":"way/828152690","name":"Ämmäkosken voimalaitos","fuel":"hydro","source":"hydro","method":"water-storage","capacityMW":4.9,"operator":"Kainuun Voima Oy","start":"1917"}},{"type":"Feature","geometry":{"type":"Point","coordinates":[22.95083,60.69224]},"properties":{"id":"way/831714526","name":"Unnamed site","fuel":"solar","source":"solar","method":"photovoltaic","capacityMW":0.018}},{"type":"Feature","geometry":{"type":"Point","coordinates":[24.79692,60.17812]},"properties":{"id":"way/832573393","name":"Tapiolan lämpökeskus","fuel":"gas","source":"gas;oil","method":"combustion","operator":"Fortum Power and Heat Oy"}},{"type":"Feature","geometry":{"type":"Point","coordinates":[25.01302,60.7506]},"properties":{"id":"way/837509346","name":"Kalliomäen tunnelivesivoimalaitos (Päijänne-tunneli)","fuel":"hydro","source":"hydro","capacityMW":0.83,"start":"1982"}},{"type":"Feature","geometry":{"type":"Point","coordinates":[24.62957,60.16028]},"properties":{"id":"way/841378943","name":"Fortum Kivenlahden lämpölaitos","fuel":"bioenergy","source":"biomass","method":"combustion","operator":"Fortum"}},{"type":"Feature","geometry":{"type":"Point","coordinates":[23.78744,61.36255]},"properties":{"id":"way/844854075","name":"LEMENE aurinkovoimala","fuel":"solar","source":"solar","method":"photovoltaic","capacityMW":2,"operator":"Lempäälän Energia Oy","start":"2019"}},{"type":"Feature","geometry":{"type":"Point","coordinates":[27.6356,62.8889]},"properties":{"id":"way/850542212","name":"Iloharjun aurinkolämpövoimala","fuel":"solar","source":"solar","method":"thermal","capacityMW":0.1,"operator":"Kuopion Energia Oy"}},{"type":"Feature","geometry":{"type":"Point","coordinates":[25.69692,62.27829]},"properties":{"id":"way/852150819","name":"Unnamed site","fuel":"solar","source":"solar","method":"photovoltaic","operator":"Savulahden päiväkotikoulu"}},{"type":"Feature","geometry":{"type":"Point","coordinates":[25.69591,62.27872]},"properties":{"id":"way/852150820","name":"Unnamed site","fuel":"solar","source":"solar","method":"photovoltaic","operator":"Savulahden päiväkotikoulu"}},{"type":"Feature","geometry":{"type":"Point","coordinates":[22.70331,60.5396]},"properties":{"id":"way/860002370","name":"Juntolankosken voimalaitos","fuel":"hydro","source":"hydro","method":"water-storage","capacityMW":1,"operator":"Koskienergia Oy","start":"1920"}},{"type":"Feature","geometry":{"type":"Point","coordinates":[26.52538,60.53055]},"properties":{"id":"way/879455054","name":"Klåsarön voimalaitos","fuel":"hydro","source":"hydro","capacityMW":4,"operator":"Helen Oy"}},{"type":"Feature","geometry":{"type":"Point","coordinates":[22.70153,63.70478]},"properties":{"id":"way/879899717","name":"Alholmens Kraft","fuel":"bioenergy","source":"biomass;coal","capacityMW":265,"operator":"Alholmens Kraft","start":"1991"}},{"type":"Feature","geometry":{"type":"Point","coordinates":[29.83651,62.59315]},"properties":{"id":"way/880258289","name":"Joensuun voimalaitos","fuel":"bioenergy","source":"biomass","capacityMW":50,"operator":"Savon voima"}},{"type":"Feature","geometry":{"type":"Point","coordinates":[21.55718,61.57456]},"properties":{"id":"way/881050113","name":"Porin Prosessivoima","fuel":"bioenergy","source":"biomass;gas;coal","capacityMW":65,"operator":"Pori Energia","start":"2008"}},{"type":"Feature","geometry":{"type":"Point","coordinates":[21.47909,61.11812]},"properties":{"id":"way/881060128","name":"Rauman Biovoiman voimalaitos","fuel":"bioenergy","source":"biomass","capacityMW":65,"operator":"Rauman biovoima","start":"2006"}},{"type":"Feature","geometry":{"type":"Point","coordinates":[23.04669,63.85927]},"properties":{"id":"way/881093815","name":"Unnamed site","fuel":"bioenergy","source":"biomass","capacityMW":30,"operator":"Kokkolan Energia","start":"1962"}},{"type":"Feature","geometry":{"type":"Point","coordinates":[21.4483,61.23952]},"properties":{"id":"way/882044995","name":"Olkiluodon varavoimalaitos","fuel":"oil","source":"oil","method":"combustion","capacityMW":100.5,"operator":"Fingrid"}},{"type":"Feature","geometry":{"type":"Point","coordinates":[22.35545,61.27334]},"properties":{"id":"way/883863659","name":"Kolsin voimalaitos","fuel":"hydro","source":"hydro","method":"run-of-the-river","capacityMW":45,"start":"1945"}},{"type":"Feature","geometry":{"type":"Point","coordinates":[25.45889,64.99768]},"properties":{"id":"way/884091913","name":"Limingantullin lämpökeskus","fuel":"other"}},{"type":"Feature","geometry":{"type":"Point","coordinates":[21.83519,60.69001]},"properties":{"id":"way/886556935","name":"Korvensuunkosken voimalaitos","fuel":"hydro","source":"hydro"}},{"type":"Feature","geometry":{"type":"Point","coordinates":[23.9711,61.54182]},"properties":{"id":"way/893187155","name":"Tammervoiman hyötyvoimalaitos","fuel":"waste","source":"waste","method":"combustion","capacityMW":12,"operator":"Tammervoima Oy"}},{"type":"Feature","geometry":{"type":"Point","coordinates":[25.73538,62.1931]},"properties":{"id":"way/906111983","name":"Keljonlahden voimalaitos","fuel":"bioenergy","source":"biomass;peat","method":"combustion","capacityMW":190,"operator":"Jyväskylän Voima Oy"}},{"type":"Feature","geometry":{"type":"Point","coordinates":[30.13812,63.32625]},"properties":{"id":"way/906669060","name":"Pankakoski","fuel":"hydro","source":"hydro","method":"run-of-the-river","capacityMW":15.6,"operator":"Kemijoki","start":"1964"}},{"type":"Feature","geometry":{"type":"Point","coordinates":[23.03563,62.80972]},"properties":{"id":"way/914450358","name":"Hirvikosken voimalaitos","fuel":"hydro","source":"hydro","method":"water-storage","capacityMW":8,"operator":"Vattenfall","start":"1973"}},{"type":"Feature","geometry":{"type":"Point","coordinates":[22.41184,62.58501]},"properties":{"id":"way/914514490","name":"Pitkämön voimalaitos","fuel":"hydro","source":"hydro","method":"water-storage","capacityMW":6,"operator":"Koskienergia Koskivoima Oy","start":"1970"}},{"type":"Feature","geometry":{"type":"Point","coordinates":[22.81862,62.77024]},"properties":{"id":"way/914514494","name":"Kyrkösjärven voimalaitos","fuel":"hydro","source":"hydro","method":"water-storage","capacityMW":6,"operator":"Seinäjoen Energia Oy","start":"1982"}},{"type":"Feature","geometry":{"type":"Point","coordinates":[23.0924,62.55082]},"properties":{"id":"way/914514497","name":"Kalajärven voimalaitos","fuel":"hydro","source":"hydro","method":"water-storage","capacityMW":1,"operator":"Seinäjoen Energia","start":"1978"}},{"type":"Feature","geometry":{"type":"Point","coordinates":[23.40149,63.69409]},"properties":{"id":"way/915637823","name":"Kaitfors kraftverk","fuel":"hydro","source":"hydro","method":"water-storage","capacityMW":7.5,"operator":"Herrfors","start":"1983"}},{"type":"Feature","geometry":{"type":"Point","coordinates":[23.13973,63.10912]},"properties":{"id":"way/915810331","name":"Jylhänkosken voimalaitos","fuel":"hydro","source":"hydro","method":"run-of-the-river","capacityMW":0.3,"operator":"Jylhän sähköosuuskunta","start":"1996"}},{"type":"Feature","geometry":{"type":"Point","coordinates":[23.94453,60.18991]},"properties":{"id":"way/919933263","name":"Sappi Kirkniemi Power Station","fuel":"other"}},{"type":"Feature","geometry":{"type":"Point","coordinates":[22.23249,60.45155]},"properties":{"id":"way/921314077","name":"Unnamed site","fuel":"oil","source":"oil","method":"combustion"}},{"type":"Feature","geometry":{"type":"Point","coordinates":[28.23677,61.06593]},"properties":{"id":"way/921472261","name":"Kaukaan Voima (KauVo)","fuel":"bioenergy","source":"biomass","capacityMW":125}},{"type":"Feature","geometry":{"type":"Point","coordinates":[27.23058,61.672]},"properties":{"id":"way/922900918","name":"Unnamed site","fuel":"solar","source":"solar","method":"photovoltaic"}},{"type":"Feature","geometry":{"type":"Point","coordinates":[22.52861,63.52543]},"properties":{"id":"way/923531006","name":"Stadsforsens kraftverk","fuel":"hydro","source":"hydro","method":"run-of-the-river","capacityMW":4.5,"operator":"Nykarleby Kraftverk Ab","start":"1926"}},{"type":"Feature","geometry":{"type":"Point","coordinates":[24.63234,62.02635]},"properties":{"id":"way/928660613","name":"Mäntänkosken voimalaitos","fuel":"hydro","source":"hydro","capacityMW":1.5}},{"type":"Feature","geometry":{"type":"Point","coordinates":[23.8826,62.40201]},"properties":{"id":"way/928807756","name":"Killinkosken voimalaitos","fuel":"hydro","source":"hydro","method":"run-of-the-river","capacityMW":4.5,"operator":"Killin Voima","start":"1972"}},{"type":"Feature","geometry":{"type":"Point","coordinates":[25.57138,60.99424]},"properties":{"id":"way/928810756","name":"Keskussairaalan lämpökeskus","fuel":"gas","source":"gas","method":"combustion","capacityMW":3,"operator":"Lahti Energia Oy"}},{"type":"Feature","geometry":{"type":"Point","coordinates":[25.63113,60.93115]},"properties":{"id":"way/930236050","name":"Unnamed site","fuel":"other"}},{"type":"Feature","geometry":{"type":"Point","coordinates":[25.89196,60.48398]},"properties":{"id":"way/931477407","name":"Unnamed site","fuel":"solar","source":"solar","method":"photovoltaic"}},{"type":"Feature","geometry":{"type":"Point","coordinates":[24.89844,60.26337]},"properties":{"id":"way/931574217","name":"Unnamed site","fuel":"solar","source":"solar","method":"photovoltaic"}},{"type":"Feature","geometry":{"type":"Point","coordinates":[25.92794,61.54105]},"properties":{"id":"way/939325678","name":"Unnamed site","fuel":"hydro","source":"hydro"}},{"type":"Feature","geometry":{"type":"Point","coordinates":[25.57514,62.59931]},"properties":{"id":"way/939530811","name":"Hietamankosken voimalaitos","fuel":"hydro","source":"hydro","capacityMW":7,"operator":"Vattenfall Oy"}},{"type":"Feature","geometry":{"type":"Point","coordinates":[22.2407,61.92323]},"properties":{"id":"way/942397556","name":"Unnamed site","fuel":"hydro","source":"hydro"}},{"type":"Feature","geometry":{"type":"Point","coordinates":[24.92187,64.75203]},"properties":{"id":"way/942397557","name":"Pöyryn voimala","fuel":"hydro","source":"hydro"}},{"type":"Feature","geometry":{"type":"Point","coordinates":[27.64257,62.85165]},"properties":{"id":"way/947374800","name":"Jynkän lämpökeskus","fuel":"oil","source":"oil","method":"combustion","capacityMW":24,"operator":"Kuopion Energia Oy"}},{"type":"Feature","geometry":{"type":"Point","coordinates":[24.99343,63.92244]},"properties":{"id":"way/949663788","name":"Nivalan Kaukolämpö","fuel":"bioenergy","source":"biomass","method":"combustion","capacityMW":45,"operator":"Nivalan Kaukolämpö Oy"}},{"type":"Feature","geometry":{"type":"Point","coordinates":[25.33492,63.06288]},"properties":{"id":"way/966709213","name":"Hilmon voimalaitos","fuel":"hydro","source":"hydro","capacityMW":6,"operator":"Vattenfall Oy","start":"1957"}},{"type":"Feature","geometry":{"type":"Point","coordinates":[22.29318,60.49293]},"properties":{"id":"way/969296677","name":"Kärsämäen lämpökeskus","fuel":"oil","source":"oil","method":"combustion","operator":"Turku Energia"}},{"type":"Feature","geometry":{"type":"Point","coordinates":[24.75955,60.53783]},"properties":{"id":"way/974976624","name":"Anora-yhtiöiden voimalaitos","fuel":"other"}},{"type":"Feature","geometry":{"type":"Point","coordinates":[26.74939,61.62417]},"properties":{"id":"way/983687376","name":"Kissakosken vesivoimalaitos","fuel":"hydro","source":"hydro","method":"run-of-the-river","capacityMW":1.6,"operator":"Suur-Savon Sähkö"}},{"type":"Feature","geometry":{"type":"Point","coordinates":[26.82914,62.62593]},"properties":{"id":"way/987119926","name":"Lämpövoimala","fuel":"other","source":"wood","operator":"Savon Voima Oy"}},{"type":"Feature","geometry":{"type":"Point","coordinates":[26.82653,62.63379]},"properties":{"id":"way/989280880","name":"Unnamed site","fuel":"other","operator":"Savon Voima"}},{"type":"Feature","geometry":{"type":"Point","coordinates":[26.83695,62.62042]},"properties":{"id":"way/989391460","name":"Kaukolämpölaitos","fuel":"oil","source":"oil","method":"combustion","operator":"Savon Voima"}},{"type":"Feature","geometry":{"type":"Point","coordinates":[25.92333,63.80408]},"properties":{"id":"way/991446232","name":"Vesikoski","fuel":"hydro","source":"hydro"}},{"type":"Feature","geometry":{"type":"Point","coordinates":[23.94473,60.18994]},"properties":{"id":"way/992054271","name":"Unnamed site","fuel":"coal","source":"coal","method":"combustion"}},{"type":"Feature","geometry":{"type":"Point","coordinates":[21.40819,61.63364]},"properties":{"id":"way/999888627","name":"Fingrid Tahkoluoto","fuel":"oil","source":"oil","method":"combustion"}},{"type":"Feature","geometry":{"type":"Point","coordinates":[25.70388,62.25393]},"properties":{"id":"way/1021852428","name":"Unnamed site","fuel":"other"}},{"type":"Feature","geometry":{"type":"Point","coordinates":[27.83897,63.82807]},"properties":{"id":"way/1035669301","name":"Kiltua","fuel":"hydro","source":"hydro","method":"run-of-the-river","capacityMW":5.6,"start":"1982"}},{"type":"Feature","geometry":{"type":"Point","coordinates":[23.78393,66.37858]},"properties":{"id":"way/1044077668","name":"Portimokosken voimalaitos","fuel":"hydro","source":"hydro","capacityMW":10.5,"start":"1987"}},{"type":"Feature","geometry":{"type":"Point","coordinates":[27.98802,63.37251]},"properties":{"id":"way/1053396309","name":"Unnamed site","fuel":"hydro","source":"hydro"}},{"type":"Feature","geometry":{"type":"Point","coordinates":[27.16005,60.55794]},"properties":{"id":"way/1055208355","name":"Poitzintien kaukolämpölaitos","fuel":"bioenergy","source":"biomass","method":"combustion","capacityMW":4,"operator":"Haminan Energia Oy","start":"2019"}},{"type":"Feature","geometry":{"type":"Point","coordinates":[25.72022,60.9905]},"properties":{"id":"way/1056767012","name":"Kymijärvi III","fuel":"bioenergy","source":"biomass","method":"combustion","operator":"Lahti Energia","start":"2019"}},{"type":"Feature","geometry":{"type":"Point","coordinates":[24.23474,60.5197]},"properties":{"id":"way/1069014877","name":"Puhdistamontien lämpölaitos","fuel":"bioenergy","source":"biomass","method":"combustion","capacityMW":15.4,"operator":"Vapo Oy","start":"2004"}},{"type":"Feature","geometry":{"type":"Point","coordinates":[24.22683,60.53925]},"properties":{"id":"way/1069014880","name":"Huhdintien varavoimalaitos","fuel":"oil","source":"oil","method":"combustion","capacityMW":8.9,"operator":"Vapo Oy","start":"2003"}},{"type":"Feature","geometry":{"type":"Point","coordinates":[23.79687,63.00385]},"properties":{"id":"way/1072279622","name":"Alajärven Lämpö Oy","fuel":"other","operator":"Alajärven Lämpö Oy"}},{"type":"Feature","geometry":{"type":"Point","coordinates":[23.79797,63.00336]},"properties":{"id":"way/1072279635","name":"Biolämpökeskus","fuel":"bioenergy","source":"biomass","method":"combustion","capacityMW":8,"operator":"Alajärven Lämpö Oy","start":"2017"}},{"type":"Feature","geometry":{"type":"Point","coordinates":[22.16458,61.10736]},"properties":{"id":"way/1076835777","name":"Kauttuan voimalaitos","fuel":"bioenergy","source":"biomass","capacityMW":14,"operator":"Adven"}},{"type":"Feature","geometry":{"type":"Point","coordinates":[27.66245,62.89492]},"properties":{"id":"way/1080051819","name":"Niiralan lämpökeskus","fuel":"oil","source":"oil","method":"combustion","operator":"Kuopion Energia Oy"}},{"type":"Feature","geometry":{"type":"Point","coordinates":[25.32484,62.28112]},"properties":{"id":"way/1080449994","name":"Unnamed site","fuel":"hydro","source":"hydro"}},{"type":"Feature","geometry":{"type":"Point","coordinates":[25.52438,60.30375]},"properties":{"id":"way/1094640663","name":"Kilpilahden voimalaitos","fuel":"other","method":"combustion"}},{"type":"Feature","geometry":{"type":"Point","coordinates":[25.52981,63.04709]},"properties":{"id":"way/1106075495","name":"Huopanankosken voimalaitos","fuel":"hydro","source":"hydro","method":"run-of-the-river","capacityMW":0.3,"operator":"Koskienergia Oy"}},{"type":"Feature","geometry":{"type":"Point","coordinates":[28.31593,62.12061]},"properties":{"id":"way/1106873328","name":"Unnamed site","fuel":"solar","source":"solar","method":"photovoltaic"}},{"type":"Feature","geometry":{"type":"Point","coordinates":[27.5267,62.82676]},"properties":{"id":"way/1118934134","name":"Kuopion biokaasulaitos","fuel":"bioenergy","source":"biogas","method":"anaerobic_digestion","operator":"Gasum Oy"}},{"type":"Feature","geometry":{"type":"Point","coordinates":[27.5217,62.83172]},"properties":{"id":"way/1118934139","name":"Jätekukon aurinkovoimala","fuel":"solar","source":"solar","method":"photovoltaic","capacityMW":0.109,"operator":"Jätekukko Oy"}},{"type":"Feature","geometry":{"type":"Point","coordinates":[27.59917,62.84388]},"properties":{"id":"way/1119588234","name":"Unnamed site","fuel":"solar","source":"solar","method":"photovoltaic","operator":"Kalavapriikki Oy","start":"2018"}},{"type":"Feature","geometry":{"type":"Point","coordinates":[22.3359,60.48519]},"properties":{"id":"way/1119609003","name":"Topinojan biokaasulaitos","fuel":"bioenergy","source":"biomass","operator":"Gasum Oy","start":"2009"}},{"type":"Feature","geometry":{"type":"Point","coordinates":[24.04316,62.52318]},"properties":{"id":"way/1119990404","name":"Ala-Vääräkosken voimalaitos","fuel":"hydro","source":"hydro"}},{"type":"Feature","geometry":{"type":"Point","coordinates":[25.63059,60.95523]},"properties":{"id":"way/1124942121","name":"Unnamed site","fuel":"solar","source":"solar","method":"photovoltaic"}},{"type":"Feature","geometry":{"type":"Point","coordinates":[22.84717,63.24775]},"properties":{"id":"way/1125221352","name":"Alahärmän kaukolämpölaitos","fuel":"bioenergy","source":"biomass","method":"combustion","operator":"Kauhavan Kaukolämpö Oy"}},{"type":"Feature","geometry":{"type":"Point","coordinates":[28.8664,61.24909]},"properties":{"id":"way/1127584182","name":"Stora Enso Imatran Kaukopää Power Station","fuel":"other"}},{"type":"Feature","geometry":{"type":"Point","coordinates":[26.82141,60.70845]},"properties":{"id":"way/1127844257","name":"Stora Enso Anjalankoski Mill Power Station","fuel":"other"}},{"type":"Feature","geometry":{"type":"Point","coordinates":[22.71127,63.70015]},"properties":{"id":"way/1129660868","name":"UPM-Kymmene Wisapower Biomass Power Station","fuel":"bioenergy","source":"biomass"}},{"type":"Feature","geometry":{"type":"Point","coordinates":[26.66794,60.90747]},"properties":{"id":"way/1138914100","name":"UPM Kymi Mill (Kuusankoski PVO) Power Station","fuel":"bioenergy","source":"biomass"}},{"type":"Feature","geometry":{"type":"Point","coordinates":[30.22236,62.9234]},"properties":{"id":"way/1143662579","name":"Uimaharju Enocell Mill Power Station","fuel":"bioenergy","source":"biomass"}},{"type":"Feature","geometry":{"type":"Point","coordinates":[26.95639,60.466]},"properties":{"id":"way/1144928512","name":"Kotkamills Power Station","fuel":"bioenergy","source":"biomass"}},{"type":"Feature","geometry":{"type":"Point","coordinates":[22.75976,60.57576]},"properties":{"id":"way/1155919023","name":"Juvan voimalaitos","fuel":"hydro","source":"hydro","method":"water-storage","capacityMW":1.3,"operator":"Koskienergia Oy","start":"1916"}},{"type":"Feature","geometry":{"type":"Point","coordinates":[23.96108,64.26235]},"properties":{"id":"way/1160065608","name":"Unnamed site","fuel":"other","operator":"Kalajoen Lämpö"}},{"type":"Feature","geometry":{"type":"Point","coordinates":[26.75032,67.961]},"properties":{"id":"way/1160854001","name":"Porttipahdan voimalaitos","fuel":"hydro","source":"hydro","method":"water-storage","capacityMW":40.5,"operator":"Kemijoki Oy","start":"1981"}},{"type":"Feature","geometry":{"type":"Point","coordinates":[26.71393,67.85772]},"properties":{"id":"way/1160854005","name":"Kurittukosken voimalaitos","fuel":"hydro","source":"hydro","method":"run-of-the-river","capacityMW":15,"operator":"Kemijoki Oy","start":"1987"}},{"type":"Feature","geometry":{"type":"Point","coordinates":[26.80353,67.69492]},"properties":{"id":"way/1161059324","name":"Vajukosken voimalaitos","fuel":"hydro","source":"hydro","method":"water-storage","capacityMW":21,"operator":"Kemijoki Oy"}},{"type":"Feature","geometry":{"type":"Point","coordinates":[27.32165,67.2234]},"properties":{"id":"way/1161471361","name":"Kokkosnivan voimalaitos","fuel":"hydro","source":"hydro","method":"water-storage","capacityMW":25,"operator":"Kemijoki Oy","start":"1990"}},{"type":"Feature","geometry":{"type":"Point","coordinates":[26.73054,67.28527]},"properties":{"id":"way/1161481195","name":"Kurkiaskan voimalaitos","fuel":"hydro","source":"hydro","method":"water-storage","capacityMW":27,"operator":"Kemijoki Oy","start":"1992"}},{"type":"Feature","geometry":{"type":"Point","coordinates":[25.6403,66.51211]},"properties":{"id":"way/1163444274","name":"Unnamed site","fuel":"other"}},{"type":"Feature","geometry":{"type":"Point","coordinates":[24.84483,60.52983]},"properties":{"id":"way/1165326372","name":"Unnamed site","fuel":"solar","source":"solar","method":"photovoltaic","capacityMW":1.5,"operator":"Helen"}},{"type":"Feature","geometry":{"type":"Point","coordinates":[24.0135,60.22299]},"properties":{"id":"way/1165476393","name":"Lohjan sairaalan lämpölaitos","fuel":"oil","source":"oil","method":"combustion","capacityMW":5,"operator":"HUS-yhtymä"}},{"type":"Feature","geometry":{"type":"Point","coordinates":[23.78422,60.72617]},"properties":{"id":"way/1179972174","name":"Unnamed site","fuel":"solar","source":"solar","method":"photovoltaic","capacityMW":0.415}},{"type":"Feature","geometry":{"type":"Point","coordinates":[23.06252,61.75746]},"properties":{"id":"way/1186198657","name":"Ikaalisten aurinkopuisto","fuel":"solar","source":"solar","method":"photovoltaic","capacityMW":0.44,"operator":"Leppäkoski Group Oy","start":"8. elokuuta 2023"}},{"type":"Feature","geometry":{"type":"Point","coordinates":[22.35761,61.27301]},"properties":{"id":"way/1187825285","name":"Unnamed site","fuel":"other"}},{"type":"Feature","geometry":{"type":"Point","coordinates":[21.892,61.50128]},"properties":{"id":"way/1189223487","name":"Unnamed site","fuel":"solar","source":"solar","method":"photovoltaic"}},{"type":"Feature","geometry":{"type":"Point","coordinates":[24.03354,61.65167]},"properties":{"id":"way/1190233244","name":"Unnamed site","fuel":"solar","source":"solar","method":"photovoltaic"}},{"type":"Feature","geometry":{"type":"Point","coordinates":[23.13573,60.37313]},"properties":{"id":"way/1193629211","name":"Unnamed site","fuel":"solar","source":"solar","method":"photovoltaic"}},{"type":"Feature","geometry":{"type":"Point","coordinates":[23.13651,60.37348]},"properties":{"id":"way/1193629212","name":"Unnamed site","fuel":"solar","source":"solar","method":"photovoltaic"}},{"type":"Feature","geometry":{"type":"Point","coordinates":[23.13729,60.37377]},"properties":{"id":"way/1193629213","name":"Unnamed site","fuel":"solar","source":"solar","method":"photovoltaic"}},{"type":"Feature","geometry":{"type":"Point","coordinates":[23.13808,60.37421]},"properties":{"id":"way/1193629214","name":"Unnamed site","fuel":"solar","source":"solar","method":"photovoltaic"}},{"type":"Feature","geometry":{"type":"Point","coordinates":[29.77334,63.11455]},"properties":{"id":"way/1193782392","name":"Unnamed site","fuel":"solar","source":"solar","method":"photovoltaic"}},{"type":"Feature","geometry":{"type":"Point","coordinates":[25.73947,62.59443]},"properties":{"id":"way/1194160758","name":"Metsa Äänekoski (Sellu) Bioproduct Mill power station","fuel":"bioenergy","source":"biomass"}},{"type":"Feature","geometry":{"type":"Point","coordinates":[24.82765,60.18807]},"properties":{"id":"way/1202350276","name":"Unnamed site","fuel":"other"}},{"type":"Feature","geometry":{"type":"Point","coordinates":[24.66523,60.21586]},"properties":{"id":"way/1204743463","name":"Unnamed site","fuel":"solar","source":"solar","method":"photovoltaic","start":"2023-08"}},{"type":"Feature","geometry":{"type":"Point","coordinates":[21.65089,61.17312]},"properties":{"id":"way/1211788611","name":"Unnamed site","fuel":"solar","source":"solar","method":"photovoltaic","operator":"Arto Lauri"}},{"type":"Feature","geometry":{"type":"Point","coordinates":[23.75136,61.30631]},"properties":{"id":"way/1213326851","name":"Viialantien lämpölaitos","fuel":"other"}},{"type":"Feature","geometry":{"type":"Point","coordinates":[25.1524,60.38006]},"properties":{"id":"way/1213770185","name":"Unnamed site","fuel":"solar","source":"solar","method":"photovoltaic"}},{"type":"Feature","geometry":{"type":"Point","coordinates":[24.9168,60.36464]},"properties":{"id":"way/1214617008","name":"Seepsula 1","fuel":"solar","source":"solar","method":"photovoltaic","operator":"Seepsula oy"}},{"type":"Feature","geometry":{"type":"Point","coordinates":[24.9097,60.36444]},"properties":{"id":"way/1214617009","name":"Seepsula 2","fuel":"solar","source":"solar","method":"photovoltaic","operator":"Seepsula oy"}},{"type":"Feature","geometry":{"type":"Point","coordinates":[24.09157,64.33082]},"properties":{"id":"way/1214990451","name":"Juurakko Hybridipuisto - aurinkopuisto","fuel":"solar","source":"solar","method":"photovoltaic","capacityMW":13,"start":"2023"}},{"type":"Feature","geometry":{"type":"Point","coordinates":[23.75133,61.30918]},"properties":{"id":"way/1223177211","name":"Unnamed site","fuel":"solar","source":"solar","method":"photovoltaic","capacityMW":0.072}},{"type":"Feature","geometry":{"type":"Point","coordinates":[23.75556,61.31375]},"properties":{"id":"way/1223177215","name":"Unnamed site","fuel":"solar","source":"solar","method":"photovoltaic"}},{"type":"Feature","geometry":{"type":"Point","coordinates":[27.68912,64.23356]},"properties":{"id":"way/1224844761","name":"Kavo Kajaani Kainuun Voima Oy Power Station","fuel":"bioenergy","source":"biomass"}},{"type":"Feature","geometry":{"type":"Point","coordinates":[25.55189,61.1704]},"properties":{"id":"way/1225246283","name":"Tunnelinsuun lämpökeskus","fuel":"gas","source":"gas","method":"combustion","operator":"Lahti Energia"}},{"type":"Feature","geometry":{"type":"Point","coordinates":[27.28965,61.67498]},"properties":{"id":"way/1225791692","name":"Pursiala Power Station","fuel":"bioenergy","source":"biomass"}},{"type":"Feature","geometry":{"type":"Point","coordinates":[22.29452,60.44633]},"properties":{"id":"way/1234848805","name":"Unnamed site","fuel":"other"}},{"type":"Feature","geometry":{"type":"Point","coordinates":[22.57031,60.20158]},"properties":{"id":"way/1236081616","name":"Unnamed site","fuel":"solar","source":"solar","method":"photovoltaic"}},{"type":"Feature","geometry":{"type":"Point","coordinates":[22.20613,62.46185]},"properties":{"id":"way/1238158179","name":"Aronkylän lämpölaitos","fuel":"bioenergy","source":"biomass","method":"combustion","operator":"Kauhajoen Lämpöhuolto Oy"}},{"type":"Feature","geometry":{"type":"Point","coordinates":[22.19848,62.42565]},"properties":{"id":"way/1238159549","name":"Pikikujan lämpölaitos","fuel":"bioenergy","source":"biomass","method":"combustion","operator":"Kauhajoen Lämpöhuolto Oy"}},{"type":"Feature","geometry":{"type":"Point","coordinates":[23.75948,61.50326]},"properties":{"id":"way/1246065635","name":"Yläkosken voimalaitos, Tampella","fuel":"hydro","source":"hydro","capacityMW":3.3,"operator":"Tampereen Energia","start":"1916"}},{"type":"Feature","geometry":{"type":"Point","coordinates":[24.61535,60.20872]},"properties":{"id":"way/1252151743","name":"Unnamed site","fuel":"solar","source":"solar","method":"photovoltaic"}},{"type":"Feature","geometry":{"type":"Point","coordinates":[24.83254,60.77271]},"properties":{"id":"way/1255403268","name":"Riihimäen tuotantolaitos","fuel":"waste","source":"waste","method":"combustion","capacityMW":18,"operator":"Fortum"}},{"type":"Feature","geometry":{"type":"Point","coordinates":[25.02422,60.79263]},"properties":{"id":"way/1258393091","name":"Unnamed site","fuel":"other"}},{"type":"Feature","geometry":{"type":"Point","coordinates":[22.34718,60.4418]},"properties":{"id":"way/1265876402","name":"Unnamed site","fuel":"other"}},{"type":"Feature","geometry":{"type":"Point","coordinates":[24.57946,64.07596]},"properties":{"id":"way/1267888775","name":"Hamarin voimalaitos","fuel":"hydro","source":"hydro","method":"run-of-the-river","capacityMW":2.5,"operator":"Killin Voima","start":"1984"}},{"type":"Feature","geometry":{"type":"Point","coordinates":[27.8087,61.90728]},"properties":{"id":"way/1270621658","name":"Juvan aurinkovoimapuisto","fuel":"solar","source":"solar","method":"photovoltaic","capacityMW":5.2,"operator":"Solarigo Systems / Lumme","start":"2024"}},{"type":"Feature","geometry":{"type":"Point","coordinates":[24.45221,60.11682]},"properties":{"id":"way/1273923243","name":"Unnamed site","fuel":"solar","source":"solar","method":"photovoltaic"}},{"type":"Feature","geometry":{"type":"Point","coordinates":[23.47114,59.98619]},"properties":{"id":"way/1286367419","name":"Unnamed site","fuel":"solar","source":"solar","method":"photovoltaic"}},{"type":"Feature","geometry":{"type":"Point","coordinates":[25.50034,62.64115]},"properties":{"id":"way/1286892277","name":"Unnamed site","fuel":"hydro","source":"hydro"}},{"type":"Feature","geometry":{"type":"Point","coordinates":[19.9459,60.0837]},"properties":{"id":"way/1289069499","name":"Unnamed site","fuel":"other"}},{"type":"Feature","geometry":{"type":"Point","coordinates":[21.5786,60.8319]},"properties":{"id":"way/1293629897","name":"Helen Aurinkopuisto Kalanti Oy alue 5","fuel":"solar","source":"solar","method":"photovoltaic","capacityMW":20}},{"type":"Feature","geometry":{"type":"Point","coordinates":[21.58165,60.84501]},"properties":{"id":"way/1293817321","name":"Helen Aurinkopuisto Kalanti Oy alue 6","fuel":"solar","source":"solar","method":"photovoltaic","capacityMW":11}},{"type":"Feature","geometry":{"type":"Point","coordinates":[21.58469,60.82083]},"properties":{"id":"way/1293822895","name":"Helen Aurinkopuisto Kalanti Oy alue 1","fuel":"solar","source":"solar","method":"photovoltaic","capacityMW":41}},{"type":"Feature","geometry":{"type":"Point","coordinates":[21.60792,60.81381]},"properties":{"id":"way/1293822896","name":"Helen Aurinkopuisto Kalanti Oy alue 3","fuel":"solar","source":"solar","method":"photovoltaic","capacityMW":28}},{"type":"Feature","geometry":{"type":"Point","coordinates":[21.59949,60.81705]},"properties":{"id":"way/1293822897","name":"Helen Aurinkopuisto Kalanti Oy alue 2","fuel":"solar","source":"solar","method":"photovoltaic","capacityMW":59}},{"type":"Feature","geometry":{"type":"Point","coordinates":[30.03781,63.33619]},"properties":{"id":"way/1299766333","name":"Lieksankoski","fuel":"hydro","source":"hydro","method":"run-of-the-river","capacityMW":18,"operator":"Kemijoki","start":"1960"}},{"type":"Feature","geometry":{"type":"Point","coordinates":[25.45254,64.81963]},"properties":{"id":"way/1300153778","name":"OSS Ruotsinoja","fuel":"solar","source":"solar","method":"photovoltaic","capacityMW":8.8,"start":"2024"}},{"type":"Feature","geometry":{"type":"Point","coordinates":[22.69898,61.02607]},"properties":{"id":"way/1300298398","name":"Unnamed site","fuel":"other"}},{"type":"Feature","geometry":{"type":"Point","coordinates":[23.68912,63.54631]},"properties":{"id":"way/1300925816","name":"Unnamed site","fuel":"other"}},{"type":"Feature","geometry":{"type":"Point","coordinates":[24.91805,60.32732]},"properties":{"id":"way/1302553542","name":"Gasum Vantaan siirtokuormausasema","fuel":"gas","source":"gas","method":"combustion","operator":"Gasum Oy","start":"2020-12-16"}},{"type":"Feature","geometry":{"type":"Point","coordinates":[22.68632,61.06929]},"properties":{"id":"way/1306565325","name":"Rutavan voimalaitos","fuel":"other"}},{"type":"Feature","geometry":{"type":"Point","coordinates":[22.24683,60.47352]},"properties":{"id":"way/1308104458","name":"Unnamed site","fuel":"other"}},{"type":"Feature","geometry":{"type":"Point","coordinates":[25.63962,60.98701]},"properties":{"id":"way/1308136836","name":"Teivaanmäen voimalaitos","fuel":"oil","source":"oil","method":"combustion"}},{"type":"Feature","geometry":{"type":"Point","coordinates":[24.82911,60.65943]},"properties":{"id":"way/1308899568","name":"Onnelan aurinkovoimala","fuel":"solar","source":"solar","method":"photovoltaic","operator":"Kesko Oyj","start":"2024"}},{"type":"Feature","geometry":{"type":"Point","coordinates":[25.71858,60.99224]},"properties":{"id":"way/1309093315","name":"Kymijärvi II","fuel":"waste","source":"waste","method":"gasification","capacityMW":50,"operator":"Lahti Energia","start":"2012"}},{"type":"Feature","geometry":{"type":"Point","coordinates":[26.53365,60.50211]},"properties":{"id":"way/1311230535","name":"Ediskoski","fuel":"hydro","source":"hydro","operator":"Helen"}},{"type":"Feature","geometry":{"type":"Point","coordinates":[23.98619,61.54258]},"properties":{"id":"way/1318974995","name":"Unnamed site","fuel":"solar","source":"solar","method":"photovoltaic"}},{"type":"Feature","geometry":{"type":"Point","coordinates":[25.36325,63.70071]},"properties":{"id":"way/1321593984","name":"Hinkuan voimalaitos","fuel":"hydro","source":"hydro","method":"water-storage","capacityMW":6.3,"operator":"Vattenfall","start":"1975"}},{"type":"Feature","geometry":{"type":"Point","coordinates":[25.1273,60.42357]},"properties":{"id":"way/1321597001","name":"Unnamed site","fuel":"solar","source":"solar","method":"photovoltaic","start":"2024"}},{"type":"Feature","geometry":{"type":"Point","coordinates":[27.07802,60.54444]},"properties":{"id":"way/1323628900","name":"Unnamed site","fuel":"solar","source":"solar","method":"photovoltaic","capacityMW":0.75,"start":"2016"}},{"type":"Feature","geometry":{"type":"Point","coordinates":[27.89556,62.3177]},"properties":{"id":"way/1323924948","name":"Huruskosken voimalaitos","fuel":"hydro","source":"hydro","capacityMW":4.4,"operator":"Stora Enso Oyj"}},{"type":"Feature","geometry":{"type":"Point","coordinates":[19.92752,60.13105]},"properties":{"id":"way/1327447860","name":"Unnamed site","fuel":"other"}},{"type":"Feature","geometry":{"type":"Point","coordinates":[27.74104,62.37286]},"properties":{"id":"way/1327503503","name":"Riikinvoiman ekovoimalaitos","fuel":"waste","source":"waste","method":"combustion","capacityMW":6.3,"operator":"Riikinvoima Oy","start":"2016-12"}},{"type":"Feature","geometry":{"type":"Point","coordinates":[24.81499,60.61464]},"properties":{"id":"way/1327536155","name":"Veikkarin Lämpökeskus","fuel":"bioenergy","source":"biomass","method":"combustion","operator":"Hyvinkään Lämpövoima Oy"}},{"type":"Feature","geometry":{"type":"Point","coordinates":[25.2578,60.86042]},"properties":{"id":"way/1329186283","name":"Unnamed site","fuel":"solar","source":"solar"}},{"type":"Feature","geometry":{"type":"Point","coordinates":[24.80672,60.57368]},"properties":{"id":"way/1346078416","name":"Kallionopon Lämpökeskus","fuel":"other","operator":"Hyvinkään Lämpövoima Oy"}},{"type":"Feature","geometry":{"type":"Point","coordinates":[23.85347,61.44754]},"properties":{"id":"way/1348529993","name":"Unnamed site","fuel":"other"}},{"type":"Feature","geometry":{"type":"Point","coordinates":[26.03838,65.35758]},"properties":{"id":"way/1350641351","name":"Pahkakosken voimalaitos","fuel":"hydro","source":"hydro","capacityMW":42.4,"operator":"Pohjolan Voima","start":"1961"}},{"type":"Feature","geometry":{"type":"Point","coordinates":[25.2517,60.59877]},"properties":{"id":"way/1365682386","name":"Mäntsälän Biovoima Oy","fuel":"bioenergy","source":"biomass","operator":"Mäntsälän Biovoima Oy"}},{"type":"Feature","geometry":{"type":"Point","coordinates":[21.88363,61.59335]},"properties":{"id":"way/1368116642","name":"Makkarakosken voimalaitos","fuel":"other"}},{"type":"Feature","geometry":{"type":"Point","coordinates":[21.8838,61.59332]},"properties":{"id":"way/1369920827","name":"Unnamed site","fuel":"hydro","source":"hydro"}},{"type":"Feature","geometry":{"type":"Point","coordinates":[23.79243,60.72731]},"properties":{"id":"way/1370805035","name":"Unnamed site","fuel":"other"}},{"type":"Feature","geometry":{"type":"Point","coordinates":[22.86854,60.85703]},"properties":{"id":"way/1372193554","name":"Unnamed site","fuel":"solar","source":"solar","method":"photovoltaic"}},{"type":"Feature","geometry":{"type":"Point","coordinates":[23.82266,61.49478]},"properties":{"id":"way/1381208535","name":"Hakametsän lämpökeskus","fuel":"oil","source":"oil","operator":"Tampereen Energia"}},{"type":"Feature","geometry":{"type":"Point","coordinates":[29.46719,62.68024]},"properties":{"id":"way/1385325412","name":"Unnamed site","fuel":"solar","source":"solar","method":"photovoltaic"}},{"type":"Feature","geometry":{"type":"Point","coordinates":[28.95865,63.54221]},"properties":{"id":"way/1390990804","name":"Kuokkastenkosken vesivoimalaitos","fuel":"hydro","source":"hydro","method":"run-of-the-river","capacityMW":1.95,"operator":"PKS Tuotanto","start":"1990"}},{"type":"Feature","geometry":{"type":"Point","coordinates":[23.30625,63.47008]},"properties":{"id":"way/1392662372","name":"Kattilakosken voimalaitos","fuel":"hydro","source":"hydro","method":"run-of-the-river","capacityMW":2.3,"operator":"Herrfors","start":"1979"}},{"type":"Feature","geometry":{"type":"Point","coordinates":[23.2104,63.52146]},"properties":{"id":"way/1393221183","name":"Björkfors kraftverk","fuel":"hydro","source":"hydro","method":"run-of-the-river","capacityMW":1.4}},{"type":"Feature","geometry":{"type":"Point","coordinates":[28.17684,61.52658]},"properties":{"id":"way/1396540420","name":"Unnamed site","fuel":"solar","source":"solar"}},{"type":"Feature","geometry":{"type":"Point","coordinates":[24.77075,60.72783]},"properties":{"id":"way/1416197257","name":"Unnamed site","fuel":"bioenergy","source":"biomass"}},{"type":"Feature","geometry":{"type":"Point","coordinates":[21.72713,61.50348]},"properties":{"id":"way/1417409235","name":"Unnamed site","fuel":"other"}},{"type":"Feature","geometry":{"type":"Point","coordinates":[21.75186,61.20275]},"properties":{"id":"way/1417582208","name":"Pappilankosken voimalaitos","fuel":"other"}},{"type":"Feature","geometry":{"type":"Point","coordinates":[21.75358,61.20223]},"properties":{"id":"way/1417582209","name":"Unnamed site","fuel":"other"}},{"type":"Feature","geometry":{"type":"Point","coordinates":[23.27127,62.9083]},"properties":{"id":"way/1420899575","name":"Mäkelänkosken voimalaitos","fuel":"hydro","source":"hydro","capacityMW":0.7,"operator":"Koskienergia","start":"1938"}},{"type":"Feature","geometry":{"type":"Point","coordinates":[21.8273,61.10087]},"properties":{"id":"way/1424805617","name":"Unnamed site","fuel":"other"}},{"type":"Feature","geometry":{"type":"Point","coordinates":[24.9359,60.59348]},"properties":{"id":"way/1432759717","name":"Unnamed site","fuel":"bioenergy","source":"biomass","method":"anaerobic_digestion"}},{"type":"Feature","geometry":{"type":"Point","coordinates":[27.73991,64.25227]},"properties":{"id":"way/1433560680","name":"Unnamed site","fuel":"solar","source":"solar","method":"photovoltaic"}},{"type":"Feature","geometry":{"type":"Point","coordinates":[27.70109,62.90888]},"properties":{"id":"way/1433877822","name":"Liipasintien lämpökeskus","fuel":"oil","source":"oil","method":"combustion","operator":"Kuopion Energia"}},{"type":"Feature","geometry":{"type":"Point","coordinates":[24.26491,64.46215]},"properties":{"id":"way/1444526976","name":"Unnamed site","fuel":"hydro","source":"hydro"}},{"type":"Feature","geometry":{"type":"Point","coordinates":[22.73306,61.88079]},"properties":{"id":"way/1447726089","name":"Unnamed site","fuel":"other"}},{"type":"Feature","geometry":{"type":"Point","coordinates":[22.73633,61.87613]},"properties":{"id":"way/1447726090","name":"Unnamed site","fuel":"other"}},{"type":"Feature","geometry":{"type":"Point","coordinates":[22.74227,61.8716]},"properties":{"id":"way/1447726091","name":"Unnamed site","fuel":"other"}},{"type":"Feature","geometry":{"type":"Point","coordinates":[22.7521,61.87533]},"properties":{"id":"way/1447726092","name":"Unnamed site","fuel":"other"}},{"type":"Feature","geometry":{"type":"Point","coordinates":[22.76419,61.87565]},"properties":{"id":"way/1447726093","name":"Unnamed site","fuel":"other"}},{"type":"Feature","geometry":{"type":"Point","coordinates":[22.77083,61.87058]},"properties":{"id":"way/1447726094","name":"Unnamed site","fuel":"other"}},{"type":"Feature","geometry":{"type":"Point","coordinates":[22.78326,61.87472]},"properties":{"id":"way/1448003950","name":"Unnamed site","fuel":"other"}},{"type":"Feature","geometry":{"type":"Point","coordinates":[22.77666,61.88002]},"properties":{"id":"way/1448009627","name":"Unnamed site","fuel":"other"}},{"type":"Feature","geometry":{"type":"Point","coordinates":[22.76298,61.88093]},"properties":{"id":"way/1448009628","name":"Unnamed site","fuel":"other"}},{"type":"Feature","geometry":{"type":"Point","coordinates":[21.71218,61.831]},"properties":{"id":"way/1455206338","name":"Unnamed site","fuel":"other"}},{"type":"Feature","geometry":{"type":"Point","coordinates":[21.69835,61.83358]},"properties":{"id":"way/1455206339","name":"Unnamed site","fuel":"other"}},{"type":"Feature","geometry":{"type":"Point","coordinates":[21.71434,61.83836]},"properties":{"id":"way/1455206359","name":"Unnamed site","fuel":"other"}},{"type":"Feature","geometry":{"type":"Point","coordinates":[21.69779,61.84003]},"properties":{"id":"way/1455529275","name":"Unnamed site","fuel":"other"}},{"type":"Feature","geometry":{"type":"Point","coordinates":[21.70992,61.85005]},"properties":{"id":"way/1455529280","name":"Unnamed site","fuel":"other"}},{"type":"Feature","geometry":{"type":"Point","coordinates":[21.70038,61.85335]},"properties":{"id":"way/1455529284","name":"Unnamed site","fuel":"other"}},{"type":"Feature","geometry":{"type":"Point","coordinates":[21.70428,61.85851]},"properties":{"id":"way/1455529285","name":"Unnamed site","fuel":"other"}},{"type":"Feature","geometry":{"type":"Point","coordinates":[21.69938,61.84657]},"properties":{"id":"way/1455529287","name":"Unnamed site","fuel":"other"}},{"type":"Feature","geometry":{"type":"Point","coordinates":[25.80418,62.28474]},"properties":{"id":"way/1456979748","name":"Unnamed site","fuel":"other"}},{"type":"Feature","geometry":{"type":"Point","coordinates":[24.62439,61.17844]},"properties":{"id":"way/1462286060","name":"Unnamed site","fuel":"storage","source":"battery","capacityMW":1.25,"operator":"Elenia","start":"2025-04-10"}},{"type":"Feature","geometry":{"type":"Point","coordinates":[25.33363,60.29983]},"properties":{"id":"way/1466474324","name":"Söderkullan kaukolämpövoimala","fuel":"oil","source":"oil","method":"combustion"}},{"type":"Feature","geometry":{"type":"Point","coordinates":[21.58644,61.15227]},"properties":{"id":"way/1467912376","name":"Unnamed site","fuel":"solar","source":"solar","method":"photovoltaic"}},{"type":"Feature","geometry":{"type":"Point","coordinates":[21.58876,61.15244]},"properties":{"id":"way/1467912377","name":"Unnamed site","fuel":"solar","source":"solar","method":"photovoltaic"}},{"type":"Feature","geometry":{"type":"Point","coordinates":[21.59215,61.15277]},"properties":{"id":"way/1467912378","name":"Unnamed site","fuel":"solar","source":"solar","method":"photovoltaic"}},{"type":"Feature","geometry":{"type":"Point","coordinates":[21.60714,61.15729]},"properties":{"id":"way/1467912379","name":"Unnamed site","fuel":"solar","source":"solar","method":"photovoltaic"}},{"type":"Feature","geometry":{"type":"Point","coordinates":[21.61362,61.15301]},"properties":{"id":"way/1467912380","name":"Unnamed site","fuel":"solar","source":"solar","method":"photovoltaic"}},{"type":"Feature","geometry":{"type":"Point","coordinates":[21.61475,61.15014]},"properties":{"id":"way/1467912381","name":"Unnamed site","fuel":"solar","source":"solar","method":"photovoltaic"}},{"type":"Feature","geometry":{"type":"Point","coordinates":[24.75232,60.69121]},"properties":{"id":"way/1476558635","name":"Unnamed site","fuel":"solar","source":"solar","method":"photovoltaic"}},{"type":"Feature","geometry":{"type":"Point","coordinates":[22.46257,61.16271]},"properties":{"id":"way/1476888021","name":"Unnamed site","fuel":"other"}},{"type":"Feature","geometry":{"type":"Point","coordinates":[22.47195,61.1619]},"properties":{"id":"way/1476888022","name":"Unnamed site","fuel":"other"}},{"type":"Feature","geometry":{"type":"Point","coordinates":[22.4501,61.1634]},"properties":{"id":"way/1476888023","name":"Unnamed site","fuel":"other"}},{"type":"Feature","geometry":{"type":"Point","coordinates":[22.48165,61.16154]},"properties":{"id":"way/1476888024","name":"Unnamed site","fuel":"other"}},{"type":"Feature","geometry":{"type":"Point","coordinates":[22.47709,61.16731]},"properties":{"id":"way/1476888025","name":"Unnamed site","fuel":"other"}},{"type":"Feature","geometry":{"type":"Point","coordinates":[22.43478,61.16395]},"properties":{"id":"way/1476888028","name":"Unnamed site","fuel":"other"}},{"type":"Feature","geometry":{"type":"Point","coordinates":[27.86729,62.16852]},"properties":{"id":"way/1479250099","name":"Unnamed site","fuel":"solar","source":"solar","method":"photovoltaic"}},{"type":"Feature","geometry":{"type":"Point","coordinates":[22.97203,62.84191]},"properties":{"id":"way/1479279224","name":"Unnamed site","fuel":"solar","source":"solar","method":"photovoltaic"}},{"type":"Feature","geometry":{"type":"Point","coordinates":[21.58819,61.15311]},"properties":{"id":"way/1479616136","name":"Unnamed site","fuel":"solar","source":"solar","method":"photovoltaic"}},{"type":"Feature","geometry":{"type":"Point","coordinates":[25.80444,62.27938]},"properties":{"id":"way/1479855158","name":"Unnamed site","fuel":"other"}},{"type":"Feature","geometry":{"type":"Point","coordinates":[20.10906,60.07157]},"properties":{"id":"way/1509282788","name":"Söderby Solpark","fuel":"solar","source":"solar","capacityMW":4.6,"start":"2026-03-01"}},{"type":"Feature","geometry":{"type":"Point","coordinates":[22.19248,60.45163]},"properties":{"id":"way/1531565324","name":"Bayer Artukaisten Aurinkopuisto","fuel":"solar","source":"solar","method":"photovoltaic","capacityMW":3.4,"operator":"Turku Energia","start":"2026-05-26"}},{"type":"Feature","geometry":{"type":"Point","coordinates":[22.29824,61.91913]},"properties":{"id":"way/1533019742","name":"Unnamed site","fuel":"other"}},{"type":"Feature","geometry":{"type":"Point","coordinates":[22.31857,61.92627]},"properties":{"id":"way/1533070520","name":"Unnamed site","fuel":"other"}},{"type":"Feature","geometry":{"type":"Point","coordinates":[22.30727,61.92844]},"properties":{"id":"way/1533070521","name":"Unnamed site","fuel":"other"}},{"type":"Feature","geometry":{"type":"Point","coordinates":[22.31353,61.93338]},"properties":{"id":"way/1533070523","name":"Unnamed site","fuel":"other"}},{"type":"Feature","geometry":{"type":"Point","coordinates":[22.30929,61.94134]},"properties":{"id":"way/1533070524","name":"Unnamed site","fuel":"other"}},{"type":"Feature","geometry":{"type":"Point","coordinates":[22.3232,61.94287]},"properties":{"id":"way/1533070525","name":"Unnamed site","fuel":"other"}},{"type":"Feature","geometry":{"type":"Point","coordinates":[22.34946,61.9461]},"properties":{"id":"way/1533070526","name":"Unnamed site","fuel":"other"}},{"type":"Feature","geometry":{"type":"Point","coordinates":[22.33338,61.94328]},"properties":{"id":"way/1533070527","name":"Unnamed site","fuel":"other"}},{"type":"Feature","geometry":{"type":"Point","coordinates":[22.33787,61.93704]},"properties":{"id":"way/1534623163","name":"Unnamed site","fuel":"other"}},{"type":"Feature","geometry":{"type":"Point","coordinates":[22.29937,61.95907]},"properties":{"id":"way/1535007449","name":"Unnamed site","fuel":"other"}},{"type":"Feature","geometry":{"type":"Point","coordinates":[22.30904,61.96101]},"properties":{"id":"way/1535007450","name":"Unnamed site","fuel":"other"}},{"type":"Feature","geometry":{"type":"Point","coordinates":[22.28617,61.96405]},"properties":{"id":"way/1535491456","name":"Unnamed site","fuel":"other"}},{"type":"Feature","geometry":{"type":"Point","coordinates":[22.29637,61.96387]},"properties":{"id":"way/1535498058","name":"Unnamed site","fuel":"other"}},{"type":"Feature","geometry":{"type":"Point","coordinates":[22.30653,61.96628]},"properties":{"id":"way/1535498059","name":"Unnamed site","fuel":"other"}},{"type":"Feature","geometry":{"type":"Point","coordinates":[22.29119,61.96944]},"properties":{"id":"way/1535498060","name":"Unnamed site","fuel":"other"}},{"type":"Feature","geometry":{"type":"Point","coordinates":[22.3001,61.97067]},"properties":{"id":"way/1535498061","name":"Unnamed site","fuel":"other"}},{"type":"Feature","geometry":{"type":"Point","coordinates":[22.29488,61.97386]},"properties":{"id":"way/1535498062","name":"Unnamed site","fuel":"other"}},{"type":"Feature","geometry":{"type":"Point","coordinates":[22.28508,61.9747]},"properties":{"id":"way/1535498063","name":"Unnamed site","fuel":"other"}},{"type":"Feature","geometry":{"type":"Point","coordinates":[25.13813,65.70575]},"properties":{"id":"way/1536319161","name":"Simon Aurinkopuisto","fuel":"solar","source":"solar","method":"photovoltaic","capacityMW":70,"operator":"Simon Aurinkopuisto Ky","start":"2025-11-07"}},{"type":"Feature","geometry":{"type":"Point","coordinates":[24.11495,62.51532]},"properties":{"id":"way/1541306421","name":"Ryötön voimalaitos","fuel":"hydro","source":"hydro","method":"run-of-the-river","capacityMW":0.86,"operator":"Koskienergia","start":"2013"}},{"type":"Feature","geometry":{"type":"Point","coordinates":[28.00013,66.42004]},"properties":{"id":"relation/11760004","name":"Jumiskon voimalaitos","fuel":"pumped","source":"hydro","method":"water-pumped-storage","capacityMW":25.8,"operator":"Pohjolan Voima Oyj","start":"1954"}},{"type":"Feature","geometry":{"type":"Point","coordinates":[24.54582,65.79172]},"properties":{"id":"relation/12704548","name":"Isohaaran vesivoimalaitos","fuel":"hydro","source":"hydro","method":"run-of-the-river","capacityMW":128,"operator":"Pohjolan Voima","start":"1949"}},{"type":"Feature","geometry":{"type":"Point","coordinates":[24.8339,60.28326]},"properties":{"id":"relation/13199949","name":"Martinlaakson voimalaitos","fuel":"coal","source":"coal;biomass;gas","capacityMW":195,"operator":"Vantaan Energia"}},{"type":"Feature","geometry":{"type":"Point","coordinates":[30.42819,62.80097]},"properties":{"id":"relation/13667019","name":"Pamilon vesivoimalaitos","fuel":"hydro","source":"hydro","method":"water-storage","capacityMW":85,"operator":"Vattenfall Oy","start":"1955"}},{"type":"Feature","geometry":{"type":"Point","coordinates":[25.4342,65.03773]},"properties":{"id":"relation/14692147","name":"Toppilan voimalaitos","fuel":"bioenergy","source":"biomass","capacityMW":120,"operator":"Oulun energia"}},{"type":"Feature","geometry":{"type":"Point","coordinates":[22.96109,62.84249]},"properties":{"id":"relation/14997598","name":"Atrian Aurinko","fuel":"solar","source":"solar","method":"photovoltaic","capacityMW":6,"operator":"Atria Oyj","start":"2018"}},{"type":"Feature","geometry":{"type":"Point","coordinates":[25.66913,61.00805]},"properties":{"id":"relation/15350966","name":"Unnamed site","fuel":"solar","source":"solar","method":"photovoltaic","capacityMW":2.8}},{"type":"Feature","geometry":{"type":"Point","coordinates":[25.54536,64.98826]},"properties":{"id":"relation/15408660","name":"Oulunsuun lämpökeskus","fuel":"oil","source":"oil","method":"combustion","operator":"Oulun Energia"}},{"type":"Feature","geometry":{"type":"Point","coordinates":[25.43501,65.07456]},"properties":{"id":"relation/15415513","name":"Pateniemen lämpökeskus","fuel":"oil","source":"oil","method":"combustion","operator":"Oulun Energia"}},{"type":"Feature","geometry":{"type":"Point","coordinates":[21.71555,61.8329]},"properties":{"id":"relation/17630176","name":"Siikainen Jäneskeidas","fuel":"wind_onshore","source":"wind","capacityMW":26,"operator":"Gigawatti Oy","start":"2015"}},{"type":"Feature","geometry":{"type":"Point","coordinates":[22.42427,63.3093]},"properties":{"id":"relation/18845151","name":"Orapac solkraftverk","fuel":"solar","source":"solar","method":"photovoltaic","operator":"Orapac","start":"2020"}},{"type":"Feature","geometry":{"type":"Point","coordinates":[23.19855,62.98653]},"properties":{"id":"relation/20153821","name":"Heininevan aurinkovoimapuisto","fuel":"solar","source":"solar","method":"photovoltaic","capacityMW":86,"operator":"EPV Aurinkovoima","start":"2026"}},{"type":"Feature","geometry":{"type":"Point","coordinates":[22.10735,61.3223]},"properties":{"id":"relation/20828769","name":"Aurinkovoimala","fuel":"solar","source":"solar","method":"photovoltaic"}}]}