{"type":"FeatureCollection","features":[{"type":"Feature","geometry":{"type":"Point","coordinates":[16.29495,63.17768]},"properties":{"id":"node/2398097323","name":"Högforsens kraftstation","fuel":"other"}},{"type":"Feature","geometry":{"type":"Point","coordinates":[14.89875,60.4837]},"properties":{"id":"node/2868994973","name":"Mockfjärds Kraftstation","fuel":"hydro","source":"hydro","capacityMW":43}},{"type":"Feature","geometry":{"type":"Point","coordinates":[19.68488,65.02105]},"properties":{"id":"node/9022463633","name":"Vargfors","fuel":"hydro","source":"hydro","operator":"Vattenfall"}},{"type":"Feature","geometry":{"type":"Point","coordinates":[19.46945,65.12663]},"properties":{"id":"node/9022557099","name":"Gallejaur","fuel":"hydro","source":"hydro"}},{"type":"Feature","geometry":{"type":"Point","coordinates":[17.33249,66.38241]},"properties":{"id":"node/9022704247","name":"Rebnis","fuel":"hydro","source":"hydro"}},{"type":"Feature","geometry":{"type":"Point","coordinates":[16.83207,66.43925]},"properties":{"id":"node/9022714405","name":"Ringsele","fuel":"hydro","source":"hydro"}},{"type":"Feature","geometry":{"type":"Point","coordinates":[15.62346,65.50742]},"properties":{"id":"node/9088946997","name":"Ajaure kraftstation","fuel":"hydro","source":"hydro"}},{"type":"Feature","geometry":{"type":"Point","coordinates":[13.08007,62.4631]},"properties":{"id":"node/9662471878","name":"Långå kraftverk","fuel":"hydro","source":"hydro"}},{"type":"Feature","geometry":{"type":"Point","coordinates":[13.6582,63.22228]},"properties":{"id":"node/9662541844","name":"Sällsjö kraftverk","fuel":"hydro","source":"hydro"}},{"type":"Feature","geometry":{"type":"Point","coordinates":[14.90463,61.49439]},"properties":{"id":"node/9662551094","name":"Noppikoski","fuel":"hydro","source":"hydro"}},{"type":"Feature","geometry":{"type":"Point","coordinates":[12.80787,63.6815]},"properties":{"id":"node/9662554234","name":"Anjan","fuel":"hydro","source":"hydro"}},{"type":"Feature","geometry":{"type":"Point","coordinates":[13.88193,63.97557]},"properties":{"id":"node/9665529087","name":"Stensjöfallet","fuel":"hydro","source":"hydro"}},{"type":"Feature","geometry":{"type":"Point","coordinates":[13.53833,63.75058]},"properties":{"id":"way/471732537","name":"Oldens kraftverk","fuel":"hydro","source":"hydro","method":"water-storage"}},{"type":"Feature","geometry":{"type":"Point","coordinates":[12.70106,58.24151]},"properties":{"id":"node/10284036883","name":"Främmestads kraftverk","fuel":"hydro","source":"hydro"}},{"type":"Feature","geometry":{"type":"Point","coordinates":[12.7223,58.23151]},"properties":{"id":"node/10284036884","name":"Bredöls kvarn och såg","fuel":"hydro","source":"hydro"}},{"type":"Feature","geometry":{"type":"Point","coordinates":[12.7018,58.24183]},"properties":{"id":"node/10284036885","name":"Baljefors kvarn och kraftverk","fuel":"hydro","source":"hydro"}},{"type":"Feature","geometry":{"type":"Point","coordinates":[12.92396,57.86064]},"properties":{"id":"node/10284036887","name":"Vänga kvarn","fuel":"hydro","source":"hydro"}},{"type":"Feature","geometry":{"type":"Point","coordinates":[12.84332,57.62854]},"properties":{"id":"node/10284036888","name":"Viskafors kraftverk","fuel":"hydro","source":"hydro"}},{"type":"Feature","geometry":{"type":"Point","coordinates":[12.94065,57.61424]},"properties":{"id":"node/10284036890","name":"Häggårda kraftverk","fuel":"hydro","source":"hydro"}},{"type":"Feature","geometry":{"type":"Point","coordinates":[12.60472,57.72251]},"properties":{"id":"node/10284036891","name":"Gisslefors kraftverk","fuel":"hydro","source":"hydro"}},{"type":"Feature","geometry":{"type":"Point","coordinates":[12.20417,58.92894]},"properties":{"id":"node/10284036892","name":"Taxvikens kraftverk","fuel":"hydro","source":"hydro"}},{"type":"Feature","geometry":{"type":"Point","coordinates":[12.32962,59.03083]},"properties":{"id":"node/10284036894","name":"Laxarbyns kraftverk","fuel":"hydro","source":"hydro"}},{"type":"Feature","geometry":{"type":"Point","coordinates":[12.1266,59.07491]},"properties":{"id":"node/10284036895","name":"Gottarsbyns kraftverk","fuel":"hydro","source":"hydro"}},{"type":"Feature","geometry":{"type":"Point","coordinates":[12.25724,58.98892]},"properties":{"id":"node/10284036898","name":"Billingsfors kraftverk","fuel":"hydro","source":"hydro"}},{"type":"Feature","geometry":{"type":"Point","coordinates":[12.46462,57.79952]},"properties":{"id":"node/10284041013","name":"Torska kraftverk","fuel":"hydro","source":"hydro"}},{"type":"Feature","geometry":{"type":"Point","coordinates":[12.55223,57.89294]},"properties":{"id":"node/10284041014","name":"Hjälmareds kvarn","fuel":"hydro","source":"hydro"}},{"type":"Feature","geometry":{"type":"Point","coordinates":[12.04246,57.56994]},"properties":{"id":"node/14026683789","name":"Unnamed site","fuel":"storage","source":"battery"}},{"type":"Feature","geometry":{"type":"Point","coordinates":[18.10253,59.3523]},"properties":{"id":"relation/10545941","name":"Värtaverket","fuel":"bioenergy","source":"biomass;coal;oil","capacityMW":579,"operator":"Stockholm Exergi AB"}},{"type":"Feature","geometry":{"type":"Point","coordinates":[13.34154,56.51391]},"properties":{"id":"way/26334715","name":"Knäreds nedre kraftverk","fuel":"hydro","source":"hydro","capacityMW":6.6}},{"type":"Feature","geometry":{"type":"Point","coordinates":[14.07507,56.23556]},"properties":{"id":"way/26567029","name":"Nöbbelöv Kraftstationen","fuel":"hydro","source":"hydro","capacityMW":4.4,"operator":"Uniper Sverige AB"}},{"type":"Feature","geometry":{"type":"Point","coordinates":[17.12624,60.6425]},"properties":{"id":"way/28016182","name":"Ersbo värmeverk","fuel":"bioenergy","source":"biofuel","method":"combustion","operator":"Gävle Energi"}},{"type":"Feature","geometry":{"type":"Point","coordinates":[11.93715,57.67219]},"properties":{"id":"way/28455235","name":"Unnamed site","fuel":"other"}},{"type":"Feature","geometry":{"type":"Point","coordinates":[17.66504,59.17745]},"properties":{"id":"way/31901887","name":"Igelstaverket","fuel":"bioenergy","source":"biomass","method":"combustion","operator":"Söderenergi"}},{"type":"Feature","geometry":{"type":"Point","coordinates":[12.23169,59.02733]},"properties":{"id":"way/33480809","name":"Unnamed site","fuel":"hydro","source":"hydro","method":"run-of-the-river"}},{"type":"Feature","geometry":{"type":"Point","coordinates":[13.68693,60.03267]},"properties":{"id":"way/35670530","name":"Unnamed site","fuel":"hydro","source":"hydro","method":"water-storage","capacityMW":5.7}},{"type":"Feature","geometry":{"type":"Point","coordinates":[13.60176,56.48629]},"properties":{"id":"way/39343285","name":"Timsfors kraftstation","fuel":"hydro","source":"hydro","capacityMW":2.94}},{"type":"Feature","geometry":{"type":"Point","coordinates":[14.08278,56.26591]},"properties":{"id":"way/39863439","name":"Broby Kraftstationen","fuel":"hydro","source":"hydro","capacityMW":3.8,"operator":"Uniper Sverige AB"}},{"type":"Feature","geometry":{"type":"Point","coordinates":[14.62507,61.13761]},"properties":{"id":"way/41459181","name":"Hansjö Kraftstation","fuel":"hydro","source":"hydro","method":"run-of-the-river"}},{"type":"Feature","geometry":{"type":"Point","coordinates":[14.64091,61.14644]},"properties":{"id":"way/41687965","name":"Unna Kraftstation","fuel":"hydro","source":"hydro"}},{"type":"Feature","geometry":{"type":"Point","coordinates":[15.45426,60.49561]},"properties":{"id":"relation/10544717","name":"Domnarvets kraftverk","fuel":"hydro","source":"hydro","capacityMW":22,"operator":"Fortum Generation AB"}},{"type":"Feature","geometry":{"type":"Point","coordinates":[17.82473,59.36237]},"properties":{"id":"way/44017389","name":"Hässelby Power Plant","fuel":"bioenergy","source":"biomass"}},{"type":"Feature","geometry":{"type":"Point","coordinates":[15.72382,60.58659]},"properties":{"id":"way/44685810","name":"Korsnäs","fuel":"hydro","source":"hydro","method":"water-storage","operator":"Falu Energi & Vatten","start":"1909"}},{"type":"Feature","geometry":{"type":"Point","coordinates":[20.86027,66.224]},"properties":{"id":"way/48569661","name":"Laxede kraftverk","fuel":"hydro","source":"hydro","method":"water-storage","capacityMW":207,"operator":"Vattenfall","start":"1959-1962"}},{"type":"Feature","geometry":{"type":"Point","coordinates":[17.82941,59.62142]},"properties":{"id":"way/49512050","name":"Valsta Hetvattencentral","fuel":"other"}},{"type":"Feature","geometry":{"type":"Point","coordinates":[13.74229,56.58236]},"properties":{"id":"way/50053227","name":"Traryd kraftverk","fuel":"hydro","source":"hydro","capacityMW":15}},{"type":"Feature","geometry":{"type":"Point","coordinates":[11.95468,57.70264]},"properties":{"id":"way/51038647","name":"Rosenlundsverket","fuel":"gas","source":"gas;oil","method":"combustion","capacityMW":36,"operator":"Göteborg Energi AB","start":"1954"}},{"type":"Feature","geometry":{"type":"Point","coordinates":[16.61795,59.92115]},"properties":{"id":"way/52909431","name":"Silververket","fuel":"other","operator":"Sala-Heby Energi AB","start":"2000"}},{"type":"Feature","geometry":{"type":"Point","coordinates":[11.89024,57.64915]},"properties":{"id":"way/59307521","name":"Unnamed site","fuel":"other"}},{"type":"Feature","geometry":{"type":"Point","coordinates":[15.46654,58.44654]},"properties":{"id":"way/62412755","name":"Odenfors Kraftstation","fuel":"hydro","source":"hydro","method":"run-of-the-river","operator":"Tekniska verken"}},{"type":"Feature","geometry":{"type":"Point","coordinates":[15.43734,60.50887]},"properties":{"id":"relation/10544513","name":"Bullerforsens kraftstation","fuel":"hydro","source":"hydro","capacityMW":47,"operator":"Fortum Generation AB","start":"1910"}},{"type":"Feature","geometry":{"type":"Point","coordinates":[15.84593,60.39431]},"properties":{"id":"way/70203921","name":"Skedvi Kraftverk","fuel":"hydro","source":"hydro"}},{"type":"Feature","geometry":{"type":"Point","coordinates":[14.43503,60.5992]},"properties":{"id":"way/73631391","name":"Dala Järna kraftstation","fuel":"hydro","source":"hydro","method":"water-storage"}},{"type":"Feature","geometry":{"type":"Point","coordinates":[18.16815,60.40387]},"properties":{"id":"way/80230741","name":"Forsmarks Kärnkraftverk","fuel":"nuclear","source":"nuclear","method":"fission","capacityMW":3271,"operator":"Forsmarks Kraftgrupp","start":"1980"}},{"type":"Feature","geometry":{"type":"Point","coordinates":[12.27271,58.27489]},"properties":{"id":"way/88144184","name":"Olidans kraftverk","fuel":"hydro","source":"hydro","capacityMW":220,"operator":"Vattenfall AB"}},{"type":"Feature","geometry":{"type":"Point","coordinates":[12.27857,58.28039]},"properties":{"id":"way/88144235","name":"Hojums kraftverk","fuel":"hydro","source":"hydro","capacityMW":170,"operator":"Vattenfall AB"}},{"type":"Feature","geometry":{"type":"Point","coordinates":[11.96361,58.35203]},"properties":{"id":"way/89504715","name":"Fossumsberg kraftstation","fuel":"hydro","source":"hydro","operator":"Uddevalla Energi"}},{"type":"Feature","geometry":{"type":"Point","coordinates":[11.94042,58.34685]},"properties":{"id":"way/92037441","name":"Strömberget kraftverk","fuel":"hydro","source":"hydro","operator":"Uddevalla Energi"}},{"type":"Feature","geometry":{"type":"Point","coordinates":[16.51536,59.58536]},"properties":{"id":"way/94792645","name":"Kraftvärmeverket","fuel":"other","operator":"Mälarenergi"}},{"type":"Feature","geometry":{"type":"Point","coordinates":[15.55915,62.48662]},"properties":{"id":"way/96859785","name":"Järnvägsforsens kraftverk","fuel":"hydro","source":"hydro"}},{"type":"Feature","geometry":{"type":"Point","coordinates":[18.06489,59.44497]},"properties":{"id":"way/101193396","name":"Galten panncentral","fuel":"bioenergy","source":"biofuel","operator":"Fortum"}},{"type":"Feature","geometry":{"type":"Point","coordinates":[12.69291,56.03352]},"properties":{"id":"way/103305464","name":"Västhamnsverket","fuel":"bioenergy","source":"biomass","method":"combustion","capacityMW":56,"operator":"Öresundskraft","start":"1982"}},{"type":"Feature","geometry":{"type":"Point","coordinates":[16.17075,60.15112]},"properties":{"id":"way/103452793","name":"Avestaforsen","fuel":"hydro","source":"hydro","method":"water-storage","capacityMW":24.7,"operator":"Fortum"}},{"type":"Feature","geometry":{"type":"Point","coordinates":[16.17014,60.1501]},"properties":{"id":"way/103452796","name":"Avesta Storforsen","fuel":"hydro","source":"hydro","method":"water-storage","capacityMW":15,"operator":"Fortum"}},{"type":"Feature","geometry":{"type":"Point","coordinates":[13.15458,55.72148]},"properties":{"id":"way/109828885","name":"Gunnesboverket","fuel":"geothermal","source":"geothermal;biomass;biooil","method":"combustion","start":"1970"}},{"type":"Feature","geometry":{"type":"Point","coordinates":[15.7299,61.36357]},"properties":{"id":"way/114490800","name":"Vallhaga","fuel":"hydro","source":"hydro","method":"run-of-the-river"}},{"type":"Feature","geometry":{"type":"Point","coordinates":[14.8453,62.46037]},"properties":{"id":"way/118436261","name":"Turinge","fuel":"hydro","source":"hydro"}},{"type":"Feature","geometry":{"type":"Point","coordinates":[14.27413,60.50131]},"properties":{"id":"way/125454636","name":"Skifsforsens Kraftstation","fuel":"hydro","source":"hydro","method":"water-storage"}},{"type":"Feature","geometry":{"type":"Point","coordinates":[12.41155,58.82088]},"properties":{"id":"way/125583428","name":"Upperudsälven","fuel":"hydro","source":"hydro","method":"water-storage","operator":"Vattenfall"}},{"type":"Feature","geometry":{"type":"Point","coordinates":[12.11978,58.13565]},"properties":{"id":"way/125589869","name":"Lilla Edets kraftverk","fuel":"hydro","source":"hydro","capacityMW":210}},{"type":"Feature","geometry":{"type":"Point","coordinates":[17.08133,61.21204]},"properties":{"id":"way/129699288","name":"Ljusne strömmars kraftverk","fuel":"hydro","source":"hydro"}},{"type":"Feature","geometry":{"type":"Point","coordinates":[16.1863,60.14809]},"properties":{"id":"way/132486171","name":"Avesta Lillforsen","fuel":"hydro","source":"hydro","method":"water-storage","capacityMW":22,"operator":"Fortum"}},{"type":"Feature","geometry":{"type":"Point","coordinates":[11.98357,58.37414]},"properties":{"id":"way/136483055","name":"Lillesjöverket","fuel":"waste","source":"waste","method":"combustion","capacityMW":8,"operator":"Uddevalla Energi"}},{"type":"Feature","geometry":{"type":"Point","coordinates":[17.85958,59.60928]},"properties":{"id":"way/136742426","name":"Brista värmekraftverk","fuel":"bioenergy","source":"biomass","method":"combustion","capacityMW":62,"operator":"Stockholm Exergi"}},{"type":"Feature","geometry":{"type":"Point","coordinates":[14.53729,59.33678]},"properties":{"id":"way/148820285","name":"Björkborns kraftverk","fuel":"hydro","source":"hydro","method":"run-of-the-river","capacityMW":2.5,"operator":"Fortum","start":"1927"}},{"type":"Feature","geometry":{"type":"Point","coordinates":[14.54846,59.32812]},"properties":{"id":"way/148820286","name":"Bofors kraftverk","fuel":"hydro","source":"hydro","capacityMW":4.2,"operator":"Fortum"}},{"type":"Feature","geometry":{"type":"Point","coordinates":[20.05061,63.85158]},"properties":{"id":"way/149780033","name":"Stornorrfors","fuel":"hydro","source":"hydro","method":"water-storage","capacityMW":599,"operator":"Vattenfall","start":"1958"}},{"type":"Feature","geometry":{"type":"Point","coordinates":[14.01055,57.17214]},"properties":{"id":"relation/14573736","name":"Värmeverket","fuel":"bioenergy","source":"biomass","operator":"Värnamo Energi","start":"2015"}},{"type":"Feature","geometry":{"type":"Point","coordinates":[17.84775,59.42761]},"properties":{"id":"way/152100483","name":"Säbyverket","fuel":"other"}},{"type":"Feature","geometry":{"type":"Point","coordinates":[15.14789,60.04735]},"properties":{"id":"way/161291216","name":"Hällsjöns kraftstation","fuel":"hydro","source":"hydro","method":"run-of-the-river","operator":"VB-Energi"}},{"type":"Feature","geometry":{"type":"Point","coordinates":[13.25813,55.78837]},"properties":{"id":"way/163989595","name":"Örtoftaverket","fuel":"bioenergy","source":"biomass","method":"combustion","capacityMW":38,"operator":"Kraftringen","start":"2014"}},{"type":"Feature","geometry":{"type":"Point","coordinates":[17.79829,59.7379]},"properties":{"id":"way/170644433","name":"Knivsta Värmeverk","fuel":"bioenergy","source":"biofuel","operator":"Vattenfall","start":"1976"}},{"type":"Feature","geometry":{"type":"Point","coordinates":[13.54531,57.29712]},"properties":{"id":"way/170656230","name":"Gyllenfors kraftstation","fuel":"hydro","source":"hydro","method":"run-of-the-river","capacityMW":1}},{"type":"Feature","geometry":{"type":"Point","coordinates":[12.87336,56.69028]},"properties":{"id":"way/171280548","name":"Slottsmöllan kraftstation","fuel":"hydro","source":"hydro","capacityMW":1.2}},{"type":"Feature","geometry":{"type":"Point","coordinates":[18.25484,64.71381]},"properties":{"id":"way/174481136","name":"Rusfors kraftstation","fuel":"hydro","source":"hydro"}},{"type":"Feature","geometry":{"type":"Point","coordinates":[18.4688,63.25017]},"properties":{"id":"way/176514434","name":"Unnamed site","fuel":"hydro","source":"hydro","method":"water-storage"}},{"type":"Feature","geometry":{"type":"Point","coordinates":[15.17648,59.26492]},"properties":{"id":"way/180746706","name":"E.ON Åbyverket","fuel":"bioenergy","source":"biomass;oil","method":"combustion","capacityMW":150,"operator":"E.ON","start":"1960"}},{"type":"Feature","geometry":{"type":"Point","coordinates":[18.6005,63.56343]},"properties":{"id":"way/180852169","name":"Björna kraftstation","fuel":"hydro","source":"hydro"}},{"type":"Feature","geometry":{"type":"Point","coordinates":[12.44436,63.24978]},"properties":{"id":"way/181196538","name":"Handöl Övre","fuel":"hydro","source":"hydro"}},{"type":"Feature","geometry":{"type":"Point","coordinates":[17.29178,62.20972]},"properties":{"id":"way/183311997","name":"Unnamed site","fuel":"hydro","source":"hydro","method":"water-storage"}},{"type":"Feature","geometry":{"type":"Point","coordinates":[12.31983,58.30551]},"properties":{"id":"way/184733015","name":"Stallbacka värmeverk","fuel":"bioenergy","source":"biofuel","method":"combustion"}},{"type":"Feature","geometry":{"type":"Point","coordinates":[17.44245,60.56326]},"properties":{"id":"way/185674360","name":"Älvkarleby kraftverket","fuel":"hydro","source":"hydro","method":"water-storage","capacityMW":125}},{"type":"Feature","geometry":{"type":"Point","coordinates":[15.23767,63.23925]},"properties":{"id":"way/187832612","name":"Midskog kraftverk","fuel":"hydro","source":"hydro","capacityMW":155,"operator":"Vattenfall","start":"1944"}},{"type":"Feature","geometry":{"type":"Point","coordinates":[14.62808,62.48908]},"properties":{"id":"relation/10550792","name":"Rätans kraftverk","fuel":"hydro","source":"hydro","capacityMW":60,"start":"1968"}},{"type":"Feature","geometry":{"type":"Point","coordinates":[12.90697,56.69262]},"properties":{"id":"way/188532622","name":"Kristinehedsverket","fuel":"other"}},{"type":"Feature","geometry":{"type":"Point","coordinates":[14.14679,61.14637]},"properties":{"id":"relation/10544123","name":"Blybergs kraftverk","fuel":"hydro","source":"hydro","method":"water-storage","capacityMW":15}},{"type":"Feature","geometry":{"type":"Point","coordinates":[13.05004,56.5156]},"properties":{"id":"way/191640174","name":"Laholm vattenkraftverk","fuel":"hydro","source":"hydro","capacityMW":11.3,"operator":"Statkraft Sverige AB"}},{"type":"Feature","geometry":{"type":"Point","coordinates":[15.49205,58.45121]},"properties":{"id":"way/192236158","name":"Svartåfors kraftstation","fuel":"hydro","source":"hydro","method":"water-storage","operator":"Tekniska verken","start":"1919"}},{"type":"Feature","geometry":{"type":"Point","coordinates":[15.4699,58.52441]},"properties":{"id":"way/192242096","name":"Malfors Vattenkraftstation - utskovsdammen","fuel":"hydro","source":"hydro"}},{"type":"Feature","geometry":{"type":"Point","coordinates":[14.60835,59.37787]},"properties":{"id":"way/193855901","name":"Skråmmens kraftstation","fuel":"hydro","source":"hydro","method":"run-of-the-river","capacityMW":4.1,"operator":"Fortum"}},{"type":"Feature","geometry":{"type":"Point","coordinates":[14.64464,59.39573]},"properties":{"id":"way/193855902","name":"Brattforsens kraftstation","fuel":"hydro","source":"hydro","method":"run-of-the-river","capacityMW":8,"operator":"Fortum","start":"1940"}},{"type":"Feature","geometry":{"type":"Point","coordinates":[13.37042,63.32693]},"properties":{"id":"way/194293309","name":"Slagsåns kraftstation","fuel":"hydro","source":"hydro","method":"run-of-the-river"}},{"type":"Feature","geometry":{"type":"Point","coordinates":[17.38753,62.5197]},"properties":{"id":"way/197025785","name":"Bergeforsens Kraftverk","fuel":"hydro","source":"hydro","capacityMW":174}},{"type":"Feature","geometry":{"type":"Point","coordinates":[14.59214,59.36784]},"properties":{"id":"way/201381441","name":"Karåsens kraftstation","fuel":"hydro","source":"hydro","method":"run-of-the-river","capacityMW":12.5,"operator":"Fortum","start":"1936"}},{"type":"Feature","geometry":{"type":"Point","coordinates":[14.59209,59.36775]},"properties":{"id":"way/201381548","name":"Unnamed site","fuel":"other"}},{"type":"Feature","geometry":{"type":"Point","coordinates":[15.71291,60.34662]},"properties":{"id":"way/203688692","name":"Säters värmeverk","fuel":"bioenergy","source":"biomass","method":"combustion","capacityMW":1.7,"operator":"Hedemora Energi"}},{"type":"Feature","geometry":{"type":"Point","coordinates":[16.67175,57.41474]},"properties":{"id":"way/207201382","name":"Oskarshamns kärnkraftverk","fuel":"nuclear","source":"nuclear","method":"fission","capacityMW":1450,"operator":"OKG Aktiebolag","start":"1972"}},{"type":"Feature","geometry":{"type":"Point","coordinates":[13.09553,55.69156]},"properties":{"id":"way/210055587","name":"Kraftvärmeverket Återbruket","fuel":"other","method":"combustion","operator":"Kraftringen"}},{"type":"Feature","geometry":{"type":"Point","coordinates":[18.14604,62.88902]},"properties":{"id":"way/210824599","name":"Salteå kraftverk","fuel":"hydro","source":"hydro"}},{"type":"Feature","geometry":{"type":"Point","coordinates":[13.95853,63.18621]},"properties":{"id":"way/213931197","name":"Dammån","fuel":"hydro","source":"hydro","method":"run-of-the-river"}},{"type":"Feature","geometry":{"type":"Point","coordinates":[13.44973,62.43479]},"properties":{"id":"way/218367151","name":"Halvfari","fuel":"hydro","source":"hydro","method":"run-of-the-river","capacityMW":24}},{"type":"Feature","geometry":{"type":"Point","coordinates":[16.40401,61.39654]},"properties":{"id":"way/219119558","name":"Dönje","fuel":"hydro","source":"hydro","method":"water-storage"}},{"type":"Feature","geometry":{"type":"Point","coordinates":[14.67554,63.65128]},"properties":{"id":"way/219589723","name":"Näsforsen","fuel":"hydro","source":"hydro","method":"run-of-the-river"}},{"type":"Feature","geometry":{"type":"Point","coordinates":[18.10763,59.35728]},"properties":{"id":"way/228678494","name":"Värmeverk Ropsten 3","fuel":"other","operator":"Fortum"}},{"type":"Feature","geometry":{"type":"Point","coordinates":[14.58149,63.32646]},"properties":{"id":"way/233416740","name":"Kattstrupeforsens kraftverk","fuel":"hydro","source":"hydro","capacityMW":56,"operator":"Jämtkraft","start":"1942"}},{"type":"Feature","geometry":{"type":"Point","coordinates":[17.45925,60.57045]},"properties":{"id":"way/239636357","name":"Unnamed site","fuel":"bioenergy","source":"biofuel"}},{"type":"Feature","geometry":{"type":"Point","coordinates":[17.41577,60.53061]},"properties":{"id":"way/240298780","name":"Lanforsen","fuel":"hydro","source":"hydro","capacityMW":44,"operator":"Fortum"}},{"type":"Feature","geometry":{"type":"Point","coordinates":[20.65226,66.42857]},"properties":{"id":"way/241929120","name":"Porsi Kraftstation","fuel":"hydro","source":"hydro","capacityMW":282,"operator":"Vattenfall","start":"1962"}},{"type":"Feature","geometry":{"type":"Point","coordinates":[16.35743,63.11378]},"properties":{"id":"way/245336770","name":"Hammarforsen","fuel":"hydro","source":"hydro","method":"water-storage","capacityMW":80,"operator":"Statkraft","start":"1928"}},{"type":"Feature","geometry":{"type":"Point","coordinates":[15.42198,57.63587]},"properties":{"id":"way/246140912","name":"Ingatorps fjärrvärmeverk","fuel":"other"}},{"type":"Feature","geometry":{"type":"Point","coordinates":[15.53203,59.1626]},"properties":{"id":"way/248690965","name":"Unnamed site","fuel":"solar","source":"solar","method":"thermal"}},{"type":"Feature","geometry":{"type":"Point","coordinates":[18.25633,59.32546]},"properties":{"id":"way/251779511","name":"Orminge Panncentral","fuel":"bioenergy","source":"biofuel","operator":"Fortum Värme AB","start":"1968"}},{"type":"Feature","geometry":{"type":"Point","coordinates":[18.58343,66.9772]},"properties":{"id":"way/252965903","name":"Seitevare Kraftstation","fuel":"hydro","source":"hydro","method":"water-storage","capacityMW":225,"operator":"Vattenfall","start":"1967"}},{"type":"Feature","geometry":{"type":"Point","coordinates":[17.93326,62.64685]},"properties":{"id":"way/252968277","name":"Härnösand Energi & Miljö - Kraftvärmeverket","fuel":"other"}},{"type":"Feature","geometry":{"type":"Point","coordinates":[21.21227,65.53297]},"properties":{"id":"way/253362796","name":"Sikfors Kraftstation","fuel":"hydro","source":"hydro","method":"water-storage","capacityMW":40,"operator":"Skelleftekraft"}},{"type":"Feature","geometry":{"type":"Point","coordinates":[13.79203,61.27263]},"properties":{"id":"way/253838592","name":"Ugsiåns kraftstation","fuel":"hydro","source":"hydro","method":"water-storage"}},{"type":"Feature","geometry":{"type":"Point","coordinates":[15.18738,56.43183]},"properties":{"id":"way/254843909","name":"Unnamed site","fuel":"hydro","source":"hydro","method":"water-storage"}},{"type":"Feature","geometry":{"type":"Point","coordinates":[16.46264,60.83829]},"properties":{"id":"way/255960432","name":"Unnamed site","fuel":"hydro","source":"hydro","method":"run-of-the-river","capacityMW":0.95,"operator":"Småkraft","start":"1905-01-01"}},{"type":"Feature","geometry":{"type":"Point","coordinates":[14.56838,59.62885]},"properties":{"id":"way/256241748","name":"Älvestorp kraftverk","fuel":"hydro","source":"hydro","capacityMW":4.2,"operator":"Karlskoga Energi & Miljö AB","start":"1907"}},{"type":"Feature","geometry":{"type":"Point","coordinates":[14.81509,57.84089]},"properties":{"id":"way/257475996","name":"Vattenkraftverket","fuel":"hydro","source":"hydro","capacityMW":0.32,"operator":"Skånska Energi AB","start":"1950"}},{"type":"Feature","geometry":{"type":"Point","coordinates":[15.61253,60.60723]},"properties":{"id":"way/257612679","name":"Västermalmsverket","fuel":"bioenergy","source":"biomass;oil;gas","capacityMW":18}},{"type":"Feature","geometry":{"type":"Point","coordinates":[14.82537,57.84894]},"properties":{"id":"way/258067707","name":"Stalpet Vattenkraftverket","fuel":"hydro","source":"hydro","capacityMW":0.78,"operator":"Skånska Energi AB","start":"1932"}},{"type":"Feature","geometry":{"type":"Point","coordinates":[17.26632,63.1716]},"properties":{"id":"way/258931041","name":"Sollefteå kraftverk","fuel":"hydro","source":"hydro","method":"water-storage","capacityMW":62,"operator":"Sollefteåforsens AB"}},{"type":"Feature","geometry":{"type":"Point","coordinates":[18.59314,60.0784]},"properties":{"id":"way/260352590","name":"Unnamed site","fuel":"other"}},{"type":"Feature","geometry":{"type":"Point","coordinates":[14.15139,56.55659]},"properties":{"id":"way/260680013","name":"Unnamed site","fuel":"other"}},{"type":"Feature","geometry":{"type":"Point","coordinates":[15.96513,58.53816]},"properties":{"id":"way/260765728","name":"Kimstad kraftvärmeverk","fuel":"gas","source":"gas","method":"combustion","operator":"Vattenfall Service Nordic AB"}},{"type":"Feature","geometry":{"type":"Point","coordinates":[12.2053,57.68708]},"properties":{"id":"way/261219753","name":"Unnamed site","fuel":"other"}},{"type":"Feature","geometry":{"type":"Point","coordinates":[16.51366,60.80418]},"properties":{"id":"way/262580524","name":"Unnamed site","fuel":"hydro","source":"hydro"}},{"type":"Feature","geometry":{"type":"Point","coordinates":[16.66271,60.84273]},"properties":{"id":"way/262870361","name":"Unnamed site","fuel":"hydro","source":"hydro","method":"water-storage"}},{"type":"Feature","geometry":{"type":"Point","coordinates":[14.43596,59.23002]},"properties":{"id":"way/264737775","name":"Degerfors kraftverk","fuel":"hydro","source":"hydro","method":"run-of-the-river","capacityMW":6.4,"operator":"Fortum","start":"1946"}},{"type":"Feature","geometry":{"type":"Point","coordinates":[19.79587,66.95417]},"properties":{"id":"way/268923429","name":"Porjus gamla kraftstation","fuel":"hydro","source":"hydro","capacityMW":10,"operator":"Vattenfall AB"}},{"type":"Feature","geometry":{"type":"Point","coordinates":[11.89832,57.86614]},"properties":{"id":"way/271615363","name":"Unnamed site","fuel":"solar","source":"solar","method":"photovoltaic"}},{"type":"Feature","geometry":{"type":"Point","coordinates":[16.77619,63.63644]},"properties":{"id":"way/279194466","name":"Långbjörn Kraftverk","fuel":"hydro","source":"hydro","method":"water-storage"}},{"type":"Feature","geometry":{"type":"Point","coordinates":[17.00054,58.74316]},"properties":{"id":"way/280033091","name":"Idbäckens Kraftvärmeverk","fuel":"other"}},{"type":"Feature","geometry":{"type":"Point","coordinates":[16.41834,61.42796]},"properties":{"id":"way/281273089","name":"Lottefors","fuel":"hydro","source":"hydro"}},{"type":"Feature","geometry":{"type":"Point","coordinates":[16.62361,61.27144]},"properties":{"id":"way/282895397","name":"Landafors","fuel":"hydro","source":"hydro","operator":"Fortum Generation AB","start":"1976"}},{"type":"Feature","geometry":{"type":"Point","coordinates":[16.42975,61.31285]},"properties":{"id":"way/285297833","name":"Lenninge","fuel":"hydro","source":"hydro","method":"run-of-the-river","capacityMW":2.7,"operator":"Fortum Generation AB"}},{"type":"Feature","geometry":{"type":"Point","coordinates":[16.00083,61.34553]},"properties":{"id":"way/285297834","name":"Alfta","fuel":"hydro","source":"hydro","method":"run-of-the-river","capacityMW":32.4,"operator":"Voxnan Kraft AB","start":"1946"}},{"type":"Feature","geometry":{"type":"Point","coordinates":[16.38655,61.31737]},"properties":{"id":"way/285297835","name":"Sunnerstaholm","fuel":"hydro","source":"hydro","method":"water-storage","capacityMW":6,"operator":"Fortum Generation AB"}},{"type":"Feature","geometry":{"type":"Point","coordinates":[19.56161,64.01638]},"properties":{"id":"way/286856255","name":"Harrsele Kraftverk","fuel":"hydro","source":"hydro","method":"water-storage","capacityMW":223,"operator":"Statkraft","start":"1957-01-01"}},{"type":"Feature","geometry":{"type":"Point","coordinates":[19.66465,63.93032]},"properties":{"id":"way/286876143","name":"Pengfors kraftverk","fuel":"hydro","source":"hydro","capacityMW":69,"operator":"Vattenfall"}},{"type":"Feature","geometry":{"type":"Point","coordinates":[14.00944,56.3374]},"properties":{"id":"way/289078599","name":"Unnamed site","fuel":"hydro","source":"hydro","method":"water-storage"}},{"type":"Feature","geometry":{"type":"Point","coordinates":[15.62258,63.16326]},"properties":{"id":"way/290215553","name":"Stugun","fuel":"hydro","source":"hydro"}},{"type":"Feature","geometry":{"type":"Point","coordinates":[14.81379,64.34308]},"properties":{"id":"way/291475659","name":"Bågede kraftverk","fuel":"hydro","source":"hydro","method":"run-of-the-river"}},{"type":"Feature","geometry":{"type":"Point","coordinates":[14.1509,64.50273]},"properties":{"id":"way/291508157","name":"Gäddede kraftverk","fuel":"hydro","source":"hydro","method":"water-storage","capacityMW":22,"operator":"Statkraft;Holmen Energi","start":"1974"}},{"type":"Feature","geometry":{"type":"Point","coordinates":[17.48652,67.72932]},"properties":{"id":"way/292593490","name":"Ritsem Kraftstation","fuel":"hydro","source":"hydro","method":"water-storage","capacityMW":304,"operator":"Vattenfall","start":"1978"}},{"type":"Feature","geometry":{"type":"Point","coordinates":[12.62092,59.53111]},"properties":{"id":"way/298560307","name":"Glava Energy Center","fuel":"solar","source":"solar"}},{"type":"Feature","geometry":{"type":"Point","coordinates":[17.23328,65.05233]},"properties":{"id":"way/299741974","name":"Stensele kraftverk","fuel":"hydro","source":"hydro"}},{"type":"Feature","geometry":{"type":"Point","coordinates":[17.57869,64.96231]},"properties":{"id":"way/299750667","name":"Grundfors kraftstation","fuel":"hydro","source":"hydro"}},{"type":"Feature","geometry":{"type":"Point","coordinates":[12.17475,57.7493]},"properties":{"id":"way/300897875","name":"Jonsereds Kraftverk","fuel":"hydro","source":"hydro","capacityMW":1.9,"start":"1903"}},{"type":"Feature","geometry":{"type":"Point","coordinates":[16.74312,64.51953]},"properties":{"id":"way/303233978","name":"Volgsjöfors vattenkraftverk","fuel":"hydro","source":"hydro","method":"water-storage","operator":"Statkraft","start":"1980"}},{"type":"Feature","geometry":{"type":"Point","coordinates":[12.48178,58.602]},"properties":{"id":"way/303439750","name":"Åsebro kraftstation","fuel":"hydro","source":"hydro","method":"run-of-the-river"}},{"type":"Feature","geometry":{"type":"Point","coordinates":[13.67349,56.75928]},"properties":{"id":"way/303445778","name":"Skeens Kraftverk","fuel":"hydro","source":"hydro","capacityMW":4.6,"operator":"Statkraft Sverige AB","start":"1954"}},{"type":"Feature","geometry":{"type":"Point","coordinates":[15.09778,57.83114]},"properties":{"id":"way/303447507","name":"Olstorp Vattenkraftsstation","fuel":"hydro","source":"hydro","method":"run-of-the-river","operator":"Tranås Energi AB","start":"1913"}},{"type":"Feature","geometry":{"type":"Point","coordinates":[17.12116,61.20605]},"properties":{"id":"way/307599442","name":"Ljusnefors","fuel":"hydro","source":"hydro","method":"water-storage"}},{"type":"Feature","geometry":{"type":"Point","coordinates":[14.10663,58.98635]},"properties":{"id":"way/308802455","name":"Gullspångs kraftverk","fuel":"hydro","source":"hydro","method":"run-of-the-river","capacityMW":40,"operator":"Fortum","start":"1906"}},{"type":"Feature","geometry":{"type":"Point","coordinates":[15.42359,60.51963]},"properties":{"id":"way/309797179","name":"Unnamed site","fuel":"bioenergy","source":"biomass;coal","operator":"Borlänge Energi"}},{"type":"Feature","geometry":{"type":"Point","coordinates":[11.95119,57.63839]},"properties":{"id":"way/311393891","name":"Unnamed site","fuel":"other"}},{"type":"Feature","geometry":{"type":"Point","coordinates":[12.71457,57.93561]},"properties":{"id":"way/314096677","name":"Unnamed site","fuel":"hydro","source":"hydro","method":"run-of-the-river"}},{"type":"Feature","geometry":{"type":"Point","coordinates":[17.17744,62.30858]},"properties":{"id":"way/315963137","name":"Viforsens kraftstation","fuel":"hydro","source":"hydro"}},{"type":"Feature","geometry":{"type":"Point","coordinates":[17.82443,59.36222]},"properties":{"id":"way/321357861","name":"Unnamed site","fuel":"other"}},{"type":"Feature","geometry":{"type":"Point","coordinates":[15.7517,60.87185]},"properties":{"id":"way/321606127","name":"Tängers kraftverk","fuel":"hydro","source":"hydro","capacityMW":4.6,"operator":"Fortum Generation AB","start":"2005"}},{"type":"Feature","geometry":{"type":"Point","coordinates":[13.01154,55.57831]},"properties":{"id":"way/327881937","name":"Heleneholmsverket","fuel":"bioenergy","source":"biogas","method":"combustion","start":"1960"}},{"type":"Feature","geometry":{"type":"Point","coordinates":[17.23508,63.17612]},"properties":{"id":"way/330603497","name":"Sollefteå värmeverk","fuel":"other","start":"1986"}},{"type":"Feature","geometry":{"type":"Point","coordinates":[16.22409,62.08374]},"properties":{"id":"way/332251447","name":"Tvärforsens Kraftverk","fuel":"hydro","source":"hydro","method":"water-storage","operator":"Downing Hydro"}},{"type":"Feature","geometry":{"type":"Point","coordinates":[12.25235,57.1207]},"properties":{"id":"way/336669552","name":"Flisan af Varberg","fuel":"bioenergy","source":"biomass;biooil;gas","method":"combustion","operator":"Varberg Energi","start":"2013-06-07"}},{"type":"Feature","geometry":{"type":"Point","coordinates":[12.23936,57.48884]},"properties":{"id":"way/337061719","name":"Ålgårda kraftverk","fuel":"hydro","source":"hydro","method":"run-of-the-river"}},{"type":"Feature","geometry":{"type":"Point","coordinates":[14.0542,58.28129]},"properties":{"id":"way/346649368","name":"Blikstorps kraftverk","fuel":"hydro","source":"hydro"}},{"type":"Feature","geometry":{"type":"Point","coordinates":[12.22051,58.19682]},"properties":{"id":"way/347682139","name":"Sjuntorps kraftverk","fuel":"hydro","source":"hydro","capacityMW":1.8}},{"type":"Feature","geometry":{"type":"Point","coordinates":[12.92499,56.6978]},"properties":{"id":"way/347906725","name":"Sperlingsholm kraftstation","fuel":"hydro","source":"hydro","capacityMW":2,"operator":"Sperlingsholms gods AB"}},{"type":"Feature","geometry":{"type":"Point","coordinates":[11.48583,58.18303]},"properties":{"id":"way/359248699","name":"Unnamed site","fuel":"solar","source":"solar","method":"thermal"}},{"type":"Feature","geometry":{"type":"Point","coordinates":[14.18137,61.97625]},"properties":{"id":"way/361398107","name":"Kvarnforsens kraftverk","fuel":"hydro","source":"hydro","method":"water-storage"}},{"type":"Feature","geometry":{"type":"Point","coordinates":[11.55695,57.99152]},"properties":{"id":"way/361556835","name":"Unnamed site","fuel":"other"}},{"type":"Feature","geometry":{"type":"Point","coordinates":[12.28773,58.69731]},"properties":{"id":"way/364937674","name":"Unnamed site","fuel":"hydro","source":"hydro"}},{"type":"Feature","geometry":{"type":"Point","coordinates":[18.17111,60.17419]},"properties":{"id":"way/371551556","name":"Unnamed site","fuel":"other"}},{"type":"Feature","geometry":{"type":"Point","coordinates":[13.10227,59.79241]},"properties":{"id":"way/376641918","name":"Rottnens kraftverk","fuel":"hydro","source":"hydro","method":"run-of-the-river","capacityMW":17,"operator":"Fortum"}},{"type":"Feature","geometry":{"type":"Point","coordinates":[13.42478,60.79602]},"properties":{"id":"way/381757169","name":"Lima Kraftverk","fuel":"hydro","source":"hydro","method":"water-storage"}},{"type":"Feature","geometry":{"type":"Point","coordinates":[13.53894,59.84724]},"properties":{"id":"way/382542372","name":"Munkfors kraftverk","fuel":"hydro","source":"hydro","method":"run-of-the-river","capacityMW":33}},{"type":"Feature","geometry":{"type":"Point","coordinates":[13.52566,60.06528]},"properties":{"id":"way/382943259","name":"Edsforsens kraftverk","fuel":"hydro","source":"hydro","method":"run-of-the-river","capacityMW":9,"operator":"Fortum"}},{"type":"Feature","geometry":{"type":"Point","coordinates":[17.0064,63.68387]},"properties":{"id":"way/385621341","name":"Edensforsens Kraftverk","fuel":"hydro","source":"hydro"}},{"type":"Feature","geometry":{"type":"Point","coordinates":[15.77659,60.65116]},"properties":{"id":"way/390978550","name":"Sundborns kraftstation","fuel":"hydro","source":"hydro","method":"water-storage"}},{"type":"Feature","geometry":{"type":"Point","coordinates":[14.14126,56.53103]},"properties":{"id":"way/395176306","name":"Unnamed site","fuel":"other"}},{"type":"Feature","geometry":{"type":"Point","coordinates":[14.99036,60.51349]},"properties":{"id":"way/405574149","name":"Lindbyn","fuel":"hydro","source":"hydro"}},{"type":"Feature","geometry":{"type":"Point","coordinates":[14.11307,58.63124]},"properties":{"id":"way/411098601","name":"Unnamed site","fuel":"hydro","source":"hydro"}},{"type":"Feature","geometry":{"type":"Point","coordinates":[14.16199,57.50081]},"properties":{"id":"way/413100938","name":"Unnamed site","fuel":"bioenergy","source":"biomass","method":"combustion","operator":"Vaggeryds kommun"}},{"type":"Feature","geometry":{"type":"Point","coordinates":[13.9554,56.85126]},"properties":{"id":"way/416602472","name":"Ljungsjöverket","fuel":"other","operator":"Ljungby Energi","start":"2000"}},{"type":"Feature","geometry":{"type":"Point","coordinates":[13.95032,56.83058]},"properties":{"id":"way/419352793","name":"Ljungby kraftverk","fuel":"hydro","source":"hydro","method":"run-of-the-river","capacityMW":1.8,"operator":"Ljungby Energi","start":"1910"}},{"type":"Feature","geometry":{"type":"Point","coordinates":[13.97187,58.18911]},"properties":{"id":"way/429046665","name":"Kullö kraftverk","fuel":"hydro","source":"hydro"}},{"type":"Feature","geometry":{"type":"Point","coordinates":[12.95722,59.35418]},"properties":{"id":"way/430862867","name":"Borgviks kraftstation","fuel":"hydro","source":"hydro","method":"run-of-the-river"}},{"type":"Feature","geometry":{"type":"Point","coordinates":[15.40074,60.69992]},"properties":{"id":"way/435629629","name":"Unnamed site","fuel":"other"}},{"type":"Feature","geometry":{"type":"Point","coordinates":[15.2406,59.58837]},"properties":{"id":"way/436956105","name":"Unnamed site","fuel":"hydro","source":"hydro"}},{"type":"Feature","geometry":{"type":"Point","coordinates":[15.53225,59.16336]},"properties":{"id":"way/439075223","name":"Unnamed site","fuel":"bioenergy","source":"biomass","method":"combustion","operator":"Solör Bioenergi Fjärrvärme AB"}},{"type":"Feature","geometry":{"type":"Point","coordinates":[12.54015,60.95049]},"properties":{"id":"way/440016102","name":"Höljes kraftverk","fuel":"hydro","source":"hydro","method":"run-of-the-river","capacityMW":130,"operator":"Fortum","start":"1962"}},{"type":"Feature","geometry":{"type":"Point","coordinates":[15.90696,60.73302]},"properties":{"id":"way/442421100","name":"Borgärdets Kraftverk","fuel":"hydro","source":"hydro"}},{"type":"Feature","geometry":{"type":"Point","coordinates":[12.01892,58.3516]},"properties":{"id":"way/446515072","name":"Groröd kraftstation","fuel":"hydro","source":"hydro","operator":"Uddevalla Energi"}},{"type":"Feature","geometry":{"type":"Point","coordinates":[12.12134,58.32412]},"properties":{"id":"way/447931259","name":"Kollerö kraftstation","fuel":"hydro","source":"hydro","capacityMW":0.37,"operator":"Uddevalla Energi","start":"1937"}},{"type":"Feature","geometry":{"type":"Point","coordinates":[17.48001,58.95447]},"properties":{"id":"way/448828605","name":"Unnamed site","fuel":"other","operator":"StatKraft"}},{"type":"Feature","geometry":{"type":"Point","coordinates":[16.47684,60.17361]},"properties":{"id":"way/451785088","name":"Näs","fuel":"hydro","source":"hydro","method":"water-storage","capacityMW":24,"operator":"Vattenfall"}},{"type":"Feature","geometry":{"type":"Point","coordinates":[13.88443,58.38384]},"properties":{"id":"way/457859619","name":"Skövde Värmeverk","fuel":"other","method":"combustion"}},{"type":"Feature","geometry":{"type":"Point","coordinates":[17.2414,60.38202]},"properties":{"id":"way/461885232","name":"Söderfors","fuel":"hydro","source":"hydro","method":"water-storage","capacityMW":20,"operator":"Vattenfall"}},{"type":"Feature","geometry":{"type":"Point","coordinates":[16.57232,63.02897]},"properties":{"id":"way/469360941","name":"Svarthålsforsen","fuel":"hydro","source":"hydro"}},{"type":"Feature","geometry":{"type":"Point","coordinates":[16.6575,62.9782]},"properties":{"id":"way/469402324","name":"Stadsforsen","fuel":"hydro","source":"hydro"}},{"type":"Feature","geometry":{"type":"Point","coordinates":[11.92368,58.34478]},"properties":{"id":"way/469776917","name":"Unnamed site","fuel":"other"}},{"type":"Feature","geometry":{"type":"Point","coordinates":[17.02168,63.15473]},"properties":{"id":"way/469896553","name":"Forsse","fuel":"hydro","source":"hydro"}},{"type":"Feature","geometry":{"type":"Point","coordinates":[16.38866,61.47742]},"properties":{"id":"way/471002851","name":"Norränge","fuel":"hydro","source":"hydro"}},{"type":"Feature","geometry":{"type":"Point","coordinates":[16.07103,63.14715]},"properties":{"id":"way/471015840","name":"Krångede kraftverk","fuel":"hydro","source":"hydro"}},{"type":"Feature","geometry":{"type":"Point","coordinates":[16.16082,63.14169]},"properties":{"id":"way/471044151","name":"Gammelänge kraftstation","fuel":"hydro","source":"hydro"}},{"type":"Feature","geometry":{"type":"Point","coordinates":[16.66415,62.79725]},"properties":{"id":"way/471407261","name":"Järkvissle","fuel":"hydro","source":"hydro","operator":"Vattenfall"}},{"type":"Feature","geometry":{"type":"Point","coordinates":[16.66736,62.95019]},"properties":{"id":"way/471414570","name":"Hölleforsen","fuel":"hydro","source":"hydro","operator":"Vattenfall"}},{"type":"Feature","geometry":{"type":"Point","coordinates":[14.30348,62.61]},"properties":{"id":"way/471720385","name":"Trångfors","fuel":"hydro","source":"hydro","method":"water-storage"}},{"type":"Feature","geometry":{"type":"Point","coordinates":[12.95932,63.70128]},"properties":{"id":"way/471732538","name":"Juvelns kraftverk","fuel":"hydro","source":"hydro","method":"water-storage"}},{"type":"Feature","geometry":{"type":"Point","coordinates":[13.38422,63.39019]},"properties":{"id":"way/471732541","name":"Järpströmmen","fuel":"hydro","source":"hydro","capacityMW":114}},{"type":"Feature","geometry":{"type":"Point","coordinates":[13.68747,63.29685]},"properties":{"id":"way/471732544","name":"Mörsil","fuel":"hydro","source":"hydro","method":"run-of-the-river"}},{"type":"Feature","geometry":{"type":"Point","coordinates":[15.32217,63.22109]},"properties":{"id":"way/471738468","name":"Näverede kraftverk","fuel":"hydro","source":"hydro","capacityMW":70,"operator":"Vattenfall","start":"1955"}},{"type":"Feature","geometry":{"type":"Point","coordinates":[15.4978,61.94345]},"properties":{"id":"way/471764866","name":"Laforsens kraftstation","fuel":"hydro","source":"hydro"}},{"type":"Feature","geometry":{"type":"Point","coordinates":[16.17055,61.76688]},"properties":{"id":"way/471769312","name":"Edänge","fuel":"hydro","source":"hydro"}},{"type":"Feature","geometry":{"type":"Point","coordinates":[21.55454,65.84542]},"properties":{"id":"way/474363295","name":"Vittjärvs Kraftstation","fuel":"hydro","source":"hydro","capacityMW":30,"operator":"Vattenfall","start":"1971-1974"}},{"type":"Feature","geometry":{"type":"Point","coordinates":[21.67277,65.80761]},"properties":{"id":"way/474363296","name":"Bodens Kraftstaton","fuel":"hydro","source":"hydro","capacityMW":78,"operator":"Vattenfall AB","start":"1971"}},{"type":"Feature","geometry":{"type":"Point","coordinates":[16.84397,66.42523]},"properties":{"id":"way/477573033","name":"Sädva","fuel":"hydro","source":"hydro","method":"water-storage","operator":"Skellefteå Kraftaktiebolag"}},{"type":"Feature","geometry":{"type":"Point","coordinates":[14.00238,56.90321]},"properties":{"id":"way/481820322","name":"Åbyfors","fuel":"hydro","source":"hydro"}},{"type":"Feature","geometry":{"type":"Point","coordinates":[13.80023,60.08425]},"properties":{"id":"way/485667325","name":"Tranebergs kraftverk","fuel":"hydro","source":"hydro","capacityMW":0.8,"operator":"Fortum","start":"1949"}},{"type":"Feature","geometry":{"type":"Point","coordinates":[16.8316,61.25933]},"properties":{"id":"way/490756593","name":"Bergvik","fuel":"hydro","source":"hydro","method":"water-storage"}},{"type":"Feature","geometry":{"type":"Point","coordinates":[17.02694,62.34765]},"properties":{"id":"way/492033345","name":"Matfors kraftverk","fuel":"hydro","source":"hydro"}},{"type":"Feature","geometry":{"type":"Point","coordinates":[17.1247,63.81476]},"properties":{"id":"way/495724635","name":"Gulsele kraftverk","fuel":"hydro","source":"hydro"}},{"type":"Feature","geometry":{"type":"Point","coordinates":[17.02559,63.74225]},"properties":{"id":"way/495724639","name":"Degerforsens Kraftverk","fuel":"hydro","source":"hydro"}},{"type":"Feature","geometry":{"type":"Point","coordinates":[17.19521,63.88442]},"properties":{"id":"way/495725227","name":"Hällby kraftstation","fuel":"hydro","source":"hydro"}},{"type":"Feature","geometry":{"type":"Point","coordinates":[17.24416,64.28643]},"properties":{"id":"way/495727765","name":"Stenkullafors kraftstation","fuel":"hydro","source":"hydro"}},{"type":"Feature","geometry":{"type":"Point","coordinates":[16.37179,63.95457]},"properties":{"id":"way/497608951","name":"Borgforsens kraftstation","fuel":"hydro","source":"hydro"}},{"type":"Feature","geometry":{"type":"Point","coordinates":[16.43301,63.78287]},"properties":{"id":"way/497608953","name":"Fjällsjö","fuel":"hydro","source":"hydro"}},{"type":"Feature","geometry":{"type":"Point","coordinates":[17.28873,64.10201]},"properties":{"id":"way/497608967","name":"Åsele kraftstation","fuel":"hydro","source":"hydro"}},{"type":"Feature","geometry":{"type":"Point","coordinates":[16.25698,64.05931]},"properties":{"id":"way/497614571","name":"Hoting","fuel":"hydro","source":"hydro"}},{"type":"Feature","geometry":{"type":"Point","coordinates":[16.2818,63.89037]},"properties":{"id":"way/497614573","name":"Bodum","fuel":"hydro","source":"hydro"}},{"type":"Feature","geometry":{"type":"Point","coordinates":[16.76043,59.62532]},"properties":{"id":"way/500726017","name":"Solparken","fuel":"solar","source":"solar","method":"photovoltaic","capacityMW":1,"operator":"Kraftpojkarna","start":"2014-02-05"}},{"type":"Feature","geometry":{"type":"Point","coordinates":[12.1142,58.33054]},"properties":{"id":"way/501154085","name":"Jädersfors kraftverk","fuel":"hydro","source":"hydro","capacityMW":0.037}},{"type":"Feature","geometry":{"type":"Point","coordinates":[11.65505,58.02497]},"properties":{"id":"way/514904711","name":"Unnamed site","fuel":"other"}},{"type":"Feature","geometry":{"type":"Point","coordinates":[14.21198,63.33637]},"properties":{"id":"way/520968648","name":"Vaplan","fuel":"hydro","source":"hydro"}},{"type":"Feature","geometry":{"type":"Point","coordinates":[13.02284,60.24453]},"properties":{"id":"way/522278214","name":"Unnamed site","fuel":"other"}},{"type":"Feature","geometry":{"type":"Point","coordinates":[13.02995,60.26068]},"properties":{"id":"way/522278216","name":"Vattenkraftverk","fuel":"hydro","source":"hydro","method":"run-of-the-river"}},{"type":"Feature","geometry":{"type":"Point","coordinates":[14.33465,57.1929]},"properties":{"id":"way/524485560","name":"Ohs bruk","fuel":"hydro","source":"hydro"}},{"type":"Feature","geometry":{"type":"Point","coordinates":[12.64079,57.46585]},"properties":{"id":"way/528690345","name":"Haby kraftstation","fuel":"hydro","source":"hydro","capacityMW":5.28}},{"type":"Feature","geometry":{"type":"Point","coordinates":[12.6714,57.48621]},"properties":{"id":"way/528968206","name":"Kungsfors kraftstation","fuel":"hydro","source":"hydro","capacityMW":1.06}},{"type":"Feature","geometry":{"type":"Point","coordinates":[12.68147,57.51165]},"properties":{"id":"way/529342238","name":"Kinnaströms kraftstation","fuel":"hydro","source":"hydro","method":"run-of-the-river","capacityMW":0.625}},{"type":"Feature","geometry":{"type":"Point","coordinates":[17.66525,59.49719]},"properties":{"id":"way/540251996","name":"Unnamed site","fuel":"bioenergy","source":"biofuel","method":"combustion"}},{"type":"Feature","geometry":{"type":"Point","coordinates":[11.97441,57.88955]},"properties":{"id":"way/543968474","name":"Unnamed site","fuel":"solar","source":"solar","method":"photovoltaic","operator":"Kungälv Energi"}},{"type":"Feature","geometry":{"type":"Point","coordinates":[11.97586,57.88735]},"properties":{"id":"way/543968477","name":"Munkegärdeverket","fuel":"other","method":"combustion","operator":"Kungälv Energi"}},{"type":"Feature","geometry":{"type":"Point","coordinates":[14.08323,59.30954]},"properties":{"id":"way/545820309","name":"Unnamed site","fuel":"other"}},{"type":"Feature","geometry":{"type":"Point","coordinates":[19.50425,64.15577]},"properties":{"id":"way/545921985","name":"Bjurfors Övre kraftverk","fuel":"hydro","source":"hydro","capacityMW":42}},{"type":"Feature","geometry":{"type":"Point","coordinates":[16.25245,59.54559]},"properties":{"id":"way/548357915","name":"Unnamed site","fuel":"other"}},{"type":"Feature","geometry":{"type":"Point","coordinates":[12.3337,57.25957]},"properties":{"id":"way/548633243","name":"Kullagård kraftstation","fuel":"hydro","source":"hydro","capacityMW":0.45}},{"type":"Feature","geometry":{"type":"Point","coordinates":[14.22909,60.43838]},"properties":{"id":"way/551267729","name":"Eldforsens kraftstation","fuel":"hydro","source":"hydro","method":"water-storage"}},{"type":"Feature","geometry":{"type":"Point","coordinates":[15.69145,62.51753]},"properties":{"id":"way/554651210","name":"Parteboda kraftverk","fuel":"hydro","source":"hydro","method":"water-storage"}},{"type":"Feature","geometry":{"type":"Point","coordinates":[13.35178,56.50772]},"properties":{"id":"way/564446429","name":"Knäreds övre kraftverk","fuel":"hydro","source":"hydro","capacityMW":7.5,"start":"1910"}},{"type":"Feature","geometry":{"type":"Point","coordinates":[18.18289,65.58877]},"properties":{"id":"way/567184146","name":"Slagnäs kraftstation","fuel":"hydro","source":"hydro"}},{"type":"Feature","geometry":{"type":"Point","coordinates":[13.09212,57.99187]},"properties":{"id":"way/569092785","name":"Unnamed site","fuel":"other"}},{"type":"Feature","geometry":{"type":"Point","coordinates":[12.90387,63.384]},"properties":{"id":"way/573717949","name":"Kraftverk Duved","fuel":"hydro","source":"hydro","method":"water-storage","capacityMW":1.15,"operator":"Jämtkraft AB","start":"~1950"}},{"type":"Feature","geometry":{"type":"Point","coordinates":[15.56981,58.36913]},"properties":{"id":"way/582052530","name":"Lilla Askas solcellsanläggning","fuel":"solar","source":"solar","method":"photovoltaic"}},{"type":"Feature","geometry":{"type":"Point","coordinates":[15.70322,61.05357]},"properties":{"id":"way/598274775","name":"Dalstuga kraftverk","fuel":"hydro","source":"hydro"}},{"type":"Feature","geometry":{"type":"Point","coordinates":[12.87253,57.24211]},"properties":{"id":"way/608466794","name":"Ödegärdes kraftverk","fuel":"hydro","source":"hydro"}},{"type":"Feature","geometry":{"type":"Point","coordinates":[19.56726,64.10218]},"properties":{"id":"way/608754939","name":"Bjurfors nedre","fuel":"hydro","source":"hydro"}},{"type":"Feature","geometry":{"type":"Point","coordinates":[13.59255,59.99983]},"properties":{"id":"way/610276739","name":"Råda kraftverk","fuel":"hydro","source":"hydro","method":"run-of-the-river","capacityMW":2,"operator":"Fortum","start":"1938"}},{"type":"Feature","geometry":{"type":"Point","coordinates":[15.89309,62.00799]},"properties":{"id":"way/611276903","name":"Hennans kraftverk","fuel":"hydro","source":"hydro"}},{"type":"Feature","geometry":{"type":"Point","coordinates":[15.25802,62.02109]},"properties":{"id":"way/611311171","name":"Öjeforsens kraftverk","fuel":"hydro","source":"hydro"}},{"type":"Feature","geometry":{"type":"Point","coordinates":[13.76315,64.64877]},"properties":{"id":"way/612378653","name":"Linvasselv kraftverk","fuel":"hydro","source":"hydro","method":"water-storage","capacityMW":68,"operator":"Fortum;NTE Energi","start":"1962"}},{"type":"Feature","geometry":{"type":"Point","coordinates":[13.78981,60.29891]},"properties":{"id":"way/620421676","name":"Björnåsens kraftverk","fuel":"hydro","source":"hydro","capacityMW":2.3,"operator":"Malungs Elverk AB"}},{"type":"Feature","geometry":{"type":"Point","coordinates":[13.79948,60.35012]},"properties":{"id":"way/620421680","name":"Kviens kraftverk","fuel":"hydro","source":"hydro","capacityMW":2.7,"operator":"Malungs Elverk AB"}},{"type":"Feature","geometry":{"type":"Point","coordinates":[13.82996,60.14482]},"properties":{"id":"way/620421693","name":"Laggåsen","fuel":"hydro","source":"hydro","capacityMW":1.8,"operator":"Fortum Generation AB"}},{"type":"Feature","geometry":{"type":"Point","coordinates":[16.88052,63.4401]},"properties":{"id":"way/625105285","name":"Nämforsens kraftverk","fuel":"hydro","source":"hydro"}},{"type":"Feature","geometry":{"type":"Point","coordinates":[22.506,67.42568]},"properties":{"id":"way/626140973","name":"Unnamed site","fuel":"other"}},{"type":"Feature","geometry":{"type":"Point","coordinates":[16.12486,63.59905]},"properties":{"id":"way/627121488","name":"Storfinnforsen","fuel":"hydro","source":"hydro"}},{"type":"Feature","geometry":{"type":"Point","coordinates":[12.69962,59.31755]},"properties":{"id":"way/631394350","name":"Kolsäter kraftstation","fuel":"hydro","source":"hydro","method":"run-of-the-river"}},{"type":"Feature","geometry":{"type":"Point","coordinates":[13.69333,64.64198]},"properties":{"id":"way/642299411","name":"Havdal kraftverk","fuel":"hydro","source":"hydro","method":"run-of-the-river","capacityMW":2.5,"operator":"Småkraft","start":"2009"}},{"type":"Feature","geometry":{"type":"Point","coordinates":[12.1825,57.46145]},"properties":{"id":"way/657244604","name":"Unnamed site","fuel":"other"}},{"type":"Feature","geometry":{"type":"Point","coordinates":[15.83042,64.944]},"properties":{"id":"way/659297567","name":"Stalon","fuel":"hydro","source":"hydro"}},{"type":"Feature","geometry":{"type":"Point","coordinates":[12.7815,57.56465]},"properties":{"id":"way/662379648","name":"Fritsla kraftverk","fuel":"hydro","source":"hydro","capacityMW":0.6}},{"type":"Feature","geometry":{"type":"Point","coordinates":[12.57779,61.89371]},"properties":{"id":"way/662430996","name":"Båthusströmmen","fuel":"hydro","source":"hydro","method":"water-storage"}},{"type":"Feature","geometry":{"type":"Point","coordinates":[12.78783,57.55616]},"properties":{"id":"way/662928492","name":"Fritsla värmeverk","fuel":"other"}},{"type":"Feature","geometry":{"type":"Point","coordinates":[16.96222,62.3636]},"properties":{"id":"way/664123203","name":"Skallböle kraftstation","fuel":"hydro","source":"hydro"}},{"type":"Feature","geometry":{"type":"Point","coordinates":[14.47018,63.33145]},"properties":{"id":"way/664157267","name":"Hissmofors kraftverk","fuel":"hydro","source":"hydro","operator":"Jämtkraft","start":"2013"}},{"type":"Feature","geometry":{"type":"Point","coordinates":[12.30616,59.30519]},"properties":{"id":"way/668305936","name":"Karlsfors kraftstation","fuel":"hydro","source":"hydro","method":"run-of-the-river"}},{"type":"Feature","geometry":{"type":"Point","coordinates":[12.26739,59.33001]},"properties":{"id":"way/669760399","name":"Snarkil kraftstation","fuel":"hydro","source":"hydro","method":"run-of-the-river"}},{"type":"Feature","geometry":{"type":"Point","coordinates":[15.2963,56.26731]},"properties":{"id":"way/670280856","name":"Brantafors kraftstation","fuel":"hydro","source":"hydro","method":"run-of-the-river","operator":"E.ON Vattenkraft"}},{"type":"Feature","geometry":{"type":"Point","coordinates":[13.2211,57.46651]},"properties":{"id":"way/670989545","name":"Strömfors kraftverk","fuel":"hydro","source":"hydro"}},{"type":"Feature","geometry":{"type":"Point","coordinates":[18.03666,59.30217]},"properties":{"id":"way/678916881","name":"Årsta Värmeverk","fuel":"other","operator":"Stockholm Exergi"}},{"type":"Feature","geometry":{"type":"Point","coordinates":[14.22133,64.74786]},"properties":{"id":"way/681345872","name":"Sippmikks kraftstation","fuel":"hydro","source":"hydro","method":"water-storage"}},{"type":"Feature","geometry":{"type":"Point","coordinates":[13.59439,60.01018]},"properties":{"id":"way/695717910","name":"Unnamed site","fuel":"bioenergy","source":"biomass","method":"combustion","operator":"Råda Energi"}},{"type":"Feature","geometry":{"type":"Point","coordinates":[13.0756,56.93454]},"properties":{"id":"way/696078450","name":"Nyebro kraftstation","fuel":"hydro","source":"hydro","capacityMW":1.4}},{"type":"Feature","geometry":{"type":"Point","coordinates":[17.42671,59.23023]},"properties":{"id":"way/696258848","name":"Unnamed site","fuel":"hydro","source":"hydro"}},{"type":"Feature","geometry":{"type":"Point","coordinates":[16.9454,59.93769]},"properties":{"id":"way/713462754","name":"Unnamed site","fuel":"solar","source":"solar","method":"photovoltaic","capacityMW":0.036,"operator":"Solel i Sala & Heby","start":"2013-09"}},{"type":"Feature","geometry":{"type":"Point","coordinates":[13.79393,56.16294]},"properties":{"id":"way/717951986","name":"Beleverket Hässelholm","fuel":"other","method":"combustion","operator":"Hässleholm Miljö","start":"1980"}},{"type":"Feature","geometry":{"type":"Point","coordinates":[13.0413,55.62566]},"properties":{"id":"way/718209948","name":"Öresundsverket","fuel":"gas","source":"gas","method":"combustion","capacityMW":448,"operator":"Uniper"}},{"type":"Feature","geometry":{"type":"Point","coordinates":[18.67872,65.4027]},"properties":{"id":"way/722731960","name":"Bastusel kraftverk","fuel":"hydro","source":"hydro"}},{"type":"Feature","geometry":{"type":"Point","coordinates":[11.47713,58.38953]},"properties":{"id":"way/723303908","name":"Unnamed site","fuel":"solar","source":"solar"}},{"type":"Feature","geometry":{"type":"Point","coordinates":[12.51929,56.90026]},"properties":{"id":"way/738260511","name":"Hertings 1 kraftstation","fuel":"hydro","source":"hydro","capacityMW":6.6}},{"type":"Feature","geometry":{"type":"Point","coordinates":[14.70411,63.30637]},"properties":{"id":"way/748867887","name":"Granboforsen kraftverk","fuel":"hydro","source":"hydro","capacityMW":24,"operator":"Jämtkraft","start":"1980"}},{"type":"Feature","geometry":{"type":"Point","coordinates":[15.10275,58.31553]},"properties":{"id":"way/759407330","name":"Mjölby Kraftvärmeverk","fuel":"other","operator":"Mjölby-Svartådalens energi","start":"2015"}},{"type":"Feature","geometry":{"type":"Point","coordinates":[16.23093,58.62082]},"properties":{"id":"way/778839506","name":"Händelöverket","fuel":"bioenergy","source":"biomass","operator":"E.ON","start":"1982"}},{"type":"Feature","geometry":{"type":"Point","coordinates":[20.02296,64.93219]},"properties":{"id":"way/793243214","name":"Rengårds kraftstation","fuel":"hydro","source":"hydro"}},{"type":"Feature","geometry":{"type":"Point","coordinates":[20.04289,64.94099]},"properties":{"id":"way/793243229","name":"Unnamed site","fuel":"hydro","source":"hydro"}},{"type":"Feature","geometry":{"type":"Point","coordinates":[20.63083,64.74171]},"properties":{"id":"way/793280553","name":"Selsfors","fuel":"hydro","source":"hydro","capacityMW":62,"operator":"Skellefteå Kraftaktiebolag","start":"1941"}},{"type":"Feature","geometry":{"type":"Point","coordinates":[18.35145,67.49129]},"properties":{"id":"way/799227718","name":"Vietas Kraftstation","fuel":"hydro","source":"hydro","method":"water-storage","capacityMW":306,"operator":"Vattenfall","start":"1964-1971"}},{"type":"Feature","geometry":{"type":"Point","coordinates":[13.75868,59.62638]},"properties":{"id":"way/804350338","name":"Hulteby","fuel":"hydro","source":"hydro","capacityMW":0.22,"operator":"Privat","start":"1918"}},{"type":"Feature","geometry":{"type":"Point","coordinates":[16.57296,62.41641]},"properties":{"id":"way/808412279","name":"Unnamed site","fuel":"solar","source":"solar","method":"thermal"}},{"type":"Feature","geometry":{"type":"Point","coordinates":[14.46345,63.87796]},"properties":{"id":"way/808718126","name":"Ålviken","fuel":"hydro","source":"hydro","method":"water-storage","operator":"Jämtkraft","start":"1989"}},{"type":"Feature","geometry":{"type":"Point","coordinates":[12.91086,57.65403]},"properties":{"id":"way/810858518","name":"Sobacken kraftvärmeverk","fuel":"waste","source":"waste","method":"combustion","start":"2019"}},{"type":"Feature","geometry":{"type":"Point","coordinates":[16.85173,59.93667]},"properties":{"id":"way/816352382","name":"Unnamed site","fuel":"solar","source":"solar","method":"photovoltaic","capacityMW":0.078,"operator":"Solel i Sala & Heby","start":"2010-07"}},{"type":"Feature","geometry":{"type":"Point","coordinates":[16.83783,59.95636]},"properties":{"id":"way/817024052","name":"Unnamed site","fuel":"solar","source":"solar","method":"photovoltaic","capacityMW":0.312,"operator":"Solel i Sala & Heby","start":"2013-09"}},{"type":"Feature","geometry":{"type":"Point","coordinates":[16.85747,59.93457]},"properties":{"id":"way/817303941","name":"Unnamed site","fuel":"bioenergy","source":"biomass","method":"combustion","operator":"Sala-Heby Energi"}},{"type":"Feature","geometry":{"type":"Point","coordinates":[18.07652,59.21996]},"properties":{"id":"way/817351924","name":"Ågesta gårds solcellspark","fuel":"solar","source":"solar","method":"photovoltaic","capacityMW":0.4}},{"type":"Feature","geometry":{"type":"Point","coordinates":[14.55268,62.91566]},"properties":{"id":"way/821232058","name":"Lillå kraftstation","fuel":"hydro","source":"hydro"}},{"type":"Feature","geometry":{"type":"Point","coordinates":[17.23034,65.29012]},"properties":{"id":"way/846321497","name":"Juktans kraftstation","fuel":"hydro","source":"hydro","capacityMW":26}},{"type":"Feature","geometry":{"type":"Point","coordinates":[16.65207,64.61754]},"properties":{"id":"way/847275309","name":"Gubbseleforsen/Vilhelmina","fuel":"hydro","source":"hydro"}},{"type":"Feature","geometry":{"type":"Point","coordinates":[13.85959,58.37431]},"properties":{"id":"way/848412826","name":"Unnamed site","fuel":"solar","source":"solar","method":"photovoltaic"}},{"type":"Feature","geometry":{"type":"Point","coordinates":[14.32285,61.08362]},"properties":{"id":"way/852021765","name":"Spjutmo","fuel":"hydro","source":"hydro"}},{"type":"Feature","geometry":{"type":"Point","coordinates":[16.48398,60.51113]},"properties":{"id":"way/856496238","name":"Unnamed site","fuel":"other"}},{"type":"Feature","geometry":{"type":"Point","coordinates":[16.49618,62.41785]},"properties":{"id":"way/862448025","name":"Nederede kraftstation","fuel":"hydro","source":"hydro"}},{"type":"Feature","geometry":{"type":"Point","coordinates":[15.63825,56.19814]},"properties":{"id":"way/867801850","name":"Karlskrona Solpark","fuel":"solar","source":"solar","method":"photovoltaic","capacityMW":2.4,"operator":"Affärsverken"}},{"type":"Feature","geometry":{"type":"Point","coordinates":[17.10112,65.09431]},"properties":{"id":"way/867817086","name":"Umluspens kraftstation","fuel":"hydro","source":"hydro","operator":"Vattenfall AB"}},{"type":"Feature","geometry":{"type":"Point","coordinates":[14.66342,56.40609]},"properties":{"id":"way/878013452","name":"Fridafors övre kraftstation","fuel":"hydro","source":"hydro","method":"run-of-the-river"}},{"type":"Feature","geometry":{"type":"Point","coordinates":[14.66657,56.4]},"properties":{"id":"way/878023399","name":"Fridafors nedre kraftstation","fuel":"hydro","source":"hydro","method":"run-of-the-river"}},{"type":"Feature","geometry":{"type":"Point","coordinates":[13.01682,60.15944]},"properties":{"id":"way/878942603","name":"Unnamed site","fuel":"hydro","source":"hydro"}},{"type":"Feature","geometry":{"type":"Point","coordinates":[15.61582,56.24529]},"properties":{"id":"way/879789522","name":"Unnamed site","fuel":"solar","source":"solar","method":"photovoltaic"}},{"type":"Feature","geometry":{"type":"Point","coordinates":[13.81932,60.19713]},"properties":{"id":"way/884292381","name":"Nains kraftstation","fuel":"hydro","source":"hydro","method":"water-storage","capacityMW":7,"operator":"Fortum","start":"1916"}},{"type":"Feature","geometry":{"type":"Point","coordinates":[13.70853,60.0691]},"properties":{"id":"way/887891761","name":"Malta kraftverk","fuel":"hydro","source":"hydro","method":"run-of-the-river","capacityMW":6.1,"operator":"Fortum","start":"1914"}},{"type":"Feature","geometry":{"type":"Point","coordinates":[16.00649,64.15972]},"properties":{"id":"way/887911218","name":"Tåsjö","fuel":"hydro","source":"hydro"}},{"type":"Feature","geometry":{"type":"Point","coordinates":[18.62884,64.62827]},"properties":{"id":"way/888547440","name":"Betsele kraftstation","fuel":"hydro","source":"hydro"}},{"type":"Feature","geometry":{"type":"Point","coordinates":[14.66817,63.20399]},"properties":{"id":"way/891057093","name":"Östersund Solpark","fuel":"solar","source":"solar","method":"photovoltaic","capacityMW":3,"operator":"Östersund Solpark ekonomisk förening (Jämtkraft)","start":"2019-12"}},{"type":"Feature","geometry":{"type":"Point","coordinates":[18.28514,59.46424]},"properties":{"id":"way/891445555","name":"Unnamed site","fuel":"solar","source":"solar","method":"photovoltaic"}},{"type":"Feature","geometry":{"type":"Point","coordinates":[13.21127,59.44154]},"properties":{"id":"way/891942381","name":"Unnamed site","fuel":"hydro","source":"hydro","method":"run-of-the-river"}},{"type":"Feature","geometry":{"type":"Point","coordinates":[17.14128,61.72063]},"properties":{"id":"way/893965944","name":"Djupedsverket","fuel":"other"}},{"type":"Feature","geometry":{"type":"Point","coordinates":[16.3775,61.34147]},"properties":{"id":"way/893968134","name":"Säverstaverket","fuel":"other","method":"combustion","start":"1983"}},{"type":"Feature","geometry":{"type":"Point","coordinates":[15.87251,56.82504]},"properties":{"id":"way/901614634","name":"Unnamed site","fuel":"hydro","source":"hydro"}},{"type":"Feature","geometry":{"type":"Point","coordinates":[12.67032,57.51945]},"properties":{"id":"way/907760747","name":"Stämmemads kraftstation","fuel":"hydro","source":"hydro","capacityMW":1.016}},{"type":"Feature","geometry":{"type":"Point","coordinates":[11.89053,57.69261]},"properties":{"id":"way/917521835","name":"Rya Kraftvärmeverk","fuel":"gas","source":"gas;wood;oil","method":"combustion","capacityMW":261,"operator":"Göteborg Energi AB","start":"2006"}},{"type":"Feature","geometry":{"type":"Point","coordinates":[11.61198,57.89076]},"properties":{"id":"way/938145411","name":"Unnamed site","fuel":"other"}},{"type":"Feature","geometry":{"type":"Point","coordinates":[16.71015,62.77109]},"properties":{"id":"way/945009501","name":"Sillre kraftstation","fuel":"hydro","source":"hydro"}},{"type":"Feature","geometry":{"type":"Point","coordinates":[14.57013,59.80696]},"properties":{"id":"way/949840033","name":"Unnamed site","fuel":"hydro","source":"hydro"}},{"type":"Feature","geometry":{"type":"Point","coordinates":[14.50718,59.78466]},"properties":{"id":"way/953718632","name":"Unnamed site","fuel":"hydro","source":"hydro"}},{"type":"Feature","geometry":{"type":"Point","coordinates":[19.53424,66.709]},"properties":{"id":"way/954528862","name":"Randi","fuel":"hydro","source":"hydro","method":"run-of-the-river","operator":"Vattenfall AB","start":"1976"}},{"type":"Feature","geometry":{"type":"Point","coordinates":[14.51422,59.78628]},"properties":{"id":"way/959583618","name":"Karlskoga Vattenkraft AB","fuel":"hydro","source":"hydro"}},{"type":"Feature","geometry":{"type":"Point","coordinates":[17.61535,59.54265]},"properties":{"id":"way/961309871","name":"Högbytorp","fuel":"other","operator":"E. ON"}},{"type":"Feature","geometry":{"type":"Point","coordinates":[14.0281,58.2486]},"properties":{"id":"way/962990038","name":"Annefors kvarn","fuel":"hydro","source":"hydro"}},{"type":"Feature","geometry":{"type":"Point","coordinates":[16.74706,60.61088]},"properties":{"id":"way/967901089","name":"Björksätra kraftvärmeverk","fuel":"other","method":"combustion","operator":"Sandviken Energi AB"}},{"type":"Feature","geometry":{"type":"Point","coordinates":[15.88131,59.40123]},"properties":{"id":"way/971951392","name":"Fjärrvärmeverket","fuel":"other"}},{"type":"Feature","geometry":{"type":"Point","coordinates":[14.33997,59.0964]},"properties":{"id":"way/973248822","name":"Åtorps kraftverk","fuel":"hydro","source":"hydro","operator":"Fortum"}},{"type":"Feature","geometry":{"type":"Point","coordinates":[14.13696,58.40532]},"properties":{"id":"way/974680825","name":"Brokvarns kraftstation","fuel":"hydro","source":"hydro","method":"run-of-the-river"}},{"type":"Feature","geometry":{"type":"Point","coordinates":[19.20324,66.74405]},"properties":{"id":"way/974798579","name":"Parki Kraftstation","fuel":"hydro","source":"hydro","operator":"Vattenfall"}},{"type":"Feature","geometry":{"type":"Point","coordinates":[20.48734,64.7557]},"properties":{"id":"way/974950868","name":"Krångfors","fuel":"hydro","source":"hydro","capacityMW":65,"operator":"Skellefteå Kraftaktiebolag"}},{"type":"Feature","geometry":{"type":"Point","coordinates":[19.16892,65.28419]},"properties":{"id":"way/974958149","name":"Grytfors","fuel":"hydro","source":"hydro"}},{"type":"Feature","geometry":{"type":"Point","coordinates":[20.41559,64.77937]},"properties":{"id":"way/974969936","name":"Granfors","fuel":"hydro","source":"hydro"}},{"type":"Feature","geometry":{"type":"Point","coordinates":[20.22455,64.83239]},"properties":{"id":"way/974970816","name":"Båtfors","fuel":"hydro","source":"hydro"}},{"type":"Feature","geometry":{"type":"Point","coordinates":[18.11361,65.67756]},"properties":{"id":"way/974977298","name":"Bergnäs","fuel":"hydro","source":"hydro"}},{"type":"Feature","geometry":{"type":"Point","coordinates":[12.59165,59.67852]},"properties":{"id":"way/982062701","name":"MegaSol","fuel":"solar","source":"solar","method":"photovoltaic","capacityMW":1,"operator":"Arvika Kraft","start":"2015"}},{"type":"Feature","geometry":{"type":"Point","coordinates":[18.88064,64.47219]},"properties":{"id":"way/982884697","name":"Tuggens kraftstation","fuel":"hydro","source":"hydro"}},{"type":"Feature","geometry":{"type":"Point","coordinates":[18.69057,64.58498]},"properties":{"id":"way/982887364","name":"Hällforsens kraftstation","fuel":"hydro","source":"hydro"}},{"type":"Feature","geometry":{"type":"Point","coordinates":[18.48337,64.65353]},"properties":{"id":"way/982890988","name":"Bålforsens Kraftverk","fuel":"hydro","source":"hydro"}},{"type":"Feature","geometry":{"type":"Point","coordinates":[14.98969,65.88825]},"properties":{"id":"way/982935154","name":"Klippens kraftstation","fuel":"hydro","source":"hydro","method":"water-storage"}},{"type":"Feature","geometry":{"type":"Point","coordinates":[14.98764,65.54323]},"properties":{"id":"way/982958482","name":"Abelvattnets kraftverk","fuel":"hydro","source":"hydro","method":"water-storage"}},{"type":"Feature","geometry":{"type":"Point","coordinates":[15.18442,65.57638]},"properties":{"id":"way/982958488","name":"Gejmåns kraftstation","fuel":"hydro","source":"hydro","method":"water-storage"}},{"type":"Feature","geometry":{"type":"Point","coordinates":[17.09774,63.18331]},"properties":{"id":"way/984867239","name":"Hjälta kraftverk","fuel":"hydro","source":"hydro","method":"water-storage","capacityMW":178,"operator":"Eon Sverige AB","start":"1952"}},{"type":"Feature","geometry":{"type":"Point","coordinates":[16.98747,63.36803]},"properties":{"id":"way/984873777","name":"Moforsen","fuel":"hydro","source":"hydro"}},{"type":"Feature","geometry":{"type":"Point","coordinates":[17.20031,63.27117]},"properties":{"id":"way/984874689","name":"Forsmo","fuel":"hydro","source":"hydro"}},{"type":"Feature","geometry":{"type":"Point","coordinates":[16.50556,64.64833]},"properties":{"id":"way/984879336","name":"Malgomajs kraftverk","fuel":"hydro","source":"hydro"}},{"type":"Feature","geometry":{"type":"Point","coordinates":[16.82284,63.55542]},"properties":{"id":"way/984881507","name":"Lasele","fuel":"hydro","source":"hydro","capacityMW":149.6,"operator":"Vattenfall"}},{"type":"Feature","geometry":{"type":"Point","coordinates":[15.72758,63.78774]},"properties":{"id":"way/984912066","name":"Lövöns gamla kraftstation","fuel":"hydro","source":"hydro"}},{"type":"Feature","geometry":{"type":"Point","coordinates":[14.13428,64.55831]},"properties":{"id":"way/984915449","name":"Junsterforsen","fuel":"hydro","source":"hydro","capacityMW":30}},{"type":"Feature","geometry":{"type":"Point","coordinates":[16.42359,63.73313]},"properties":{"id":"way/985134411","name":"Sil","fuel":"hydro","source":"hydro"}},{"type":"Feature","geometry":{"type":"Point","coordinates":[16.76422,63.54199]},"properties":{"id":"way/985141453","name":"Kilforsen","fuel":"hydro","source":"hydro"}},{"type":"Feature","geometry":{"type":"Point","coordinates":[14.68234,56.42266]},"properties":{"id":"way/985194872","name":"Granö kraftverk","fuel":"hydro","source":"hydro","method":"run-of-the-river","operator":"Uniper Sverige AB"}},{"type":"Feature","geometry":{"type":"Point","coordinates":[15.69581,63.74779]},"properties":{"id":"way/985487275","name":"Lövön","fuel":"hydro","source":"hydro"}},{"type":"Feature","geometry":{"type":"Point","coordinates":[12.692,57.55527]},"properties":{"id":"way/987415237","name":"Rydal kraftstation","fuel":"hydro","source":"hydro","capacityMW":0.68}},{"type":"Feature","geometry":{"type":"Point","coordinates":[16.86654,63.13966]},"properties":{"id":"way/987432630","name":"Ledinge kraftverk","fuel":"hydro","source":"hydro"}},{"type":"Feature","geometry":{"type":"Point","coordinates":[16.93369,63.07063]},"properties":{"id":"way/987432634","name":"Graninge","fuel":"hydro","source":"hydro"}},{"type":"Feature","geometry":{"type":"Point","coordinates":[16.55754,63.40459]},"properties":{"id":"way/987434620","name":"Edsele","fuel":"hydro","source":"hydro"}},{"type":"Feature","geometry":{"type":"Point","coordinates":[16.33048,63.58193]},"properties":{"id":"way/987442720","name":"Ramsele","fuel":"hydro","source":"hydro"}},{"type":"Feature","geometry":{"type":"Point","coordinates":[16.28498,63.57085]},"properties":{"id":"way/987442722","name":"Lafssjö","fuel":"hydro","source":"hydro"}},{"type":"Feature","geometry":{"type":"Point","coordinates":[16.03155,64.11725]},"properties":{"id":"way/987461821","name":"Klingerforsen","fuel":"hydro","source":"hydro"}},{"type":"Feature","geometry":{"type":"Point","coordinates":[15.53819,64.45809]},"properties":{"id":"way/987461827","name":"Korsselbränna","fuel":"hydro","source":"hydro","method":"run-of-the-river","capacityMW":130,"operator":"Statkraft","start":"1961"}},{"type":"Feature","geometry":{"type":"Point","coordinates":[15.27438,64.54159]},"properties":{"id":"way/987501267","name":"Bergvattnet","fuel":"hydro","source":"hydro","method":"water-storage"}},{"type":"Feature","geometry":{"type":"Point","coordinates":[15.34245,64.65072]},"properties":{"id":"way/987505783","name":"Dabbsjö","fuel":"hydro","source":"hydro","method":"run-of-the-river"}},{"type":"Feature","geometry":{"type":"Point","coordinates":[15.1702,61.18168]},"properties":{"id":"way/987918188","name":"Furudal","fuel":"hydro","source":"hydro","method":"run-of-the-river"}},{"type":"Feature","geometry":{"type":"Point","coordinates":[12.44392,63.25098]},"properties":{"id":"way/989299241","name":"Handöl Nedre","fuel":"hydro","source":"hydro"}},{"type":"Feature","geometry":{"type":"Point","coordinates":[13.07057,63.7704]},"properties":{"id":"way/989334785","name":"Torröns kraftverk","fuel":"hydro","source":"hydro","method":"water-storage"}},{"type":"Feature","geometry":{"type":"Point","coordinates":[14.24241,63.34605]},"properties":{"id":"way/989334790","name":"Kraftverk Ullspinneriet","fuel":"hydro","source":"hydro"}},{"type":"Feature","geometry":{"type":"Point","coordinates":[14.37641,63.51892]},"properties":{"id":"way/989340536","name":"Långforsen","fuel":"hydro","source":"hydro"}},{"type":"Feature","geometry":{"type":"Point","coordinates":[13.83846,63.64622]},"properties":{"id":"way/989340539","name":"Rönnöfors","fuel":"hydro","source":"hydro","method":"water-storage"}},{"type":"Feature","geometry":{"type":"Point","coordinates":[14.88263,63.36858]},"properties":{"id":"way/989701260","name":"Högfors","fuel":"hydro","source":"hydro"}},{"type":"Feature","geometry":{"type":"Point","coordinates":[14.48399,63.90306]},"properties":{"id":"way/989701263","name":"Lövhöjden kraftverk","fuel":"hydro","source":"hydro","method":"water-storage","operator":"Jämtkraft","start":"1989"}},{"type":"Feature","geometry":{"type":"Point","coordinates":[14.0836,63.96064]},"properties":{"id":"way/989714646","name":"Kvarnfallet","fuel":"hydro","source":"hydro","method":"run-of-the-river"}},{"type":"Feature","geometry":{"type":"Point","coordinates":[16.42885,62.57458]},"properties":{"id":"way/992178718","name":"Unnamed site","fuel":"hydro","source":"hydro"}},{"type":"Feature","geometry":{"type":"Point","coordinates":[16.01856,62.50109]},"properties":{"id":"way/992190218","name":"Ljunga kraftverk","fuel":"hydro","source":"hydro"}},{"type":"Feature","geometry":{"type":"Point","coordinates":[15.84318,62.54198]},"properties":{"id":"way/992190222","name":"Hermansboda kraftstation","fuel":"hydro","source":"hydro"}},{"type":"Feature","geometry":{"type":"Point","coordinates":[14.95095,62.43146]},"properties":{"id":"way/992190239","name":"Bursnäs kraftstation","fuel":"hydro","source":"hydro"}},{"type":"Feature","geometry":{"type":"Point","coordinates":[13.72496,62.76326]},"properties":{"id":"way/992190252","name":"Flåsjö kraftverk","fuel":"hydro","source":"hydro","method":"water-storage"}},{"type":"Feature","geometry":{"type":"Point","coordinates":[17.01239,61.2374]},"properties":{"id":"way/992508623","name":"Höljebro kraftverk","fuel":"hydro","source":"hydro","method":"water-storage"}},{"type":"Feature","geometry":{"type":"Point","coordinates":[15.95881,61.33253]},"properties":{"id":"way/992508644","name":"Viksjöfors","fuel":"hydro","source":"hydro"}},{"type":"Feature","geometry":{"type":"Point","coordinates":[15.75106,61.36593]},"properties":{"id":"way/992523245","name":"Bornforsen","fuel":"hydro","source":"hydro"}},{"type":"Feature","geometry":{"type":"Point","coordinates":[15.82625,61.38101]},"properties":{"id":"way/992523254","name":"Österforsen","fuel":"hydro","source":"hydro"}},{"type":"Feature","geometry":{"type":"Point","coordinates":[15.07027,61.55299]},"properties":{"id":"way/992523265","name":"Storhamrasjön","fuel":"hydro","source":"hydro"}},{"type":"Feature","geometry":{"type":"Point","coordinates":[15.98467,61.88472]},"properties":{"id":"way/992681531","name":"Bäckebo","fuel":"hydro","source":"hydro"}},{"type":"Feature","geometry":{"type":"Point","coordinates":[15.10938,62.07895]},"properties":{"id":"way/992702369","name":"Storåströmmens kraftverk","fuel":"hydro","source":"hydro"}},{"type":"Feature","geometry":{"type":"Point","coordinates":[15.00402,62.11104]},"properties":{"id":"way/992702379","name":"Långströmmen","fuel":"hydro","source":"hydro"}},{"type":"Feature","geometry":{"type":"Point","coordinates":[14.89878,62.0422]},"properties":{"id":"way/992702383","name":"Krokströmmen","fuel":"hydro","source":"hydro"}},{"type":"Feature","geometry":{"type":"Point","coordinates":[14.49636,62.04181]},"properties":{"id":"way/992702390","name":"Byarforsen","fuel":"hydro","source":"hydro"}},{"type":"Feature","geometry":{"type":"Point","coordinates":[14.28406,62.02722]},"properties":{"id":"way/992702398","name":"Svegs kraftverk","fuel":"hydro","source":"hydro","capacityMW":37}},{"type":"Feature","geometry":{"type":"Point","coordinates":[13.04224,57.33313]},"properties":{"id":"way/992716060","name":"Mölneby Kraftverk","fuel":"hydro","source":"hydro","method":"run-of-the-river","capacityMW":0.2,"operator":"Mölneby Gård","start":"1908"}},{"type":"Feature","geometry":{"type":"Point","coordinates":[13.6018,62.03471]},"properties":{"id":"way/992718679","name":"Lofsåns Kraftverk","fuel":"hydro","source":"hydro","method":"water-storage","capacityMW":3.5,"operator":"Härjeåns Kraft AB","start":"1995"}},{"type":"Feature","geometry":{"type":"Point","coordinates":[13.50224,62.03931]},"properties":{"id":"way/992780207","name":"Lofssjöns Kraftverk","fuel":"hydro","source":"hydro","method":"water-storage","capacityMW":1.06,"operator":"Härjeåns Kraft AB","start":"1997"}},{"type":"Feature","geometry":{"type":"Point","coordinates":[17.3387,60.439]},"properties":{"id":"way/993217877","name":"Untra","fuel":"hydro","source":"hydro","operator":"Fortum"}},{"type":"Feature","geometry":{"type":"Point","coordinates":[14.86354,61.19957]},"properties":{"id":"way/993239795","name":"Skattungbyn","fuel":"hydro","source":"hydro"}},{"type":"Feature","geometry":{"type":"Point","coordinates":[14.09222,61.17402]},"properties":{"id":"way/993239815","name":"Väsa kraftstation","fuel":"hydro","source":"hydro"}},{"type":"Feature","geometry":{"type":"Point","coordinates":[14.12335,60.73779]},"properties":{"id":"way/993246142","name":"Gävunda kraftstation","fuel":"hydro","source":"hydro"}},{"type":"Feature","geometry":{"type":"Point","coordinates":[14.11982,60.83156]},"properties":{"id":"way/993246144","name":"Johannisholm","fuel":"hydro","source":"hydro","method":"run-of-the-river"}},{"type":"Feature","geometry":{"type":"Point","coordinates":[14.14668,60.45078]},"properties":{"id":"way/993246151","name":"Hummelforsens kraftstation","fuel":"hydro","source":"hydro","method":"water-storage"}},{"type":"Feature","geometry":{"type":"Point","coordinates":[13.15961,61.31333]},"properties":{"id":"way/993246156","name":"Horrmund","fuel":"hydro","source":"hydro","method":"water-storage"}},{"type":"Feature","geometry":{"type":"Point","coordinates":[15.09868,60.35788]},"properties":{"id":"way/993342712","name":"Orrberget vindpark","fuel":"wind_onshore","source":"wind","method":"wind_turbine","capacityMW":33,"operator":"OX2","start":"2019"}},{"type":"Feature","geometry":{"type":"Point","coordinates":[16.0811,60.53735]},"properties":{"id":"way/993343522","name":"Vindpark Riskebo","fuel":"wind_onshore","source":"wind","method":"wind_turbine","capacityMW":39.2,"start":"2022"}},{"type":"Feature","geometry":{"type":"Point","coordinates":[14.90839,60.0999]},"properties":{"id":"way/993350415","name":"Vindpark Fjällberget","fuel":"wind_onshore","source":"wind","method":"wind_turbine"}},{"type":"Feature","geometry":{"type":"Point","coordinates":[14.92743,60.12545]},"properties":{"id":"way/993350987","name":"Vindpark Saxberget","fuel":"wind_onshore","source":"wind","method":"wind_turbine"}},{"type":"Feature","geometry":{"type":"Point","coordinates":[15.40238,60.16297]},"properties":{"id":"way/993352971","name":"Uvbergets vindpark","fuel":"wind_onshore","source":"wind","method":"wind_turbine"}},{"type":"Feature","geometry":{"type":"Point","coordinates":[14.78074,60.10889]},"properties":{"id":"way/993409667","name":"Paljakoberget","fuel":"wind_onshore","source":"wind","method":"wind_turbine"}},{"type":"Feature","geometry":{"type":"Point","coordinates":[15.39802,60.79562]},"properties":{"id":"way/993411095","name":"Vindpark Högberget","fuel":"wind_onshore","source":"wind","method":"wind_turbine","start":"2008-08"}},{"type":"Feature","geometry":{"type":"Point","coordinates":[16.09575,60.09224]},"properties":{"id":"way/993419429","name":"Vindkraftpark Målarberget","fuel":"wind_onshore","source":"wind","method":"wind_turbine","capacityMW":113.4}},{"type":"Feature","geometry":{"type":"Point","coordinates":[13.10738,56.49896]},"properties":{"id":"way/993924816","name":"Karsefors","fuel":"hydro","source":"hydro","capacityMW":31.4}},{"type":"Feature","geometry":{"type":"Point","coordinates":[13.18098,56.51936]},"properties":{"id":"way/993924821","name":"Skogaby","fuel":"hydro","source":"hydro","capacityMW":12.5,"operator":"Statkraft Sverige AB"}},{"type":"Feature","geometry":{"type":"Point","coordinates":[13.40068,56.51153]},"properties":{"id":"way/993924832","name":"Bassalt","fuel":"hydro","source":"hydro","capacityMW":8}},{"type":"Feature","geometry":{"type":"Point","coordinates":[13.45122,56.49934]},"properties":{"id":"way/993924837","name":"Majenfors gamla kraftverk","fuel":"hydro","source":"hydro","capacityMW":4.8,"start":"1909"}},{"type":"Feature","geometry":{"type":"Point","coordinates":[13.50867,56.49447]},"properties":{"id":"way/993924842","name":"Ångabäck kraftverk","fuel":"hydro","source":"hydro","capacityMW":7}},{"type":"Feature","geometry":{"type":"Point","coordinates":[13.71253,56.53834]},"properties":{"id":"way/993924851","name":"Kvarnaholm kraftverk","fuel":"hydro","source":"hydro","capacityMW":5.5}},{"type":"Feature","geometry":{"type":"Point","coordinates":[13.9983,56.9181]},"properties":{"id":"way/993949128","name":"Bro","fuel":"hydro","source":"hydro","method":"run-of-the-river","start":"1927"}},{"type":"Feature","geometry":{"type":"Point","coordinates":[14.01213,56.91375]},"properties":{"id":"way/993949133","name":"Åby","fuel":"hydro","source":"hydro"}},{"type":"Feature","geometry":{"type":"Point","coordinates":[14.25499,57.09713]},"properties":{"id":"way/993949137","name":"Värmeshult kraftstation","fuel":"hydro","source":"hydro"}},{"type":"Feature","geometry":{"type":"Point","coordinates":[14.32894,57.09093]},"properties":{"id":"way/994845191","name":"Ivarsfors kraftstation","fuel":"hydro","source":"hydro"}},{"type":"Feature","geometry":{"type":"Point","coordinates":[14.38701,57.27497]},"properties":{"id":"way/994854737","name":"Långö kraftverk","fuel":"hydro","source":"hydro"}},{"type":"Feature","geometry":{"type":"Point","coordinates":[15.96753,60.86155]},"properties":{"id":"way/994902765","name":"Tavelbergets vindpark","fuel":"wind_onshore","source":"wind","method":"wind_turbine","capacityMW":12}},{"type":"Feature","geometry":{"type":"Point","coordinates":[16.14063,60.87783]},"properties":{"id":"way/994904892","name":"Vindkraftpark Enviksberget","fuel":"wind_onshore","source":"wind","method":"wind_turbine","capacityMW":36.9,"start":"2019"}},{"type":"Feature","geometry":{"type":"Point","coordinates":[16.01602,60.70172]},"properties":{"id":"way/994932553","name":"Trollberget vindkraft","fuel":"wind_onshore","source":"wind","method":"wind_turbine"}},{"type":"Feature","geometry":{"type":"Point","coordinates":[16.37321,60.80511]},"properties":{"id":"way/994949025","name":"Jädraås vindpark","fuel":"wind_onshore","source":"wind","method":"wind_turbine","capacityMW":198}},{"type":"Feature","geometry":{"type":"Point","coordinates":[16.39766,60.74182]},"properties":{"id":"way/995181624","name":"Vindpark Mombyåsen","fuel":"wind_onshore","source":"wind","method":"wind_turbine","capacityMW":33}},{"type":"Feature","geometry":{"type":"Point","coordinates":[16.58556,60.78334]},"properties":{"id":"way/995185990","name":"Vindkraftpark Vettåsen","fuel":"wind_onshore","source":"wind","method":"wind_turbine"}},{"type":"Feature","geometry":{"type":"Point","coordinates":[16.66155,60.81198]},"properties":{"id":"way/995185991","name":"Vindkraftpark Mårtensklack","fuel":"wind_onshore","source":"wind","method":"wind_turbine"}},{"type":"Feature","geometry":{"type":"Point","coordinates":[14.20527,60.24637]},"properties":{"id":"way/995195685","name":"Unnamed site","fuel":"wind_onshore","source":"wind","method":"wind_turbine"}},{"type":"Feature","geometry":{"type":"Point","coordinates":[14.22212,60.27851]},"properties":{"id":"way/995199086","name":"Röbergsfjällets vindpark","fuel":"wind_onshore","source":"wind","method":"wind_turbine","capacityMW":16}},{"type":"Feature","geometry":{"type":"Point","coordinates":[13.93858,60.3455]},"properties":{"id":"way/995332258","name":"Korpfjällets Vindpark","fuel":"wind_onshore","source":"wind","method":"wind_turbine"}},{"type":"Feature","geometry":{"type":"Point","coordinates":[19.80112,66.95901]},"properties":{"id":"way/996127769","name":"Porjus Kraftstation","fuel":"hydro","source":"hydro","method":"water-storage","capacityMW":480.6,"operator":"Vattenfall AB","start":"1975"}},{"type":"Feature","geometry":{"type":"Point","coordinates":[16.16026,60.8189]},"properties":{"id":"way/996217217","name":"Ånglarna Vindkraftpark","fuel":"wind_onshore","source":"wind","method":"wind_turbine","operator":"OX2"}},{"type":"Feature","geometry":{"type":"Point","coordinates":[21.65334,65.82809]},"properties":{"id":"way/999270076","name":"Boden energi","fuel":"other"}},{"type":"Feature","geometry":{"type":"Point","coordinates":[15.56359,60.47352]},"properties":{"id":"way/1001343419","name":"Unnamed site","fuel":"bioenergy","source":"biomass;oil","method":"combustion"}},{"type":"Feature","geometry":{"type":"Point","coordinates":[12.7596,57.03293]},"properties":{"id":"way/1004609061","name":"Yngeredsfors kraftverk","fuel":"hydro","source":"hydro","method":"water-storage","capacityMW":18.8}},{"type":"Feature","geometry":{"type":"Point","coordinates":[12.80804,57.07688]},"properties":{"id":"way/1004610663","name":"Bällforsen kraftstation","fuel":"hydro","source":"hydro","method":"run-of-the-river","capacityMW":8.4}},{"type":"Feature","geometry":{"type":"Point","coordinates":[15.62785,58.43658]},"properties":{"id":"way/1005680646","name":"Solcellsparken i Linköping","fuel":"solar","source":"solar","method":"photovoltaic","capacityMW":12,"operator":"Alight","start":"2020-07-09"}},{"type":"Feature","geometry":{"type":"Point","coordinates":[16.29457,63.17783]},"properties":{"id":"way/1011081747","name":"Unnamed site","fuel":"hydro","source":"hydro"}},{"type":"Feature","geometry":{"type":"Point","coordinates":[14.13276,56.10539]},"properties":{"id":"way/1013004907","name":"Torsebro kraftverk","fuel":"hydro","source":"hydro","capacityMW":6,"operator":"Uniper Sverige AB"}},{"type":"Feature","geometry":{"type":"Point","coordinates":[13.43477,57.17415]},"properties":{"id":"way/1013329427","name":"Ågården kraftstation","fuel":"hydro","source":"hydro","capacityMW":0.3}},{"type":"Feature","geometry":{"type":"Point","coordinates":[13.6521,60.66722]},"properties":{"id":"way/1014470692","name":"Vindpark Byråsen","fuel":"wind_onshore","source":"wind","method":"wind_turbine","capacityMW":3,"operator":"Dala Vind AB"}},{"type":"Feature","geometry":{"type":"Point","coordinates":[12.89559,59.92673]},"properties":{"id":"way/1015949531","name":"Kymmens kraftverk","fuel":"pumped","source":"hydro","method":"water-pumped-storage","capacityMW":55,"operator":"Fortum"}},{"type":"Feature","geometry":{"type":"Point","coordinates":[17.7048,59.85491]},"properties":{"id":"way/1017854799","name":"Vasakronan solcellspark","fuel":"solar","source":"solar","method":"photovoltaic","capacityMW":4.4,"operator":"Vattenfall","start":"2021-02"}},{"type":"Feature","geometry":{"type":"Point","coordinates":[17.66223,59.88462]},"properties":{"id":"way/1018556064","name":"Unnamed site","fuel":"storage","source":"battery"}},{"type":"Feature","geometry":{"type":"Point","coordinates":[13.54121,58.45743]},"properties":{"id":"way/1019862637","name":"Unnamed site","fuel":"solar","source":"solar","method":"photovoltaic"}},{"type":"Feature","geometry":{"type":"Point","coordinates":[17.02802,60.94062]},"properties":{"id":"way/1024168806","name":"Unnamed site","fuel":"hydro","source":"hydro","method":"water-storage"}},{"type":"Feature","geometry":{"type":"Point","coordinates":[15.67838,62.51885]},"properties":{"id":"way/1029250847","name":"Ånge värmeverk","fuel":"bioenergy","source":"biomass","method":"combustion","operator":"Ånge Energi AB"}},{"type":"Feature","geometry":{"type":"Point","coordinates":[18.33696,63.25931]},"properties":{"id":"way/1031030849","name":"Unnamed site","fuel":"hydro","source":"hydro","method":"water-storage"}},{"type":"Feature","geometry":{"type":"Point","coordinates":[13.85173,61.20721]},"properties":{"id":"way/1036314277","name":"Vindpark Granberg","fuel":"wind_onshore","source":"wind","method":"wind_turbine","capacityMW":10,"operator":"Granberg Vind AB","start":"2011-06-15"}},{"type":"Feature","geometry":{"type":"Point","coordinates":[14.60808,61.32157]},"properties":{"id":"way/1036322180","name":"Mässingbergets vindpark","fuel":"wind_onshore","source":"wind","method":"wind_turbine","capacityMW":22,"start":"2015"}},{"type":"Feature","geometry":{"type":"Point","coordinates":[13.22133,61.15273]},"properties":{"id":"way/1046397831","name":"Lindvallens värmeverk","fuel":"bioenergy","source":"biomass","method":"combustion","capacityMW":6}},{"type":"Feature","geometry":{"type":"Point","coordinates":[15.38211,61.17866]},"properties":{"id":"way/1049133345","name":"Vindpark Hedbodberget","fuel":"wind_onshore","source":"wind","method":"wind_turbine","capacityMW":30,"start":"2009/2011"}},{"type":"Feature","geometry":{"type":"Point","coordinates":[16.50032,61.12244]},"properties":{"id":"way/1050774074","name":"Tönsen vindpark","fuel":"wind_onshore","source":"wind","method":"wind_turbine","capacityMW":116,"operator":"OX2","start":"2020"}},{"type":"Feature","geometry":{"type":"Point","coordinates":[16.57762,61.06612]},"properties":{"id":"way/1051084724","name":"Vindpark Vackerdalsberget","fuel":"wind_onshore","source":"wind","method":"wind_turbine","operator":"Ownpower"}},{"type":"Feature","geometry":{"type":"Point","coordinates":[14.71372,61.48856]},"properties":{"id":"way/1051461852","name":"Vässikoski","fuel":"hydro","source":"hydro"}},{"type":"Feature","geometry":{"type":"Point","coordinates":[13.95204,58.56542]},"properties":{"id":"way/1052508949","name":"Unnamed site","fuel":"solar","source":"solar","method":"photovoltaic"}},{"type":"Feature","geometry":{"type":"Point","coordinates":[13.04582,55.632]},"properties":{"id":"way/1052858580","name":"Sysav avfallskraftvärmeverk","fuel":"waste","source":"waste","method":"combustion","capacityMW":196,"operator":"SYSAV","start":"1973"}},{"type":"Feature","geometry":{"type":"Point","coordinates":[14.17615,56.02186]},"properties":{"id":"way/1053001884","name":"Solpunkten","fuel":"solar","source":"solar","method":"photovoltaic","capacityMW":4,"operator":"C4 Energi","start":"2020"}},{"type":"Feature","geometry":{"type":"Point","coordinates":[13.67654,55.61951]},"properties":{"id":"way/1054088554","name":"Sparbanken Skånes Solcellspark","fuel":"solar","source":"solar","method":"photovoltaic","capacityMW":5.8,"start":"2019-06-13"}},{"type":"Feature","geometry":{"type":"Point","coordinates":[13.6196,60.88818]},"properties":{"id":"way/1054213324","name":"Kyrkberget","fuel":"wind_onshore","source":"wind","method":"wind_turbine","capacityMW":23,"operator":"Jämtkraft"}},{"type":"Feature","geometry":{"type":"Point","coordinates":[14.15989,58.55984]},"properties":{"id":"way/1057429063","name":"Vräkefors kraftverk","fuel":"hydro","source":"hydro"}},{"type":"Feature","geometry":{"type":"Point","coordinates":[14.93155,59.93423]},"properties":{"id":"way/1058644894","name":"Unnamed site","fuel":"hydro","source":"hydro","method":"water-storage"}},{"type":"Feature","geometry":{"type":"Point","coordinates":[16.17149,58.6116]},"properties":{"id":"way/1059550733","name":"Ingelsta Hetvattencentral","fuel":"other"}},{"type":"Feature","geometry":{"type":"Point","coordinates":[18.74913,64.59562]},"properties":{"id":"way/1064356249","name":"Unnamed site","fuel":"other","method":"combustion","start":"2000"}},{"type":"Feature","geometry":{"type":"Point","coordinates":[12.29054,57.1594]},"properties":{"id":"way/1065109985","name":"Varberg Norra","fuel":"solar","source":"solar","method":"photovoltaic","capacityMW":4.8,"operator":"Solgrid","start":"2021-10-01"}},{"type":"Feature","geometry":{"type":"Point","coordinates":[11.85742,58.3052]},"properties":{"id":"way/1065153657","name":"Solevalla solcellspark","fuel":"solar","source":"solar","method":"photovoltaic","capacityMW":0.253,"operator":"Uddevalla Energi"}},{"type":"Feature","geometry":{"type":"Point","coordinates":[16.1851,58.99859]},"properties":{"id":"way/1065501860","name":"Kraftvärmeverket i Katrineholm","fuel":"bioenergy","source":"biomass","method":"combustion","capacityMW":10,"operator":"Tekniska verken"}},{"type":"Feature","geometry":{"type":"Point","coordinates":[16.20526,59.00928]},"properties":{"id":"way/1065501869","name":"ETC Solpark","fuel":"solar","source":"solar","method":"photovoltaic","capacityMW":4,"operator":"ETC Sol","start":"2009"}},{"type":"Feature","geometry":{"type":"Point","coordinates":[15.62472,58.41992]},"properties":{"id":"way/1066866538","name":"Kraftvärmeverket i Linköping","fuel":"bioenergy","source":"biomass;tyres;oil","method":"combustion","capacityMW":65,"operator":"Tekniska Verken","start":"1964"}},{"type":"Feature","geometry":{"type":"Point","coordinates":[12.70058,56.03432]},