{"type":"FeatureCollection","features":[{"type":"Feature","geometry":{"type":"Point","coordinates":[5.00874,52.50897]},"properties":{"id":"node/5609737880","name":"BioWarmtecentrale De Purmer","fuel":"other","source":null,"method":null,"capacityMW":null,"operator":"Stadsverwarming Purmerend","start":null,"osmType":"node"}},{"type":"Feature","geometry":{"type":"Point","coordinates":[4.35337,52.00001]},"properties":{"id":"node/8646358137","name":"Eneco Warmtecentrale Poptahof","fuel":"other","source":null,"method":null,"capacityMW":null,"operator":"Eneco","start":null,"osmType":"node"}},{"type":"Feature","geometry":{"type":"Point","coordinates":[5.96337,51.70507]},"properties":{"id":"node/10958124047","name":"Unnamed site","fuel":"solar","source":"solar","method":"photovoltaic","capacityMW":null,"operator":null,"start":null,"osmType":"node"}},{"type":"Feature","geometry":{"type":"Point","coordinates":[5.90906,51.15568]},"properties":{"id":"way/6318281","name":"Clauscentrale","fuel":"gas","source":"gas","method":"combustion","capacityMW":1304,"operator":"Essent","start":null,"osmType":"way"}},{"type":"Feature","geometry":{"type":"Point","coordinates":[4.84224,51.70901]},"properties":{"id":"way/6318872","name":"Amercentrale","fuel":"bioenergy","source":"biomass","method":"combustion","capacityMW":1245,"operator":"RWE","start":null,"osmType":"way"}},{"type":"Feature","geometry":{"type":"Point","coordinates":[6.02951,53.21015]},"properties":{"id":"way/6320662","name":"Centrale Burgum","fuel":"gas","source":"gas","method":"combustion","capacityMW":664,"operator":"Engie","start":null,"osmType":"way"}},{"type":"Feature","geometry":{"type":"Point","coordinates":[6.51566,52.7894]},"properties":{"id":"way/27402460","name":"Attero","fuel":"waste","source":"waste","method":"combustion","capacityMW":92,"operator":"Attero","start":null,"osmType":"way"}},{"type":"Feature","geometry":{"type":"Point","coordinates":[4.36912,51.9998]},"properties":{"id":"way/32738710","name":"Warmtekrachtcentrale","fuel":"gas","source":"gas","method":"combustion","capacityMW":null,"operator":"Technische Universiteit Delft","start":"1957","osmType":"way"}},{"type":"Feature","geometry":{"type":"Point","coordinates":[4.41328,52.60535]},"properties":{"id":"way/44427693","name":"Offshore Windpark Egmond aan Zee","fuel":"wind_offshore","source":"wind","method":"wind_turbine","capacityMW":108,"operator":"NoordzeeWind B.V.","start":"2007-01","osmType":"way"}},{"type":"Feature","geometry":{"type":"Point","coordinates":[5.99982,51.97058]},"properties":{"id":"way/47962126","name":"AVR Duiven","fuel":"waste","source":"waste","method":"combustion","capacityMW":31.4,"operator":"AVR","start":"1984","osmType":"way"}},{"type":"Feature","geometry":{"type":"Point","coordinates":[6.16382,53.28283]},"properties":{"id":"way/49213665","name":"Zonnepark Jumaheerd","fuel":"solar","source":"solar","method":"photovoltaic","capacityMW":6.8,"operator":null,"start":null,"osmType":"way"}},{"type":"Feature","geometry":{"type":"Point","coordinates":[4.76091,52.61024]},"properties":{"id":"way/51089306","name":"HVC Alkmaar","fuel":"waste","source":"waste","method":null,"capacityMW":null,"operator":"HVC","start":"1996","osmType":"way"}},{"type":"Feature","geometry":{"type":"Point","coordinates":[6.9309,52.19465]},"properties":{"id":"way/52706055","name":"Zonnepark De Roodmolen","fuel":"solar","source":"solar","method":"photovoltaic","capacityMW":null,"operator":null,"start":null,"osmType":"way"}},{"type":"Feature","geometry":{"type":"Point","coordinates":[4.4274,51.911]},"properties":{"id":"way/54075221","name":"Centrale Galileïstraat","fuel":"gas","source":"gas","method":"combustion","capacityMW":null,"operator":null,"start":"1989","osmType":"way"}},{"type":"Feature","geometry":{"type":"Point","coordinates":[4.56142,51.95375]},"properties":{"id":"way/54099556","name":"RoCa3","fuel":"gas","source":"gas","method":"combustion","capacityMW":220,"operator":"E.ON","start":"1982","osmType":"way"}},{"type":"Feature","geometry":{"type":"Point","coordinates":[6.63881,52.26407]},"properties":{"id":"way/54990576","name":"Zonnepark 't Rikkerink","fuel":"solar","source":"solar","method":"photovoltaic","capacityMW":12.5,"operator":null,"start":null,"osmType":"way"}},{"type":"Feature","geometry":{"type":"Point","coordinates":[6.58506,52.24832]},"properties":{"id":"way/55926941","name":"Zonnepark Spechthorst/De Whee","fuel":"solar","source":"solar","method":"photovoltaic","capacityMW":9,"operator":null,"start":null,"osmType":"way"}},{"type":"Feature","geometry":{"type":"Point","coordinates":[6.53993,52.1043]},"properties":{"id":"way/57681125","name":"Zonnepark Batendijk","fuel":"solar","source":"solar","method":"photovoltaic","capacityMW":9.3,"operator":null,"start":null,"osmType":"way"}},{"type":"Feature","geometry":{"type":"Point","coordinates":[6.5452,52.12842]},"properties":{"id":"way/57681547","name":"Zonnepark Geesteren","fuel":"solar","source":"solar","method":"photovoltaic","capacityMW":12.9,"operator":null,"start":null,"osmType":"way"}},{"type":"Feature","geometry":{"type":"Point","coordinates":[6.54052,52.12217]},"properties":{"id":"way/57681904","name":"Zonnepark Hekweg","fuel":"solar","source":"solar","method":"photovoltaic","capacityMW":1.5,"operator":null,"start":null,"osmType":"way"}},{"type":"Feature","geometry":{"type":"Point","coordinates":[6.47093,52.29652]},"properties":{"id":"way/57725025","name":"Zunneweide Riessen","fuel":"solar","source":"solar","method":"photovoltaic","capacityMW":null,"operator":null,"start":null,"osmType":"way"}},{"type":"Feature","geometry":{"type":"Point","coordinates":[5.99612,53.21959]},"properties":{"id":"way/58544074","name":"Unnamed site","fuel":"solar","source":"solar","method":"photovoltaic","capacityMW":null,"operator":null,"start":null,"osmType":"way"}},{"type":"Feature","geometry":{"type":"Point","coordinates":[4.35943,52.04318]},"properties":{"id":"way/58583475","name":"Hulpwarmtekrachtcentrale Ypenburg","fuel":"gas","source":"gas","method":"combustion","capacityMW":57,"operator":"Eneco","start":"1999","osmType":"way"}},{"type":"Feature","geometry":{"type":"Point","coordinates":[6.47382,51.86027]},"properties":{"id":"way/59052654","name":"Zonnepark De Rietstap","fuel":"solar","source":"solar","method":"photovoltaic","capacityMW":2.18,"operator":null,"start":null,"osmType":"way"}},{"type":"Feature","geometry":{"type":"Point","coordinates":[6.3257,51.89022]},"properties":{"id":"way/59074466","name":"Solarpark Azewijn","fuel":"solar","source":"solar","method":"photovoltaic","capacityMW":1.8,"operator":"Pfixx Solar","start":"2012","osmType":"way"}},{"type":"Feature","geometry":{"type":"Point","coordinates":[6.32187,51.90676]},"properties":{"id":"way/59075139","name":"Zonnepark Rafelder","fuel":"solar","source":"solar","method":"photovoltaic","capacityMW":10.2,"operator":null,"start":null,"osmType":"way"}},{"type":"Feature","geometry":{"type":"Point","coordinates":[4.8228,51.67844]},"properties":{"id":"relation/13931263","name":"Zonnepark","fuel":"solar","source":"solar","method":"photovoltaic","capacityMW":null,"operator":null,"start":null,"osmType":"relation"}},{"type":"Feature","geometry":{"type":"Point","coordinates":[5.94345,51.96232]},"properties":{"id":"way/59300648","name":"Zonnepark Koningspleij","fuel":"solar","source":"solar","method":"photovoltaic","capacityMW":13.3,"operator":null,"start":null,"osmType":"way"}},{"type":"Feature","geometry":{"type":"Point","coordinates":[6.30879,52.0579]},"properties":{"id":"way/59375542","name":"Solarpark De Kwekerij Hengelo","fuel":"solar","source":"solar","method":"photovoltaic","capacityMW":null,"operator":null,"start":null,"osmType":"way"}},{"type":"Feature","geometry":{"type":"Point","coordinates":[6.26228,52.14877]},"properties":{"id":"way/59857080","name":"Zonnepark Afleidingskanaal","fuel":"solar","source":"solar","method":"photovoltaic","capacityMW":11,"operator":null,"start":null,"osmType":"way"}},{"type":"Feature","geometry":{"type":"Point","coordinates":[6.21099,52.15544]},"properties":{"id":"way/59857141","name":"Zonnepark Noordveen","fuel":"solar","source":"solar","method":"photovoltaic","capacityMW":null,"operator":null,"start":null,"osmType":"way"}},{"type":"Feature","geometry":{"type":"Point","coordinates":[6.0584,52.18862]},"properties":{"id":"way/60280345","name":"Zonnepark Broekstraat","fuel":"solar","source":"solar","method":"photovoltaic","capacityMW":21,"operator":null,"start":null,"osmType":"way"}},{"type":"Feature","geometry":{"type":"Point","coordinates":[6.02321,52.20389]},"properties":{"id":"way/60648144","name":"Zonnepark Woudhuizermark","fuel":"solar","source":"solar","method":"photovoltaic","capacityMW":12,"operator":null,"start":null,"osmType":"way"}},{"type":"Feature","geometry":{"type":"Point","coordinates":[6.11316,52.46987]},"properties":{"id":"way/63739938","name":"Unnamed site","fuel":"solar","source":"solar","method":"photovoltaic","capacityMW":null,"operator":null,"start":null,"osmType":"way"}},{"type":"Feature","geometry":{"type":"Point","coordinates":[6.10973,52.47095]},"properties":{"id":"way/63742256","name":"Unnamed site","fuel":"solar","source":"solar","method":"photovoltaic","capacityMW":null,"operator":null,"start":null,"osmType":"way"}},{"type":"Feature","geometry":{"type":"Point","coordinates":[5.82289,53.16625]},"properties":{"id":"way/67014126","name":"Zonnepark Drachtsterweg","fuel":"solar","source":"solar","method":"photovoltaic","capacityMW":12,"operator":"Energeia","start":"2020","osmType":"way"}},{"type":"Feature","geometry":{"type":"Point","coordinates":[5.17499,51.93577]},"properties":{"id":"way/68595219","name":"Zonnepark Den Heuvel","fuel":"solar","source":"solar","method":"photovoltaic","capacityMW":null,"operator":null,"start":null,"osmType":"way"}},{"type":"Feature","geometry":{"type":"Point","coordinates":[5.23717,51.94014]},"properties":{"id":"way/68603511","name":"Zonnepark RWZI Culemborg","fuel":"solar","source":"solar","method":"photovoltaic","capacityMW":null,"operator":null,"start":null,"osmType":"way"}},{"type":"Feature","geometry":{"type":"Point","coordinates":[5.30558,51.99148]},"properties":{"id":"way/68623748","name":"Zonnepark Cothen","fuel":"solar","source":"solar","method":"photovoltaic","capacityMW":13.9,"operator":null,"start":null,"osmType":"way"}},{"type":"Feature","geometry":{"type":"Point","coordinates":[5.75215,53.18526]},"properties":{"id":"relation/14056259","name":"Zonnepark De Zwette","fuel":"solar","source":"solar","method":"photovoltaic","capacityMW":null,"operator":"Ecorus Projects B.V.","start":null,"osmType":"relation"}},{"type":"Feature","geometry":{"type":"Point","coordinates":[4.31852,51.46289]},"properties":{"id":"way/75631614","name":"Zonnepark Zuidgeest","fuel":"solar","source":"solar","method":"photovoltaic","capacityMW":6.3,"operator":null,"start":null,"osmType":"way"}},{"type":"Feature","geometry":{"type":"Point","coordinates":[5.68349,51.92019]},"properties":{"id":"way/76021431","name":"Zonnepark Hemmen","fuel":"solar","source":"solar","method":"photovoltaic","capacityMW":45,"operator":null,"start":null,"osmType":"way"}},{"type":"Feature","geometry":{"type":"Point","coordinates":[5.48219,51.90968]},"properties":{"id":"way/76036598","name":"Zonnepark Spoorstraat","fuel":"solar","source":"solar","method":"photovoltaic","capacityMW":12.8,"operator":"Solar Park Echteld B.V.","start":null,"osmType":"way"}},{"type":"Feature","geometry":{"type":"Point","coordinates":[5.68285,52.41413]},"properties":{"id":"way/77098870","name":"Zonnepark Dorhout Mees","fuel":"solar","source":"solar","method":"photovoltaic","capacityMW":134.5,"operator":null,"start":null,"osmType":"way"}},{"type":"Feature","geometry":{"type":"Point","coordinates":[6.61927,53.19421]},"properties":{"id":"way/77859221","name":"Zonnepark Woldjerspoor","fuel":"solar","source":"solar","method":"photovoltaic","capacityMW":14,"operator":"GroenLeven","start":null,"osmType":"way"}},{"type":"Feature","geometry":{"type":"Point","coordinates":[3.73226,51.45103]},"properties":{"id":"way/78195763","name":"Zonnepark Zeeland Refinery","fuel":"solar","source":"solar","method":"photovoltaic","capacityMW":11,"operator":null,"start":null,"osmType":"way"}},{"type":"Feature","geometry":{"type":"Point","coordinates":[6.01485,50.84518]},"properties":{"id":"way/78460273","name":"Zonnepark Kerkrade","fuel":"solar","source":"solar","method":"photovoltaic","capacityMW":14.8,"operator":"RWE","start":"21-04-2021","osmType":"way"}},{"type":"Feature","geometry":{"type":"Point","coordinates":[5.8622,51.71033]},"properties":{"id":"way/79322632","name":"Solargaard Vianen","fuel":"solar","source":"solar","method":"photovoltaic","capacityMW":12.5,"operator":null,"start":null,"osmType":"way"}},{"type":"Feature","geometry":{"type":"Point","coordinates":[6.00889,51.66836]},"properties":{"id":"way/80522947","name":"Zonnepark Gennep","fuel":"solar","source":"solar","method":"photovoltaic","capacityMW":14,"operator":"Kronos Solar Projects GmbH","start":null,"osmType":"way"}},{"type":"Feature","geometry":{"type":"Point","coordinates":[5.56528,51.63805]},"properties":{"id":"way/80730570","name":"Zonnepark Korenstreep","fuel":"solar","source":"solar","method":"photovoltaic","capacityMW":null,"operator":null,"start":null,"osmType":"way"}},{"type":"Feature","geometry":{"type":"Point","coordinates":[6.32573,53.06801]},"properties":{"id":"way/82359166","name":"Zonnepark Haulerwijk","fuel":"solar","source":"solar","method":null,"capacityMW":8.2,"operator":"GroenLeven","start":null,"osmType":"way"}},{"type":"Feature","geometry":{"type":"Point","coordinates":[5.36714,51.52624]},"properties":{"id":"way/84090360","name":"Zonnepark Driehoekweg","fuel":"solar","source":"solar","method":"photovoltaic","capacityMW":2,"operator":null,"start":null,"osmType":"way"}},{"type":"Feature","geometry":{"type":"Point","coordinates":[6.0827,51.43593]},"properties":{"id":"way/84132459","name":"Zonnepark Nieuw Erf","fuel":"solar","source":"solar","method":"photovoltaic","capacityMW":null,"operator":null,"start":null,"osmType":"way"}},{"type":"Feature","geometry":{"type":"Point","coordinates":[6.10008,51.42219]},"properties":{"id":"way/84133768","name":"Zonnepark Vinkenpeelweg","fuel":"solar","source":"solar","method":"photovoltaic","capacityMW":28,"operator":null,"start":null,"osmType":"way"}},{"type":"Feature","geometry":{"type":"Point","coordinates":[4.58036,51.68552]},"properties":{"id":"way/87787022","name":"Centrale Moerdijk","fuel":"gas","source":"gas","method":"combustion","capacityMW":800,"operator":"RWE","start":null,"osmType":"way"}},{"type":"Feature","geometry":{"type":"Point","coordinates":[6.68303,52.65727]},"properties":{"id":"way/87953265","name":"Zonnepark Coevorden","fuel":"solar","source":"solar","method":"photovoltaic","capacityMW":6.5,"operator":null,"start":null,"osmType":"way"}},{"type":"Feature","geometry":{"type":"Point","coordinates":[6.45945,52.7059]},"properties":{"id":"way/88064361","name":"Zonnepark Knooppunt Hoogeveen","fuel":"solar","source":"solar","method":"photovoltaic","capacityMW":null,"operator":null,"start":null,"osmType":"way"}},{"type":"Feature","geometry":{"type":"Point","coordinates":[6.59206,52.71122]},"properties":{"id":"way/89194621","name":"Zonnepark Hollandscheveld","fuel":"solar","source":"solar","method":"photovoltaic","capacityMW":50,"operator":null,"start":null,"osmType":"way"}},{"type":"Feature","geometry":{"type":"Point","coordinates":[6.58486,52.74835]},"properties":{"id":"way/89195331","name":"Zonnepark Kloosterman","fuel":"solar","source":"solar","method":"photovoltaic","capacityMW":2,"operator":null,"start":null,"osmType":"way"}},{"type":"Feature","geometry":{"type":"Point","coordinates":[5.14098,52.69999]},"properties":{"id":"way/90137220","name":"Zonnepark Kromme Leek","fuel":"solar","source":"solar","method":"photovoltaic","capacityMW":6.7,"operator":null,"start":null,"osmType":"way"}},{"type":"Feature","geometry":{"type":"Point","coordinates":[5.8705,52.74438]},"properties":{"id":"way/90250970","name":"Unnamed site","fuel":"solar","source":"solar","method":"photovoltaic","capacityMW":null,"operator":null,"start":null,"osmType":"way"}},{"type":"Feature","geometry":{"type":"Point","coordinates":[4.29643,51.55735]},"properties":{"id":"way/94214329","name":"Zonnepark Dassenberg","fuel":"solar","source":"solar","method":"photovoltaic","capacityMW":9.3,"operator":null,"start":null,"osmType":"way"}},{"type":"Feature","geometry":{"type":"Point","coordinates":[6.8914,53.16139]},"properties":{"id":"way/95064309","name":"Zonnepark SunBrouck","fuel":"solar","source":"solar","method":"photovoltaic","capacityMW":0.35,"operator":null,"start":null,"osmType":"way"}},{"type":"Feature","geometry":{"type":"Point","coordinates":[4.40123,51.63754]},"properties":{"id":"way/96126504","name":"Aan de Dintel","fuel":"solar","source":"solar","method":"photovoltaic","capacityMW":15,"operator":null,"start":null,"osmType":"way"}},{"type":"Feature","geometry":{"type":"Point","coordinates":[4.47374,52.24561]},"properties":{"id":"way/97454291","name":"Zonnepark Leeuwenhorster Hoek","fuel":"solar","source":"solar","method":"photovoltaic","capacityMW":2,"operator":null,"start":null,"osmType":"way"}},{"type":"Feature","geometry":{"type":"Point","coordinates":[6.87582,53.09352]},"properties":{"id":"way/99230029","name":"Unnamed site","fuel":"solar","source":"solar","method":"photovoltaic","capacityMW":null,"operator":null,"start":null,"osmType":"way"}},{"type":"Feature","geometry":{"type":"Point","coordinates":[4.63515,51.74509]},"properties":{"id":"way/100531233","name":"Zonnepark Transberg","fuel":"solar","source":"solar","method":"photovoltaic","capacityMW":7.5,"operator":"Drechtsteden Energie","start":"2018-09-07","osmType":"way"}},{"type":"Feature","geometry":{"type":"Point","coordinates":[6.98673,52.98283]},"properties":{"id":"way/103154827","name":"Zonnepark Bedrijventerrein Stadskanaal","fuel":"solar","source":"solar","method":"photovoltaic","capacityMW":13.9,"operator":null,"start":null,"osmType":"way"}},{"type":"Feature","geometry":{"type":"Point","coordinates":[4.84529,52.7043]},"properties":{"id":"way/107803403","name":"Zonnewarmte installatie","fuel":"solar","source":"solar","method":null,"capacityMW":null,"operator":null,"start":null,"osmType":"way"}},{"type":"Feature","geometry":{"type":"Point","coordinates":[4.77506,52.72686]},"properties":{"id":"way/108737064","name":"Zonnepark De Dijken","fuel":"solar","source":"solar","method":"photovoltaic","capacityMW":16,"operator":null,"start":null,"osmType":"way"}},{"type":"Feature","geometry":{"type":"Point","coordinates":[4.69269,52.767]},"properties":{"id":"way/108771313","name":"Zonnepark Burgervlotbrug","fuel":"solar","source":"solar","method":"photovoltaic","capacityMW":5,"operator":null,"start":null,"osmType":"way"}},{"type":"Feature","geometry":{"type":"Point","coordinates":[4.79005,52.9168]},"properties":{"id":"way/108887687","name":"Zonnepark Heldair I","fuel":"solar","source":"solar","method":"photovoltaic","capacityMW":8.5,"operator":"Klimaatfonds Nederland","start":null,"osmType":"way"}},{"type":"Feature","geometry":{"type":"Point","coordinates":[4.77932,52.91662]},"properties":{"id":"way/108888231","name":"Zonnepark Heldair II","fuel":"solar","source":"solar","method":"photovoltaic","capacityMW":25.6,"operator":null,"start":null,"osmType":"way"}},{"type":"Feature","geometry":{"type":"Point","coordinates":[6.09136,51.27243]},"properties":{"id":"way/111850854","name":"Zonnepark Beekweg","fuel":"solar","source":"solar","method":"photovoltaic","capacityMW":2,"operator":null,"start":null,"osmType":"way"}},{"type":"Feature","geometry":{"type":"Point","coordinates":[5.76229,51.24649]},"properties":{"id":"way/113137264","name":"Zonnepark Leveroysedijk","fuel":"solar","source":"solar","method":"photovoltaic","capacityMW":5.5,"operator":null,"start":null,"osmType":"way"}},{"type":"Feature","geometry":{"type":"Point","coordinates":[5.94017,51.14206]},"properties":{"id":"way/113208485","name":"Zonnepark Montfort","fuel":"solar","source":"solar","method":"photovoltaic","capacityMW":16,"operator":null,"start":null,"osmType":"way"}},{"type":"Feature","geometry":{"type":"Point","coordinates":[4.22447,52.58831]},"properties":{"id":"way/113741007","name":"Prinses Amaliawindpark","fuel":"wind_offshore","source":"wind","method":"wind_turbine","capacityMW":120,"operator":"Eneco Groep N.V.","start":"2008","osmType":"way"}},{"type":"Feature","geometry":{"type":"Point","coordinates":[5.24234,53.37248]},"properties":{"id":"way/119090806","name":"Unnamed site","fuel":"solar","source":"solar","method":"photovoltaic","capacityMW":null,"operator":null,"start":null,"osmType":"way"}},{"type":"Feature","geometry":{"type":"Point","coordinates":[4.35509,51.89018]},"properties":{"id":"way/151767943","name":"Rijnmond Energie","fuel":"gas","source":"gas","method":"combustion","capacityMW":820,"operator":null,"start":null,"osmType":"way"}},{"type":"Feature","geometry":{"type":"Point","coordinates":[4.53208,51.86556]},"properties":{"id":"way/162151078","name":"Zonnepark De Punt","fuel":"solar","source":"solar","method":"photovoltaic","capacityMW":2.9,"operator":null,"start":null,"osmType":"way"}},{"type":"Feature","geometry":{"type":"Point","coordinates":[4.35219,51.89033]},"properties":{"id":"way/164715508","name":"Maasstroom Energie","fuel":"gas","source":"gas","method":"combustion","capacityMW":420,"operator":null,"start":null,"osmType":"way"}},{"type":"Feature","geometry":{"type":"Point","coordinates":[6.95493,53.31885]},"properties":{"id":"way/168037417","name":"Nouryon Delesto","fuel":"gas","source":"gas","method":"combustion","capacityMW":530,"operator":null,"start":null,"osmType":"way"}},{"type":"Feature","geometry":{"type":"Point","coordinates":[5.50301,52.34363]},"properties":{"id":"way/184570887","name":"Zonnepark Het Zonnewoud Zeewolde","fuel":"solar","source":"solar","method":"photovoltaic","capacityMW":10,"operator":null,"start":null,"osmType":"way"}},{"type":"Feature","geometry":{"type":"Point","coordinates":[4.35027,52.08248]},"properties":{"id":"way/188440324","name":"Zonnepark 't Oor","fuel":"solar","source":"solar","method":"photovoltaic","capacityMW":1.3,"operator":"Energie van Hollandsche bodem","start":null,"osmType":"way"}},{"type":"Feature","geometry":{"type":"Point","coordinates":[5.21554,52.38804]},"properties":{"id":"way/195430869","name":"Vattenfall Nederland Centrale Almere","fuel":"gas","source":"gas","method":"combustion","capacityMW":120,"operator":"Vattenfall","start":null,"osmType":"way"}},{"type":"Feature","geometry":{"type":"Point","coordinates":[4.29041,52.07627]},"properties":{"id":"way/214775379","name":"Uniper Centrale Den Haag","fuel":"gas","source":"gas","method":"combustion","capacityMW":110,"operator":"Uniper","start":"1947","osmType":"way"}},{"type":"Feature","geometry":{"type":"Point","coordinates":[5.02097,52.33906]},"properties":{"id":"way/218107464","name":"Centrale Diemen","fuel":"gas","source":"gas","method":"combustion","capacityMW":751,"operator":"Vattenfall Nederland","start":null,"osmType":"way"}},{"type":"Feature","geometry":{"type":"Point","coordinates":[6.9845,53.31247]},"properties":{"id":"way/232119546","name":"Eneco Bio Golden Raand","fuel":"bioenergy","source":"biomass","method":"combustion","capacityMW":49.9,"operator":null,"start":null,"osmType":"way"}},{"type":"Feature","geometry":{"type":"Point","coordinates":[4.63131,52.47251]},"properties":{"id":"way/256624883","name":"Vattenfall Cluster Velsen","fuel":"gas","source":"gas","method":"combustion","capacityMW":820,"operator":"Vattenfall","start":null,"osmType":"way"}},{"type":"Feature","geometry":{"type":"Point","coordinates":[4.16378,52.40278]},"properties":{"id":"way/259900790","name":"Luchterduinen","fuel":"wind_offshore","source":"wind","method":null,"capacityMW":129,"operator":"Eneco","start":null,"osmType":"way"}},{"type":"Feature","geometry":{"type":"Point","coordinates":[4.35322,52.08399]},"properties":{"id":"way/263100523","name":"Eco-zonnepark 't Oor","fuel":"solar","source":"solar","method":"photovoltaic","capacityMW":0.275,"operator":"Energie van Hollandsche bodem","start":null,"osmType":"way"}},{"type":"Feature","geometry":{"type":"Point","coordinates":[5.40862,51.97376]},"properties":{"id":"way/276274342","name":"Waterkrachtcentrale Maurik","fuel":"hydro","source":"hydro","method":"run-of-the-river","capacityMW":null,"operator":"Nuon","start":"1988","osmType":"way"}},{"type":"Feature","geometry":{"type":"Point","coordinates":[4.15961,51.55225]},"properties":{"id":"way/277098035","name":"Unnamed site","fuel":"hydro","source":"hydro","method":null,"capacityMW":null,"operator":null,"start":"1955","osmType":"way"}},{"type":"Feature","geometry":{"type":"Point","coordinates":[4.44304,51.54832]},"properties":{"id":"way/277240530","name":"PreZero Energy","fuel":"waste","source":"waste","method":null,"capacityMW":null,"operator":"PreZero","start":"2011","osmType":"way"}},{"type":"Feature","geometry":{"type":"Point","coordinates":[5.31211,51.37908]},"properties":{"id":"way/278394699","name":"Vencomatic Campus","fuel":"solar","source":"solar","method":"photovoltaic","capacityMW":null,"operator":null,"start":"2012","osmType":"way"}},{"type":"Feature","geometry":{"type":"Point","coordinates":[5.0787,51.58459]},"properties":{"id":"way/281073509","name":"Unnamed site","fuel":"other","source":null,"method":null,"capacityMW":null,"operator":null,"start":"1967","osmType":"way"}},{"type":"Feature","geometry":{"type":"Point","coordinates":[4.49414,52.16365]},"properties":{"id":"way/287329147","name":"Unnamed site","fuel":"gas","source":"gas","method":"combustion","capacityMW":164,"operator":"E.ON","start":"1950","osmType":"way"}},{"type":"Feature","geometry":{"type":"Point","coordinates":[4.6047,52.47503]},"properties":{"id":"way/288454756","name":"IJmond 1","fuel":"gas","source":"gas","method":"combustion","capacityMW":144,"operator":"Nuon","start":"1997","osmType":"way"}},{"type":"Feature","geometry":{"type":"Point","coordinates":[6.18928,51.34584]},"properties":{"id":"way/289190367","name":"Unnamed site","fuel":"solar","source":"solar","method":"photovoltaic","capacityMW":null,"operator":null,"start":null,"osmType":"way"}},{"type":"Feature","geometry":{"type":"Point","coordinates":[4.84511,52.40597]},"properties":{"id":"way/292125850","name":"Centrale Hemweg","fuel":"gas","source":"gas","method":"combustion","capacityMW":435,"operator":"Vattenfall","start":"1953","osmType":"way"}},{"type":"Feature","geometry":{"type":"Point","coordinates":[6.88868,52.23122]},"properties":{"id":"way/295389782","name":"Stadshaard","fuel":"gas","source":"gas","method":"combustion","capacityMW":null,"operator":null,"start":"2008","osmType":"way"}},{"type":"Feature","geometry":{"type":"Point","coordinates":[5.42884,53.19106]},"properties":{"id":"way/302051658","name":"Reststoffen Energie Centrale","fuel":"waste","source":"waste","method":null,"capacityMW":20,"operator":"Omrin","start":"2008","osmType":"way"}},{"type":"Feature","geometry":{"type":"Point","coordinates":[3.7793,51.33303]},"properties":{"id":"way/311465753","name":"ELSTA","fuel":"gas","source":"gas","method":"combustion","capacityMW":460,"operator":"Dow","start":null,"osmType":"way"}},{"type":"Feature","geometry":{"type":"Point","coordinates":[5.20783,52.22581]},"properties":{"id":"way/318386077","name":"Zonneweide Anna's Hoeve","fuel":"solar","source":"solar","method":"photovoltaic","capacityMW":null,"operator":null,"start":null,"osmType":"way"}},{"type":"Feature","geometry":{"type":"Point","coordinates":[-68.36545,12.22289]},"properties":{"id":"way/329649983","name":"Bonaire Hybrid Power Plant","fuel":"oil","source":"diesel","method":"combustion","capacityMW":14.25,"operator":"ContourGlobal Bonaire","start":null,"osmType":"way"}},{"type":"Feature","geometry":{"type":"Point","coordinates":[5.67438,53.45034]},"properties":{"id":"way/403958837","name":"Zonnepark Ameland","fuel":"solar","source":"solar","method":"photovoltaic","capacityMW":6,"operator":"BV Zonnepark Ameland","start":null,"osmType":"way"}},{"type":"Feature","geometry":{"type":"Point","coordinates":[4.58204,51.68194]},"properties":{"id":"way/404999017","name":"Attero Afvalenergiecentrale Moerdijk","fuel":"waste","source":"waste","method":null,"capacityMW":243,"operator":"Attero","start":"1997","osmType":"way"}},{"type":"Feature","geometry":{"type":"Point","coordinates":[4.09181,51.95741]},"properties":{"id":"way/451582875","name":"Enecogen","fuel":"gas","source":"gas","method":"combustion","capacityMW":870,"operator":null,"start":null,"osmType":"way"}},{"type":"Feature","geometry":{"type":"Point","coordinates":[4.71786,52.65859]},"properties":{"id":"way/455087073","name":"Unnamed site","fuel":"solar","source":"solar","method":"photovoltaic","capacityMW":null,"operator":"Coöperatie Bergen Energie","start":null,"osmType":"way"}},{"type":"Feature","geometry":{"type":"Point","coordinates":[4.71996,52.65847]},"properties":{"id":"way/456587710","name":"Zonneweide Bergen","fuel":"solar","source":"solar","method":"photovoltaic","capacityMW":null,"operator":"Coöperatie Bergen Energie","start":null,"osmType":"way"}},{"type":"Feature","geometry":{"type":"Point","coordinates":[6.95979,53.29945]},"properties":{"id":"way/459393512","name":"SunPort Delfzijl","fuel":"solar","source":"solar","method":"photovoltaic","capacityMW":30,"operator":"WIRSOL","start":null,"osmType":"way"}},{"type":"Feature","geometry":{"type":"Point","coordinates":[4.75025,52.32734]},"properties":{"id":"way/466653880","name":"Unnamed site","fuel":"solar","source":"solar","method":"photovoltaic","capacityMW":null,"operator":null,"start":null,"osmType":"way"}},{"type":"Feature","geometry":{"type":"Point","coordinates":[3.90644,51.81486]},"properties":{"id":"way/466675873","name":"Zonnepark Ouddorp aan Zee","fuel":"solar","source":"solar","method":"photovoltaic","capacityMW":null,"operator":null,"start":null,"osmType":"way"}},{"type":"Feature","geometry":{"type":"Point","coordinates":[4.44058,52.20488]},"properties":{"id":"way/481849536","name":"Unnamed site","fuel":"solar","source":"solar","method":"photovoltaic","capacityMW":null,"operator":null,"start":null,"osmType":"way"}},{"type":"Feature","geometry":{"type":"Point","coordinates":[5.99326,53.1715]},"properties":{"id":"way/493244250","name":"Zonnepark de Griene Greide","fuel":"solar","source":"solar","method":"photovoltaic","capacityMW":7,"operator":"Enerzjy Koöperaasje Garyp","start":"2017-05-12","osmType":"way"}},{"type":"Feature","geometry":{"type":"Point","coordinates":[6.48372,53.21513]},"properties":{"id":"way/502066841","name":"Zonnepark Vierverlaten","fuel":"solar","source":"solar","method":"photovoltaic","capacityMW":2,"operator":"Grunneger Power","start":null,"osmType":"way"}},{"type":"Feature","geometry":{"type":"Point","coordinates":[4.74639,51.59854]},"properties":{"id":"way/505645695","name":"ZonneWIJde","fuel":"solar","source":"solar","method":"photovoltaic","capacityMW":1.78,"operator":"Breda DuurSaam","start":null,"osmType":"way"}},{"type":"Feature","geometry":{"type":"Point","coordinates":[6.52822,53.24932]},"properties":{"id":"way/506925753","name":"Zonnepark Sungrazer","fuel":"solar","source":"solar","method":"photovoltaic","capacityMW":null,"operator":"Rijksuniversiteit Groningen","start":"21-12-2017","osmType":"way"}},{"type":"Feature","geometry":{"type":"Point","coordinates":[6.93746,53.00554]},"properties":{"id":"way/516377418","name":"Bio-Energie Stadskanaal","fuel":"bioenergy","source":"biomass","method":null,"capacityMW":2,"operator":null,"start":null,"osmType":"way"}},{"type":"Feature","geometry":{"type":"Point","coordinates":[5.978,50.95755]},"properties":{"id":"way/547517572","name":"Zonnepark Vandemoortele","fuel":"solar","source":"solar","method":"photovoltaic","capacityMW":2.3,"operator":null,"start":null,"osmType":"way"}},{"type":"Feature","geometry":{"type":"Point","coordinates":[5.07914,52.06051]},"properties":{"id":"way/569471051","name":"Solarpark Galecop","fuel":"solar","source":"solar","method":"photovoltaic","capacityMW":2.1,"operator":null,"start":null,"osmType":"way"}},{"type":"Feature","geometry":{"type":"Point","coordinates":[5.67038,51.64993]},"properties":{"id":"way/574145295","name":"Zonnepark Hoogveld Zuid","fuel":"solar","source":"solar","method":"photovoltaic","capacityMW":12,"operator":"TPSolar","start":"2018-07-04","osmType":"way"}},{"type":"Feature","geometry":{"type":"Point","coordinates":[5.85755,51.02006]},"properties":{"id":"way/580068596","name":"Biomassa Energiecentrale Sittard","fuel":"bioenergy","source":"biomass","method":null,"capacityMW":1.2,"operator":"BES B.V.","start":null,"osmType":"way"}},{"type":"Feature","geometry":{"type":"Point","coordinates":[5.90254,51.92621]},"properties":{"id":"way/586119152","name":"Zonnepark Bergerden","fuel":"solar","source":"solar","method":"photovoltaic","capacityMW":1.845,"operator":"Lingewaard Energie","start":null,"osmType":"way"}},{"type":"Feature","geometry":{"type":"Point","coordinates":[5.00493,52.52371]},"properties":{"id":"way/592077174","name":"Solar Campus Purmerend","fuel":"solar","source":"solar","method":"photovoltaic","capacityMW":5.6,"operator":"Ecorus","start":null,"osmType":"way"}},{"type":"Feature","geometry":{"type":"Point","coordinates":[6.59973,52.37751]},"properties":{"id":"way/592690887","name":"Zonnepark de Groene Weuste","fuel":"solar","source":"solar","method":null,"capacityMW":5.5,"operator":null,"start":null,"osmType":"way"}},{"type":"Feature","geometry":{"type":"Point","coordinates":[6.01577,51.96997]},"properties":{"id":"way/602259888","name":"Gansenwoirt I","fuel":"solar","source":"solar","method":"photovoltaic","capacityMW":null,"operator":"Energie van Hollandsche bodem","start":null,"osmType":"way"}},{"type":"Feature","geometry":{"type":"Point","coordinates":[6.00899,51.97453]},"properties":{"id":"way/602259889","name":"Gansenwoirt II","fuel":"solar","source":"solar","method":"photovoltaic","capacityMW":null,"operator":"Energie van Hollandsche bodem","start":null,"osmType":"way"}},{"type":"Feature","geometry":{"type":"Point","coordinates":[5.75787,53.18269]},"properties":{"id":"way/606601904","name":"Unnamed site","fuel":"other","source":"geothermal","method":null,"capacityMW":null,"operator":"Geocombinatie Leeuwarden","start":"2021","osmType":"way"}},{"type":"Feature","geometry":{"type":"Point","coordinates":[4.07181,51.94396]},"properties":{"id":"way/608602718","name":"Onyx Centrale Rotterdam","fuel":"coal","source":"coal","method":"combustion","capacityMW":736,"operator":"Riverstone Holdings","start":"2013","osmType":"way"}},{"type":"Feature","geometry":{"type":"Point","coordinates":[3.62141,51.47816]},"properties":{"id":"way/608925182","name":"Zonnepark Middelburg","fuel":"solar","source":"solar","method":"photovoltaic","capacityMW":14,"operator":"GroenLeven","start":"2018-02-21","osmType":"way"}},{"type":"Feature","geometry":{"type":"Point","coordinates":[5.83192,53.1664]},"properties":{"id":"way/614932931","name":"Zonnepark Hemriksein","fuel":"solar","source":"solar","method":null,"capacityMW":null,"operator":"Ecorus Projects B.V.","start":null,"osmType":"way"}},{"type":"Feature","geometry":{"type":"Point","coordinates":[4.99358,51.60619]},"properties":{"id":"way/626860574","name":"Unnamed site","fuel":"solar","source":"solar","method":null,"capacityMW":3.4,"operator":"Tesla, Inc.","start":"2018","osmType":"way"}},{"type":"Feature","geometry":{"type":"Point","coordinates":[5.2429,52.42019]},"properties":{"id":"way/630337588","name":"Zonnepark Zuyderzon","fuel":"solar","source":"solar","method":"photovoltaic","capacityMW":34,"operator":null,"start":null,"osmType":"way"}},{"type":"Feature","geometry":{"type":"Point","coordinates":[6.63919,53.19842]},"properties":{"id":"way/632671001","name":"Zonnepark Roodehaan I","fuel":"solar","source":"solar","method":"photovoltaic","capacityMW":11.4,"operator":null,"start":"2019-03-13","osmType":"way"}},{"type":"Feature","geometry":{"type":"Point","coordinates":[6.27947,53.13768]},"properties":{"id":"way/633493139","name":"Zonnepark Marum","fuel":"solar","source":"solar","method":"photovoltaic","capacityMW":9,"operator":null,"start":null,"osmType":"way"}},{"type":"Feature","geometry":{"type":"Point","coordinates":[5.75716,53.18897]},"properties":{"id":"way/633624193","name":"Unnamed site","fuel":"solar","source":"solar","method":"photovoltaic","capacityMW":null,"operator":null,"start":null,"osmType":"way"}},{"type":"Feature","geometry":{"type":"Point","coordinates":[5.75834,53.19038]},"properties":{"id":"way/633624194","name":"Zonnepark Newtonlaan","fuel":"solar","source":"solar","method":"photovoltaic","capacityMW":null,"operator":null,"start":null,"osmType":"way"}},{"type":"Feature","geometry":{"type":"Point","coordinates":[6.92635,53.30013]},"properties":{"id":"way/634170926","name":"Zonnepark Geefsweer","fuel":"solar","source":"solar","method":"photovoltaic","capacityMW":7.8,"operator":null,"start":null,"osmType":"way"}},{"type":"Feature","geometry":{"type":"Point","coordinates":[6.96378,52.97387]},"properties":{"id":"way/634237962","name":"Zonnepark Mercurius","fuel":"solar","source":"solar","method":"photovoltaic","capacityMW":4.4,"operator":null,"start":null,"osmType":"way"}},{"type":"Feature","geometry":{"type":"Point","coordinates":[4.8444,52.68882]},"properties":{"id":"way/639095851","name":"Zonnepark De Vaandel","fuel":"solar","source":"solar","method":"photovoltaic","capacityMW":9.36,"operator":"Ecorus","start":null,"osmType":"way"}},{"type":"Feature","geometry":{"type":"Point","coordinates":[-69.88984,12.43241]},"properties":{"id":"way/639984744","name":"Unnamed site","fuel":"solar","source":"solar","method":"photovoltaic","capacityMW":null,"operator":null,"start":null,"osmType":"way"}},{"type":"Feature","geometry":{"type":"Point","coordinates":[5.78522,52.72187]},"properties":{"id":"way/641549448","name":"Zonnepark Emmeloord","fuel":"solar","source":"solar","method":"photovoltaic","capacityMW":12.5,"operator":"Groen Leven","start":null,"osmType":"way"}},{"type":"Feature","geometry":{"type":"Point","coordinates":[5.25599,53.37674]},"properties":{"id":"way/641583224","name":"zonnepark Hee","fuel":"solar","source":"solar","method":"photovoltaic","capacityMW":0.5,"operator":"energiecoöperatie Terschelling Energie","start":null,"osmType":"way"}},{"type":"Feature","geometry":{"type":"Point","coordinates":[7.03239,52.74367]},"properties":{"id":"way/641710105","name":"Zonnepark De Lange Runde","fuel":"solar","source":"solar","method":"photovoltaic","capacityMW":14.2,"operator":"Statkraft","start":"2017-12-21","osmType":"way"}},{"type":"Feature","geometry":{"type":"Point","coordinates":[6.0085,50.88131]},"properties":{"id":"way/660097795","name":"Unnamed site","fuel":"solar","source":"solar","method":"photovoltaic","capacityMW":null,"operator":null,"start":null,"osmType":"way"}},{"type":"Feature","geometry":{"type":"Point","coordinates":[5.11192,52.02493]},"properties":{"id":"way/662882013","name":"Solarpark WRK","fuel":"solar","source":"solar","method":"photovoltaic","capacityMW":null,"operator":null,"start":null,"osmType":"way"}},{"type":"Feature","geometry":{"type":"Point","coordinates":[6.0088,52.24189]},"properties":{"id":"way/664490241","name":"Zonnepark Apeldoorn","fuel":"solar","source":"solar","method":"photovoltaic","capacityMW":3.8,"operator":null,"start":null,"osmType":"way"}},{"type":"Feature","geometry":{"type":"Point","coordinates":[5.51573,53.17576]},"properties":{"id":"way/672393852","name":"Zonnepark De Kie","fuel":"solar","source":"solar","method":null,"capacityMW":10.15,"operator":"Solarfields","start":null,"osmType":"way"}},{"type":"Feature","geometry":{"type":"Point","coordinates":[5.26131,53.00262]},"properties":{"id":"way/672905354","name":"Windpark Fryslân","fuel":"wind_onshore","source":"wind","method":"wind_turbine","capacityMW":382.7,"operator":null,"start":null,"osmType":"way"}},{"type":"Feature","geometry":{"type":"Point","coordinates":[5.97797,52.88259]},"properties":{"id":"way/673168217","name":"Zonnepark Wolvega ll","fuel":"solar","source":"solar","method":"photovoltaic","capacityMW":3.776,"operator":"Zonnepark Wolvega B.V.","start":null,"osmType":"way"}},{"type":"Feature","geometry":{"type":"Point","coordinates":[6.15098,52.8927]},"properties":{"id":"way/673170153","name":"Zonnepark Noordwolde","fuel":"solar","source":"solar","method":"photovoltaic","capacityMW":3.914,"operator":"Zonnepark Noordwolde B.V.","start":null,"osmType":"way"}},{"type":"Feature","geometry":{"type":"Point","coordinates":[5.47016,51.92309]},"properties":{"id":"way/674120556","name":"Zonnepark Lingemeer 2","fuel":"solar","source":"solar","method":"photovoltaic","capacityMW":null,"operator":null,"start":null,"osmType":"way"}},{"type":"Feature","geometry":{"type":"Point","coordinates":[5.18868,51.61827]},"properties":{"id":"way/676843142","name":"Zonnepark Landpark Assisië","fuel":"solar","source":"solar","method":"photovoltaic","capacityMW":1.7,"operator":null,"start":null,"osmType":"way"}},{"type":"Feature","geometry":{"type":"Point","coordinates":[6.35632,52.93855]},"properties":{"id":"way/677297257","name":"Zonnepark Appelscha","fuel":"solar","source":"solar","method":"photovoltaic","capacityMW":12.5,"operator":null,"start":null,"osmType":"way"}},{"type":"Feature","geometry":{"type":"Point","coordinates":[6.98777,53.30925]},"properties":{"id":"way/684877116","name":"EEW Energy from Waste","fuel":"waste","source":"waste","method":"combustion","capacityMW":185,"operator":null,"start":"2010","osmType":"way"}},{"type":"Feature","geometry":{"type":"Point","coordinates":[5.4614,53.18036]},"properties":{"id":"way/692533775","name":"Unnamed site","fuel":"solar","source":"solar","method":"photovoltaic","capacityMW":null,"operator":null,"start":null,"osmType":"way"}},{"type":"Feature","geometry":{"type":"Point","coordinates":[5.42602,51.49296]},"properties":{"id":"way/693032850","name":"Zonneveld Best","fuel":"solar","source":"solar","method":"photovoltaic","capacityMW":5.759,"operator":null,"start":null,"osmType":"way"}},{"type":"Feature","geometry":{"type":"Point","coordinates":[5.61902,51.47807]},"properties":{"id":"way/693939735","name":"e-Quest Zonnepark","fuel":"solar","source":"solar","method":"photovoltaic","capacityMW":null,"operator":"e-Quest","start":null,"osmType":"way"}},{"type":"Feature","geometry":{"type":"Point","coordinates":[5.53096,52.57797]},"properties":{"id":"way/700743639","name":"Zonnepark Maxima-centrale","fuel":"solar","source":"solar","method":"photovoltaic","capacityMW":null,"operator":null,"start":null,"osmType":"way"}},{"type":"Feature","geometry":{"type":"Point","coordinates":[6.78545,52.23357]},"properties":{"id":"way/700898274","name":"Twence","fuel":"waste","source":"waste","method":"combustion","capacityMW":75,"operator":"Twence","start":null,"osmType":"way"}},{"type":"Feature","geometry":{"type":"Point","coordinates":[4.28303,51.98547]},"properties":{"id":"way/702568494","name":"Unnamed site","fuel":"solar","source":"solar","method":"photovoltaic","capacityMW":null,"operator":null,"start":null,"osmType":"way"}},{"type":"Feature","geometry":{"type":"Point","coordinates":[5.43637,51.38759]},"properties":{"id":"way/708020616","name":"Zonnepark Dreefstraat","fuel":"solar","source":"solar","method":"photovoltaic","capacityMW":1.25,"operator":null,"start":null,"osmType":"way"}},{"type":"Feature","geometry":{"type":"Point","coordinates":[4.73939,51.81865]},"properties":{"id":"way/713488645","name":"Zonnepark Crayestein","fuel":"solar","source":"solar","method":"photovoltaic","capacityMW":3.5,"operator":"ECD","start":null,"osmType":"way"}},{"type":"Feature","geometry":{"type":"Point","coordinates":[4.1882,51.91444]},"properties":{"id":"way/719263410","name":"Batterijopslag Hartelkanaal","fuel":"storage","source":"battery","method":null,"capacityMW":20,"operator":"Greenchoice","start":null,"osmType":"way"}},{"type":"Feature","geometry":{"type":"Point","coordinates":[4.95449,52.29326]},"properties":{"id":"way/723604900","name":"Energiecentrale voor AUMC","fuel":"gas","source":"gas","method":"combustion","capacityMW":12,"operator":null,"start":null,"osmType":"way"}},{"type":"Feature","geometry":{"type":"Point","coordinates":[4.83426,52.34053]},"properties":{"id":"way/725090275","name":"Amsterdam South Connection","fuel":"other","source":null,"method":null,"capacityMW":null,"operator":null,"start":"2023","osmType":"way"}},{"type":"Feature","geometry":{"type":"Point","coordinates":[6.36384,53.13866]},"properties":{"id":"way/727255905","name":"Zonnepark Oostindie","fuel":"solar","source":"solar","method":"photovoltaic","capacityMW":2.3,"operator":"Ecorus","start":null,"osmType":"way"}},{"type":"Feature","geometry":{"type":"Point","coordinates":[5.32697,51.86692]},"properties":{"id":"way/730336249","name":"Zonnepark Avri","fuel":"solar","source":"solar","method":"photovoltaic","capacityMW":9.3,"operator":"Avri Solar B.V.","start":"2018-03-15","osmType":"way"}},{"type":"Feature","geometry":{"type":"Point","coordinates":[5.66677,52.05287]},"properties":{"id":"way/731831105","name":"Biomassacentrale Knuttelweg Ede","fuel":"bioenergy","source":"biomass","method":null,"capacityMW":null,"operator":null,"start":"2018","osmType":"way"}},{"type":"Feature","geometry":{"type":"Point","coordinates":[6.64048,52.41027]},"properties":{"id":"way/732164300","name":"Zonnepark Oosterweilanden","fuel":"solar","source":"solar","method":"photovoltaic","capacityMW":12,"operator":"Zonnepark Oosterweilanden BV","start":null,"osmType":"way"}},{"type":"Feature","geometry":{"type":"Point","coordinates":[6.12576,51.89923]},"properties":{"id":"way/732168801","name":"Agri PV Zonnepark","fuel":"solar","source":"solar","method":"photovoltaic","capacityMW":null,"operator":null,"start":null,"osmType":"way"}},{"type":"Feature","geometry":{"type":"Point","coordinates":[5.61308,51.23945]},"properties":{"id":"way/733008797","name":"Zonnepark Budel","fuel":"solar","source":"solar","method":"photovoltaic","capacityMW":43.8,"operator":null,"start":null,"osmType":"way"}},{"type":"Feature","geometry":{"type":"Point","coordinates":[7.07792,52.97874]},"properties":{"id":"way/733015132","name":"Zonnepark Vlagtwedde","fuel":"solar","source":"solar","method":"photovoltaic","capacityMW":109.9,"operator":"Powerfield","start":"2020","osmType":"way"}},{"type":"Feature","geometry":{"type":"Point","coordinates":[5.39571,51.44741]},"properties":{"id":"way/733093295","name":"Zonnepark Welschap","fuel":"solar","source":"solar","method":"photovoltaic","capacityMW":3,"operator":null,"start":null,"osmType":"way"}},{"type":"Feature","geometry":{"type":"Point","coordinates":[4.03625,51.77315]},"properties":{"id":"way/733595067","name":"Zonnepark Melissant","fuel":"solar","source":"solar","method":"photovoltaic","capacityMW":10,"operator":null,"start":null,"osmType":"way"}},{"type":"Feature","geometry":{"type":"Point","coordinates":[6.94332,52.90847]},"properties":{"id":"way/733612765","name":"Zonnepark Drenthe","fuel":"solar","source":"solar","method":"photovoltaic","capacityMW":null,"operator":null,"start":null,"osmType":"way"}},{"type":"Feature","geometry":{"type":"Point","coordinates":[7.02418,53.10282]},"properties":{"id":"way/733772316","name":"Zonnepark Aa Stroom","fuel":"solar","source":"solar","method":"photovoltaic","capacityMW":2.2,"operator":null,"start":null,"osmType":"way"}},{"type":"Feature","geometry":{"type":"Point","coordinates":[6.64109,52.37934]},"properties":{"id":"way/733780311","name":"Zonnepark Aadijk","fuel":"solar","source":"solar","method":null,"capacityMW":40,"operator":null,"start":null,"osmType":"way"}},{"type":"Feature","geometry":{"type":"Point","coordinates":[5.7378,51.85877]},"properties":{"id":"way/733781842","name":"Zonnepark Lage Woerd","fuel":"solar","source":"solar","method":"photovoltaic","capacityMW":6,"operator":null,"start":null,"osmType":"way"}},{"type":"Feature","geometry":{"type":"Point","coordinates":[3.91638,51.63908]},"properties":{"id":"way/733783366","name":"Zonnepark Zierikzee","fuel":"solar","source":"solar","method":"photovoltaic","capacityMW":14.1,"operator":"Encavis AG","start":"2018-11","osmType":"way"}},{"type":"Feature","geometry":{"type":"Point","coordinates":[6.28817,52.33487]},"properties":{"id":"way/733785481","name":"Zonnepark Heeten","fuel":"solar","source":"solar","method":"photovoltaic","capacityMW":2.2,"operator":null,"start":null,"osmType":"way"}},{"type":"Feature","geometry":{"type":"Point","coordinates":[4.51231,51.86293]},"properties":{"id":"way/733785765","name":"Zonnepark A15 Barendrecht","fuel":"solar","source":"solar","method":"photovoltaic","capacityMW":null,"operator":null,"start":null,"osmType":"way"}},{"type":"Feature","geometry":{"type":"Point","coordinates":[6.73196,53.15942]},"properties":{"id":"way/736248160","name":"Zonnepark Molenwaard","fuel":"solar","source":"solar","method":"photovoltaic","capacityMW":34,"operator":"Solarfields / Engie","start":null,"osmType":"way"}},{"type":"Feature","geometry":{"type":"Point","coordinates":[5.3027,52.38069]},"properties":{"id":"way/740052164","name":"Zonnepark Parkway6","fuel":"solar","source":"solar","method":"photovoltaic","capacityMW":0.8,"operator":null,"start":null,"osmType":"way"}},{"type":"Feature","geometry":{"type":"Point","coordinates":[6.78587,51.98068]},"properties":{"id":"way/740906422","name":"Huls Energiepark","fuel":"solar","source":"solar","method":"photovoltaic","capacityMW":null,"operator":null,"start":null,"osmType":"way"}},{"type":"Feature","geometry":{"type":"Point","coordinates":[6.45103,52.17224]},"properties":{"id":"way/746268575","name":"Zonnepark Armhoede","fuel":"solar","source":"solar","method":"photovoltaic","capacityMW":8.9,"operator":"TPSolar","start":null,"osmType":"way"}},{"type":"Feature","geometry":{"type":"Point","coordinates":[6.77668,52.23457]},"properties":{"id":"way/753581241","name":"Zonnepark Boeldershoek-West","fuel":"solar","source":"solar","method":"photovoltaic","capacityMW":17.5,"operator":null,"start":null,"osmType":"way"}},{"type":"Feature","geometry":{"type":"Point","coordinates":[4.83081,52.24055]},"properties":{"id":"way/755417807","name":"Zonnepark RWZI Uithoorn","fuel":"solar","source":"solar","method":"photovoltaic","capacityMW":null,"operator":null,"start":null,"osmType":"way"}},{"type":"Feature","geometry":{"type":"Point","coordinates":[5.79131,51.44857]},"properties":{"id":"way/756371830","name":"Zonnepark De Vlaas","fuel":"solar","source":"solar","method":"photovoltaic","capacityMW":4.9,"operator":null,"start":null,"osmType":"way"}},{"type":"Feature","geometry":{"type":"Point","coordinates":[4.82976,52.45434]},"properties":{"id":"way/762971612","name":"Unnamed site","fuel":"bioenergy","source":"biomass","method":null,"capacityMW":null,"operator":null,"start":null,"osmType":"way"}},{"type":"Feature","geometry":{"type":"Point","coordinates":[5.835,53.04447]},"properties":{"id":"way/762973810","name":"Zonnepark RWZI Akkrum","fuel":"solar","source":"solar","method":"photovoltaic","capacityMW":null,"operator":null,"start":null,"osmType":"way"}},{"type":"Feature","geometry":{"type":"Point","coordinates":[6.28449,52.32991]},"properties":{"id":"way/764101219","name":"Zonneweide Boerhof","fuel":"solar","source":"solar","method":"photovoltaic","capacityMW":0.9,"operator":null,"start":null,"osmType":"way"}},{"type":"Feature","geometry":{"type":"Point","coordinates":[4.2703,51.90761]},"properties":{"id":"way/775222072","name":"Zonnepark Maassluis","fuel":"solar","source":"solar","method":"photovoltaic","capacityMW":0.25,"operator":null,"start":null,"osmType":"way"}},{"type":"Feature","geometry":{"type":"Point","coordinates":[5.53118,52.47646]},"properties":{"id":"way/775637628","name":"Unnamed site","fuel":"solar","source":"solar","method":"photovoltaic","capacityMW":2.3,"operator":null,"start":null,"osmType":"way"}},{"type":"Feature","geometry":{"type":"Point","coordinates":[5.7572,53.20922]},"properties":{"id":"way/786366273","name":"Zonnepark Westeinde","fuel":"solar","source":"solar","method":"photovoltaic","capacityMW":3,"operator":"Stichting Westeinde Energieneutraal","start":"2020","osmType":"way"}},{"type":"Feature","geometry":{"type":"Point","coordinates":[6.15076,52.54504]},"properties":{"id":"way/786954853","name":"Zonnepark Bomhofsplas","fuel":"solar","source":"solar","method":"photovoltaic","capacityMW":27.3,"operator":"Blauwvinger Energie","start":null,"osmType":"way"}},{"type":"Feature","geometry":{"type":"Point","coordinates":[6.1409,52.48409]},"properties":{"id":"way/786956263","name":"Zonnepark Sekdoornse plas","fuel":"solar","source":"solar","method":"photovoltaic","capacityMW":14.5,"operator":"Blauwvinger Energie","start":null,"osmType":"way"}},{"type":"Feature","geometry":{"type":"Point","coordinates":[4.8552,51.86674]},"properties":{"id":"way/791804417","name":"Unnamed site","fuel":"gas","source":"gas","method":"combustion","capacityMW":null,"operator":null,"start":null,"osmType":"way"}},{"type":"Feature","geometry":{"type":"Point","coordinates":[4.44772,51.86508]},"properties":{"id":"way/795374942","name":"Zonnepark Rhoon","fuel":"solar","source":"solar","method":"photovoltaic","capacityMW":4.5,"operator":null,"start":null,"osmType":"way"}},{"type":"Feature","geometry":{"type":"Point","coordinates":[5.52333,52.56]},"properties":{"id":"way/795504313","name":"Zonnepark Flevokust","fuel":"solar","source":"solar","method":"photovoltaic","capacityMW":29.5,"operator":null,"start":null,"osmType":"way"}},{"type":"Feature","geometry":{"type":"Point","coordinates":[5.80025,50.98903]},"properties":{"id":"way/795953309","name":"Zonnepark Louisegroeve","fuel":"solar","source":"solar","method":"photovoltaic","capacityMW":3.4,"operator":null,"start":null,"osmType":"way"}},{"type":"Feature","geometry":{"type":"Point","coordinates":[4.75435,52.59781]},"properties":{"id":"way/796487598","name":"Zonnepark Boekelermeer","fuel":"solar","source":"solar","method":"photovoltaic","capacityMW":2.38,"operator":null,"start":null,"osmType":"way"}},{"type":"Feature","geometry":{"type":"Point","coordinates":[6.25686,52.68929]},"properties":{"id":"way/797384063","name":"Zonnepark Rogat","fuel":"solar","source":"solar","method":"photovoltaic","capacityMW":null,"operator":null,"start":null,"osmType":"way"}},{"type":"Feature","geometry":{"type":"Point","coordinates":[4.79415,52.40078]},"properties":{"id":"way/813659494","name":"Afvalenergiecentrale Westpoort","fuel":"waste","source":"waste","method":"combustion","capacityMW":null,"operator":"Afval Energie Bedrijf","start":null,"osmType":"way"}},{"type":"Feature","geometry":{"type":"Point","coordinates":[6.6331,53.0883]},"properties":{"id":"way/818313272","name":"Zonnepark Tynaarlo","fuel":"solar","source":"solar","method":"photovoltaic","capacityMW":15,"operator":"GroenLeven","start":null,"osmType":"way"}},{"type":"Feature","geometry":{"type":"Point","coordinates":[4.53218,51.90598]},"properties":{"id":"way/825957090","name":"Unnamed site","fuel":"solar","source":"solar","method":"photovoltaic","capacityMW":6,"operator":"Evides","start":null,"osmType":"way"}},{"type":"Feature","geometry":{"type":"Point","coordinates":[3.90738,51.5025]},"properties":{"id":"way/826579527","name":"Unnamed site","fuel":"solar","source":"solar","method":"photovoltaic","capacityMW":null,"operator":null,"start":null,"osmType":"way"}},{"type":"Feature","geometry":{"type":"Point","coordinates":[5.83337,53.18102]},"properties":{"id":"way/828222258","name":"Unnamed site","fuel":"solar","source":"solar","method":"photovoltaic","capacityMW":null,"operator":null,"start":null,"osmType":"way"}},{"type":"Feature","geometry":{"type":"Point","coordinates":[4.65189,51.77048]},"properties":{"id":"way/840880947","name":"Zonnepark Amstelwijck","fuel":"solar","source":"solar","method":"photovoltaic","capacityMW":4.6,"operator":"gemeente Dordrecht, afval -en energiebedrijf HVC en de Energie Coöperatie Dordrecht (ECD)","start":"aug 2020","osmType":"way"}},{"type":"Feature","geometry":{"type":"Point","coordinates":[3.85955,51.48828]},"properties":{"id":"way/842176297","name":"Zonnepark Goes","fuel":"solar","source":"solar","method":"photovoltaic","capacityMW":3.5,"operator":null,"start":null,"osmType":"way"}},{"type":"Feature","geometry":{"type":"Point","coordinates":[6.89303,52.31095]},"properties":{"id":"way/843564879","name":"Zonnepark RWZI Oldenzaal","fuel":"solar","source":"solar","method":"photovoltaic","capacityMW":0.841,"operator":null,"start":null,"osmType":"way"}},{"type":"Feature","geometry":{"type":"Point","coordinates":[6.03403,53.06582]},"properties":{"id":"way/844712164","name":"Drijvend Zonnepark Nij Beets","fuel":"solar","source":"solar","method":"photovoltaic","capacityMW":13.6,"operator":null,"start":null,"osmType":"way"}},{"type":"Feature","geometry":{"type":"Point","coordinates":[6.24535,53.01497]},"properties":{"id":"way/846881306","name":"Zonnepark Donkerbroek","fuel":"solar","source":"solar","method":"photovoltaic","capacityMW":2.2,"operator":"GroenLeven","start":null,"osmType":"way"}},{"type":"Feature","geometry":{"type":"Point","coordinates":[6.19802,52.72126]},"properties":{"id":"way/849742849","name":"Zonnepark Mandeveld","fuel":"solar","source":"solar","method":"photovoltaic","capacityMW":0.58,"operator":null,"start":null,"osmType":"way"}},{"type":"Feature","geometry":{"type":"Point","coordinates":[6.35784,53.03421]},"properties":{"id":"way/853366660","name":"Zonnepark Oosterwolde","fuel":"solar","source":"solar","method":"photovoltaic","capacityMW":2.1,"operator":"GroenLeven","start":null,"osmType":"way"}},{"type":"Feature","geometry":{"type":"Point","coordinates":[5.85023,53.21908]},"properties":{"id":"way/858307769","name":"Zonnepark Blitsaerd","fuel":"solar","source":"solar","method":"photovoltaic","capacityMW":4.8,"operator":"GroenLeven","start":"2020","osmType":"way"}},{"type":"Feature","geometry":{"type":"Point","coordinates":[4.74977,52.93477]},"properties":{"id":"way/860116522","name":"Zonnepark De Dogger","fuel":"solar","source":"solar","method":"photovoltaic","capacityMW":7.45,"operator":null,"start":null,"osmType":"way"}},{"type":"Feature","geometry":{"type":"Point","coordinates":[4.74989,52.93077]},"properties":{"id":"way/863626609","name":"Zonnepark Jutterszon","fuel":"solar","source":"solar","method":"photovoltaic","capacityMW":3.1,"operator":null,"start":null,"osmType":"way"}},{"type":"Feature","geometry":{"type":"Point","coordinates":[6.56752,52.31037]},"properties":{"id":"way/864246784","name":"Unnamed site","fuel":"solar","source":"solar","method":"photovoltaic","capacityMW":null,"operator":null,"start":null,"osmType":"way"}},{"type":"Feature","geometry":{"type":"Point","coordinates":[4.82979,52.40781]},"properties":{"id":"way/875731356","name":"Giraffe","fuel":"storage","source":"battery","method":null,"capacityMW":10,"operator":"GIGA Storage","start":null,"osmType":"way"}},{"type":"Feature","geometry":{"type":"Point","coordinates":[5.60913,52.04698]},"properties":{"id":"way/878232142","name":"Zonnecentrale Meikade","fuel":"solar","source":"solar","method":"photovoltaic","capacityMW":2,"operator":null,"start":null,"osmType":"way"}},{"type":"Feature","geometry":{"type":"Point","coordinates":[6.93195,53.07043]},"properties":{"id":"way/885885618","name":"Zonnepark Ommelanderwijk","fuel":"solar","source":"solar","method":"photovoltaic","capacityMW":7.2,"operator":null,"start":null,"osmType":"way"}},{"type":"Feature","geometry":{"type":"Point","coordinates":[6.86839,52.99117]},"properties":{"id":"way/886194894","name":"Zonnepark Gasselternijeveen","fuel":"solar","source":"solar","method":"photovoltaic","capacityMW":3.2,"operator":null,"start":null,"osmType":"way"}},{"type":"Feature","geometry":{"type":"Point","coordinates":[6.39114,52.1649]},"properties":{"id":"way/886800047","name":"Zonnepark Berkelweide","fuel":"solar","source":"solar","method":"photovoltaic","capacityMW":9.7,"operator":"TPSolar","start":null,"osmType":"way"}},{"type":"Feature","geometry":{"type":"Point","coordinates":[5.90054,51.91379]},"properties":{"id":"way/894190544","name":"Zonnepark Lingewal","fuel":"solar","source":"solar","method":"photovoltaic","capacityMW":13,"operator":"Kronos Solar Projects GmbH","start":"2020","osmType":"way"}},{"type":"Feature","geometry":{"type":"Point","coordinates":[5.4592,53.18091]},"properties":{"id":"way/897701403","name":"Unnamed site","fuel":"solar","source":"solar","method":"photovoltaic","capacityMW":null,"operator":null,"start":null,"osmType":"way"}},{"type":"Feature","geometry":{"type":"Point","coordinates":[4.51747,51.8414]},"properties":{"id":"way/902014444","name":"Zonnepark RWZI Barendrecht","fuel":"solar","source":"solar","method":"photovoltaic","capacityMW":null,"operator":null,"start":null,"osmType":"way"}},{"type":"Feature","geometry":{"type":"Point","coordinates":[5.07987,52.10123]},"properties":{"id":"way/903065206","name":"Centrale Merwedekanaal","fuel":"gas","source":"gas","method":"combustion","capacityMW":328,"operator":"Eneco","start":"1925","osmType":"way"}},{"type":"Feature","geometry":{"type":"Point","coordinates":[4.20684,51.75288]},"properties":{"id":"relation/11039559","name":"Energiepark Haringvliet Zuid","fuel":"wind_onshore","source":"wind","method":null,"capacityMW":22,"operator":"Vattenfall","start":null,"osmType":"relation"}},{"type":"Feature","geometry":{"type":"Point","coordinates":[5.18184,52.0145]},"properties":{"id":"way/908909565","name":"Unnamed site","fuel":"gas","source":"gas","method":null,"capacityMW":null,"operator":"Eneco","start":null,"osmType":"way"}},{"type":"Feature","geometry":{"type":"Point","coordinates":[5.0741,51.70927]},"properties":{"id":"relation/2004832","name":"Ecopark Waalwijk","fuel":"wind_onshore","source":"wind","method":null,"capacityMW":6,"operator":null,"start":"2005-10-25","osmType":"relation"}},{"type":"Feature","geometry":{"type":"Point","coordinates":[5.79174,50.97182]},"properties":{"id":"way/908909571","name":"Centrale Swentibold","fuel":"gas","source":"gas","method":"combustion","capacityMW":231,"operator":"Utility Support Group","start":"1999","osmType":"way"}},{"type":"Feature","geometry":{"type":"Point","coordinates":[6.94366,52.75292]},"properties":{"id":"way/909264708","name":"Zonnepark Emmen","fuel":"solar","source":"solar","method":"photovoltaic","capacityMW":12,"operator":"Shell","start":null,"osmType":"way"}},{"type":"Feature","geometry":{"type":"Point","coordinates":[5.65825,51.99774]},"properties":{"id":"way/909941502","name":"Unnamed site","fuel":"solar","source":"solar","method":"photovoltaic","capacityMW":null,"operator":null,"start":null,"osmType":"way"}},{"type":"Feature","geometry":{"type":"Point","coordinates":[6.19487,52.16335]},"properties":{"id":"way/912433065","name":"Zonnepark Fort de Pol","fuel":"solar","source":"solar","method":"photovoltaic","capacityMW":5,"operator":null,"start":null,"osmType":"way"}},{"type":"Feature","geometry":{"type":"Point","coordinates":[4.55139,51.80972]},"properties":{"id":"way/913246031","name":"Cosun Solar Park Puttershoek","fuel":"solar","source":"solar","method":"photovoltaic","capacityMW":20.6,"operator":"KiesZon","start":"2020","osmType":"way"}},{"type":"Feature","geometry":{"type":"Point","coordinates":[5.77133,51.38304]},"properties":{"id":"way/914086695","name":"Zonnepark Heusden","fuel":"solar","source":"solar","method":"photovoltaic","capacityMW":2.025,"operator":null,"start":null,"osmType":"way"}},{"type":"Feature","geometry":{"type":"Point","coordinates":[6.59063,52.24982]},"properties":{"id":"way/914485557","name":"Zonnepark Entersestraat","fuel":"solar","source":"solar","method":"photovoltaic","capacityMW":2,"operator":null,"start":null,"osmType":"way"}},{"type":"Feature","geometry":{"type":"Point","coordinates":[6.46,52.74355]},"properties":{"id":"way/914801878","name":"Zonnepark Fluitenberg","fuel":"solar","source":"solar","method":"photovoltaic","capacityMW":26,"operator":null,"start":null,"osmType":"way"}},{"type":"Feature","geometry":{"type":"Point","coordinates":[6.48312,52.54389]},"properties":{"id":"way/914804882","name":"Zonnepark Hoogengraven","fuel":"solar","source":"solar","method":"photovoltaic","capacityMW":3.1,"operator":null,"start":null,"osmType":"way"}},{"type":"Feature","geometry":{"type":"Point","coordinates":[6.53788,52.45678]},"properties":{"id":"way/914805893","name":"Zonnepark Flierbelten","fuel":"solar","source":"solar","method":"photovoltaic","capacityMW":5.5,"operator":null,"start":null,"osmType":"way"}},{"type":"Feature","geometry":{"type":"Point","coordinates":[4.62486,52.00911]},"properties":{"id":"way/914812517","name":"Zonnepark Zuidplas","fuel":"solar","source":"solar","method":"photovoltaic","capacityMW":13,"operator":null,"start":null,"osmType":"way"}},{"type":"Feature","geometry":{"type":"Point","coordinates":[5.97985,52.88314]},"properties":{"id":"way/914815847","name":"Zonnepark Wolvega l","fuel":"solar","source":"solar","method":"photovoltaic","capacityMW":5,"operator":null,"start":null,"osmType":"way"}},{"type":"Feature","geometry":{"type":"Point","coordinates":[5.07927,52.72247]},"properties":{"id":"way/915184876","name":"zonneweide Tripkouw","fuel":"solar","source":"solar","method":"photovoltaic","capacityMW":5.9,"operator":null,"start":null,"osmType":"way"}},{"type":"Feature","geometry":{"type":"Point","coordinates":[6.69862,52.51605]},"properties":{"id":"way/915205866","name":"Zonnepark Kloosterhaar","fuel":"solar","source":"solar","method":"photovoltaic","capacityMW":16,"operator":null,"start":null,"osmType":"way"}},{"type":"Feature","geometry":{"type":"Point","coordinates":[5.67658,50.87154]},"properties":{"id":"way/916009676","name":"Zonnepark Belvédère","fuel":"solar","source":"solar","method":"photovoltaic","capacityMW":12,"operator":null,"start":null,"osmType":"way"}},{"type":"Feature","geometry":{"type":"Point","coordinates":[5.6871,51.22095]},"properties":{"id":"way/916303781","name":"Zonnepark Altweerterheide","fuel":"solar","source":"solar","method":"photovoltaic","capacityMW":1.4,"operator":null,"start":null,"osmType":"way"}},{"type":"Feature","geometry":{"type":"Point","coordinates":[6.03585,50.86969]},"properties":{"id":"way/916317317","name":"Unnamed site","fuel":"solar","source":"solar","method":"photovoltaic","capacityMW":null,"operator":null,"start":null,"osmType":"way"}},{"type":"Feature","geometry":{"type":"Point","coordinates":[6.01813,50.82057]},"properties":{"id":"way/916320761","name":"Zonnepark Bocholtz","fuel":"solar","source":"solar","method":"photovoltaic","capacityMW":1.656,"operator":"Enovos","start":null,"osmType":"way"}},{"type":"Feature","geometry":{"type":"Point","coordinates":[5.11621,52.27121]},"properties":{"id":"way/916323572","name":"Zonnepark De Boomgaard","fuel":"solar","source":"solar","method":"photovoltaic","capacityMW":null,"operator":null,"start":null,"osmType":"way"}},{"type":"Feature","geometry":{"type":"Point","coordinates":[4.83604,51.82177]},"properties":{"id":"way/916806071","name":"Zonnepark RWZI Hardinxveld-Giessendam","fuel":"solar","source":"solar","method":"photovoltaic","capacityMW":null,"operator":"Waterschap Rivierenland","start":"aug 2020","osmType":"way"}},{"type":"Feature","geometry":{"type":"Point","coordinates":[6.56801,53.0569]},"properties":{"id":"way/917710421","name":"Zonnepark Zeijen","fuel":"solar","source":"solar","method":"photovoltaic","capacityMW":0.596,"operator":"Vrij Op Naam Zonnepark 1 B.V","start":null,"osmType":"way"}},{"type":"Feature","geometry":{"type":"Point","coordinates":[6.52335,53.00792]},"properties":{"id":"way/917791474","name":"Zonnepark De Lichtkiem","fuel":"solar","source":"solar","method":"photovoltaic","capacityMW":4,"operator":null,"start":null,"osmType":"way"}},{"type":"Feature","geometry":{"type":"Point","coordinates":[4.3675,51.88595]},"properties":{"id":"way/920978717","name":"PerGen","fuel":"other","source":null,"method":null,"capacityMW":300,"operator":"Air Liquide","start":null,"osmType":"way"}},{"type":"Feature","geometry":{"type":"Point","coordinates":[6.41764,52.93237]},"properties":{"id":"way/921748655","name":"Zonnepark Leemdijk","fuel":"solar","source":"solar","method":null,"capacityMW":6.9,"operator":null,"start":null,"osmType":"way"}},{"type":"Feature","geometry":{"type":"Point","coordinates":[6.66514,52.93561]},"properties":{"id":"way/924704320","name":"Unnamed site","fuel":"solar","source":"solar","method":"photovoltaic","capacityMW":null,"operator":null,"start":null,"osmType":"way"}},{"type":"Feature","geometry":{"type":"Point","coordinates":[6.18274,53.09913]},"properties":{"id":"way/928638583","name":"Zonnepark Ureterp","fuel":"solar","source":"solar","method":"photovoltaic","capacityMW":4.3,"operator":null,"start":null,"osmType":"way"}},{"type":"Feature","geometry":{"type":"Point","coordinates":[5.51596,51.87226]},"properties":{"id":"way/929148413","name":"Zonnepark Oost","fuel":"solar","source":"solar","method":"photovoltaic","capacityMW":3.85,"operator":null,"start":null,"osmType":"way"}},{"type":"Feature","geometry":{"type":"Point","coordinates":[5.50012,51.87266]},"properties":{"id":"way/929148414","name":"Zonnepark West","fuel":"solar","source":"solar","method":"photovoltaic","capacityMW":3.85,"operator":null,"start":null,"osmType":"way"}},{"type":"Feature","geometry":{"type":"Point","coordinates":[4.68091,52.25523]},"properties":{"id":"way/929159274","name":"Zonnepark A4 Rijsenhout","fuel":"solar","source":"solar","method":"photovoltaic","capacityMW":0.5,"operator":null,"start":null,"osmType":"way"}},{"type":"Feature","geometry":{"type":"Point","coordinates":[4.84007,51.58497]},"properties":{"id":"way/929250496","name":"Zonnepark Bavelse Berg","fuel":"solar","source":"solar","method":"photovoltaic","capacityMW":37,"operator":null,"start":null,"osmType":"way"}},{"type":"Feature","geometry":{"type":"Point","coordinates":[3.55052,51.49344]},"properties":{"id":"way/929685847","name":"Zonnepark Koudekerke","fuel":"solar","source":"solar","method":"photovoltaic","capacityMW":3.6,"operator":"Zonnepark Koudekerke B.V.","start":"2020-04","osmType":"way"}},{"type":"Feature","geometry":{"type":"Point","coordinates":[3.77822,51.49797]},"properties":{"id":"way/929690715","name":"Zonnepark Vlaamseweg","fuel":"solar","source":"solar","method":"photovoltaic","capacityMW":2.5,"operator":"Dutch Green Energy","start":null,"osmType":"way"}},{"type":"Feature","geometry":{"type":"Point","coordinates":[5.01946,51.59191]},"properties":{"id":"way/930762072","name":"Ennatuurlijk Pompstation Tilburg","fuel":"other","source":null,"method":null,"capacityMW":null,"operator":"Ennatuurlijk","start":null,"osmType":"way"}},{"type":"Feature","geometry":{"type":"Point","coordinates":[4.57883,51.68789]},"properties":{"id":"way/930762089","name":"Biomassacentrale Moerdijk","fuel":"bioenergy","source":"biomass","method":null,"capacityMW":36,"operator":"BMC","start":"03-09-2008","osmType":"way"}},{"type":"Feature","geometry":{"type":"Point","coordinates":[4.57917,51.68956]},"properties":{"id":"way/930762090","name":"Slibverwerking Noord-Brabant","fuel":"bioenergy","source":"biomass","method":"combustion","capacityMW":null,"operator":"Slibverwerking Noord-Brabant (SNB)","start":null,"osmType":"way"}},{"type":"Feature","geometry":{"type":"Point","coordinates":[5.21093,52.01472]},"properties":{"id":"way/930763723","name":"Zonnepark Oostromsdijkje","fuel":"solar","source":"solar","method":"photovoltaic","capacityMW":null,"operator":null,"start":null,"osmType":"way"}},{"type":"Feature","geometry":{"type":"Point","coordinates":[5.07887,52.77106]},"properties":{"id":"way/931194871","name":"Zonnepark Middenmeer","fuel":"solar","source":"solar","method":"photovoltaic","capacityMW":3.24,"operator":null,"start":null,"osmType":"way"}},{"type":"Feature","geometry":{"type":"Point","coordinates":[6.16573,52.10016]},"properties":{"id":"way/932733756","name":"Zonnepark Elzenbos","fuel":"solar","source":"solar","method":"photovoltaic","capacityMW":2.5,"operator":null,"start":null,"osmType":"way"}},{"type":"Feature","geometry":{"type":"Point","coordinates":[6.97409,53.2828]},"properties":{"id":"way/933670027","name":"Zonnepark Kloosterlaan","fuel":"solar","source":"solar","method":"photovoltaic","capacityMW":11.7,"operator":null,"start":null,"osmType":"way"}},{"type":"Feature","geometry":{"type":"Point","coordinates":[5.96567,52.82247]},"properties":{"id":"way/935960537","name":"Zonnepark Boterberg","fuel":"solar","source":"solar","method":"photovoltaic","capacityMW":1.1,"operator":null,"start":null,"osmType":"way"}},{"type":"Feature","geometry":{"type":"Point","coordinates":[5.86991,52.98147]},"properties":{"id":"way/935986925","name":"Zonnepark Vegelinsoord","fuel":"solar","source":"solar","method":"photovoltaic","capacityMW":5,"operator":null,"start":null,"osmType":"way"}},{"type":"Feature","geometry":{"type":"Point","coordinates":[4.57828,51.8136]},"properties":{"id":"way/937467221","name":"Zonnepark RWZI Zwijndrecht","fuel":"solar","source":"solar","method":"photovoltaic","capacityMW":null,"operator":null,"start":null,"osmType":"way"}},{"type":"Feature","geometry":{"type":"Point","coordinates":[5.13518,52.73368]},"properties":{"id":"way/938012256","name":"Zonnepark RWZI Wervershoof","fuel":"solar","source":"solar","method":"photovoltaic","capacityMW":null,"operator":null,"start":null,"osmType":"way"}},{"type":"Feature","geometry":{"type":"Point","coordinates":[5.14482,52.70747]},"properties":{"id":"way/938014320","name":"Unnamed site","fuel":"solar","source":"solar","method":"photovoltaic","capacityMW":null,"operator":null,"start":null,"osmType":"way"}},{"type":"Feature","geometry":{"type":"Point","coordinates":[4.72066,52.59461]},"properties":{"id":"way/938060199","name":"Zonnepark RWZI Heiloo","fuel":"solar","source":"solar","method":"photovoltaic","capacityMW":null,"operator":null,"start":null,"osmType":"way"}},{"type":"Feature","geometry":{"type":"Point","coordinates":[6.88387,53.0996]},"properties":{"id":"way/938245148","name":"Unnamed site","fuel":"solar","source":"solar","method":"photovoltaic","capacityMW":null,"operator":null,"start":null,"osmType":"way"}},{"type":"Feature","geometry":{"type":"Point","coordinates":[6.84569,53.27231]},"properties":{"id":"way/940686750","name":"Zonnepark Steendam","fuel":"solar","source":"solar","method":"photovoltaic","capacityMW":null,"operator":null,"start":null,"osmType":"way"}},{"type":"Feature","geometry":{"type":"Point","coordinates":[5.3131,51.86123]},"properties":{"id":"way/940724910","name":"Zonnepark Klaverblad Geldermalsen","fuel":"solar","source":"solar","method":"photovoltaic","capacityMW":null,"operator":"Energie van Hollandsche bodem","start":null,"osmType":"way"}},{"type":"Feature","geometry":{"type":"Point","coordinates":[4.17771,51.77027]},"properties":{"id":"way/944868463","name":"Zonnepark RWZI Middelharnis","fuel":"solar","source":"solar","method":"photovoltaic","capacityMW":null,"operator":null,"start":null,"osmType":"way"}},{"type":"Feature","geometry":{"type":"Point","coordinates":[6.4288,53.0895]},"properties":{"id":"way/945984309","name":"Zonnepark Halo","fuel":"solar","source":"solar","method":"photovoltaic","capacityMW":1,"operator":null,"start":null,"osmType":"way"}},{"type":"Feature","geometry":{"type":"Point","coordinates":[5.87221,52.97039]},"properties":{"id":"way/945985759","name":"Zonnepark Oudehaske I","fuel":"solar","source":"solar","method":"photovoltaic","capacityMW":7,"operator":null,"start":null,"osmType":"way"}},{"type":"Feature","geometry":{"type":"Point","coordinates":[6.4966,52.59983]},"properties":{"id":"way/945992790","name":"Zonnepark NPG Solar Dedemsvaart","fuel":"solar","source":"solar","method":"photovoltaic","capacityMW":2.58,"operator":null,"start":null,"osmType":"way"}},{"type":"Feature","geometry":{"type":"Point","coordinates":[4.57631,51.68907]},"properties":{"id":"way/946022177","name":"Zonnepark SNB","fuel":"solar","source":"solar","method":"photovoltaic","capacityMW":2.4,"operator":null,"start":null,"osmType":"way"}},{"type":"Feature","geometry":{"type":"Point","coordinates":[5.95561,52.31914]},"properties":{"id":"way/946038008","name":"Zonnepark Emst","fuel":"solar","source":"solar","method":"photovoltaic","capacityMW":1.7,"operator":null,"start":null,"osmType":"way"}},{"type":"Feature","geometry":{"type":"Point","coordinates":[4.75198,52.84659]},"properties":{"id":"way/946100985","name":"Zonnepark Kolksluis Solar","fuel":"solar","source":"solar","method":"photovoltaic","capacityMW":3.34,"operator":null,"start":null,"osmType":"way"}},{"type":"Feature","geometry":{"type":"Point","coordinates":[5.0235,52.33942]},"properties":{"id":"way/946238504","name":"Zonnepark Diemen","fuel":"solar","source":"solar","method":"photovoltaic","capacityMW":1.36,"operator":null,"start":null,"osmType":"way"}},{"type":"Feature","geometry":{"type":"Point","coordinates":[-69.10572,12.35019]},"properties":{"id":"way/946622475","name":"Unnamed site","fuel":"solar","source":"solar","method":"photovoltaic","capacityMW":null,"operator":null,"start":null,"osmType":"way"}},{"type":"Feature","geometry":{"type":"Point","coordinates":[5.95605,52.93837]},"properties":{"id":"way/946728113","name":"Zonnewal A32 Heerenveen","fuel":"solar","source":"solar","method":"photovoltaic","capacityMW":1.5,"operator":null,"start":null,"osmType":"way"}},{"type":"Feature","geometry":{"type":"Point","coordinates":[5.69103,51.37644]},"properties":{"id":"way/946938031","name":"Zonnepark Heikantstraat","fuel":"solar","source":"solar","method":"photovoltaic","capacityMW":2.8,"operator":"Zonneparken Someren","start":null,"osmType":"way"}},{"type":"Feature","geometry":{"type":"Point","coordinates":[4.31911,52.0071]},"properties":{"id":"way/947315766","name":"Unnamed site","fuel":"solar","source":"solar","method":"photovoltaic","capacityMW":null,"operator":null,"start":null,"osmType":"way"}},{"type":"Feature","geometry":{"type":"Point","coordinates":[4.66122,52.32775]},"properties":{"id":"way/949354166","name":"Unnamed site","fuel":"solar","source":"solar","method":"photovoltaic","capacityMW":27,"operator":null,"start":null,"osmType":"way"}},{"type":"Feature","geometry":{"type":"Point","coordinates":[6.60422,53.12694]},"properties":{"id":"way/954710203","name":"Zonnepark RWZI Eelde","fuel":"solar","source":"solar","method":"photovoltaic","capacityMW":null,"operator":null,"start":null,"osmType":"way"}},{"type":"Feature","geometry":{"type":"Point","coordinates":[5.12332,51.75321]},"properties":{"id":"way/955491935","name":"Zonnepark voormalige RWZI Wijk en Aalburg","fuel":"solar","source":"solar","method":"photovoltaic","capacityMW":null,"operator":null,"start":null,"osmType":"way"}},{"type":"Feature","geometry":{"type":"Point","coordinates":[7.06071,52.92199]},"properties":{"id":"way/956062560","name":"Zonnepark Ter Apelkanaal","fuel":"solar","source":"solar","method":"photovoltaic","capacityMW":15,"operator":null,"start":null,"osmType":"way"}},{"type":"Feature","geometry":{"type":"Point","coordinates":[6.52609,52.96571]},"properties":{"id":"way/957471133","name":"Zonnepark TT Assen","fuel":"solar","source":"solar","method":"photovoltaic","capacityMW":5.64,"operator":null,"start":"2016-06-01","osmType":"way"}},{"type":"Feature","geometry":{"type":"Point","coordinates":[5.11094,52.01328]},"properties":{"id":"way/958527051","name":"Zonnepark Prinses Beatrixsluizen","fuel":"solar","source":"solar","method":"photovoltaic","capacityMW":null,"operator":"Rijkswaterstaat","start":null,"osmType":"way"}},{"type":"Feature","geometry":{"type":"Point","coordinates":[4.94347,53.25431]},"properties":{"id":"way/961407348","name":"Zonnepark Vlieland","fuel":"solar","source":"solar","method":"photovoltaic","capacityMW":1,"operator":null,"start":null,"osmType":"way"}},{"type":"Feature","geometry":{"type":"Point","coordinates":[5.2767,51.81617]},"properties":{"id":"way/963708460","name":"Zonnepark Ketelsteeg","fuel":"solar","source":"solar","method":"photovoltaic","capacityMW":1.7,"operator":"Energie van Hollandsche bodem","start":null,"osmType":"way"}},{"type":"Feature","geometry":{"type":"Point","coordinates":[4.9287,51.73224]},"properties":{"id":"way/972374350","name":"Zonnepark voormalige RWZI Dussen","fuel":"solar","source":"solar","method":"photovoltaic","capacityMW":null,"operator":null,"start":null,"osmType":"way"}},{"type":"Feature","geometry":{"type":"Point","coordinates":[5.0764,51.70881]},"properties":{"id":"way/972374779","name":"Zonnepark LangstraatZon Waalwijk","fuel":"solar","source":"solar","method":"photovoltaic","capacityMW":5.86,"operator":null,"start":null,"osmType":"way"}},{"type":"Feature","geometry":{"type":"Point","coordinates":[5.36584,52.17221]},"properties":{"id":"way/972778576","name":"Zonnepark Maatweg","fuel":"solar","source":"solar","method":"photovoltaic","capacityMW":10,"operator":null,"start":null,"osmType":"way"}},{"type":"Feature","geometry":{"type":"Point","coordinates":[5.41509,52.17763]},"properties":{"id":"way/972859601","name":"Biomassacentrale Computerweg","fuel":"bioenergy","source":"biomass","method":null,"capacityMW":null,"operator":"Warmtebedrijf Amersfoort","start":null,"osmType":"way"}},{"type":"Feature","geometry":{"type":"Point","coordinates":[5.174,52.11959]},"properties":{"id":"way/973622359","name":"Zonnepark RWZI De Bilt","fuel":"solar","source":"solar","method":"photovoltaic","capacityMW":null,"operator":null,"start":null,"osmType":"way"}},{"type":"Feature","geometry":{"type":"Point","coordinates":[6.62356,53.18147]},"properties":{"id":"way/981868257","name":"Polycultuur Zonnepark de Mikkelhorst","fuel":"solar","source":"solar","method":"photovoltaic","capacityMW":1.6,"operator":null,"start":null,"osmType":"way"}},{"type":"Feature","geometry":{"type":"Point","coordinates":[6.64556,52.56088]},"properties":{"id":"way/982928942","name":"Zonnepark Hardenberg","fuel":"solar","source":"solar","method":"photovoltaic","capacityMW":7.5,"operator":"Kronos Solar","start":null,"osmType":"way"}},{"type":"Feature","geometry":{"type":"Point","coordinates":[5.05545,51.72413]},"properties":{"id":"way/988886621","name":"Zonnepark voormalige RWZI Eethen","fuel":"solar","source":"solar","method":"photovoltaic","capacityMW":null,"operator":null,"start":null,"osmType":"way"}},{"type":"Feature","geometry":{"type":"Point","coordinates":[7.09356,52.94428]},"properties":{"id":"way/989064294","name":"Zonnepark Sellingen","fuel":"solar","source":"solar","method":"photovoltaic","capacityMW":41.4,"operator":"BayWa r.e.","start":"2021-07","osmType":"way"}},{"type":"Feature","geometry":{"type":"Point","coordinates":[6.53143,52.25487]},"properties":{"id":"way/989137385","name":"Zonnepark Markelo","fuel":"solar","source":"solar","method":"photovoltaic","capacityMW":6.5,"operator":null,"start":null,"osmType":"way"}},{"type":"Feature","geometry":{"type":"Point","coordinates":[6.4835,52.85761]},"properties":{"id":"way/989146356","name":"Zonnepark Beilen","fuel":"solar","source":"solar","method":"photovoltaic","capacityMW":16,"operator":null,"start":null,"osmType":"way"}},{"type":"Feature","geometry":{"type":"Point","coordinates":[5.66953,51.87684]},"properties":{"id":"way/989186664","name":"Zonnepark De Uivermeertjes","fuel":"solar","source":"solar","method":"photovoltaic","capacityMW":27,"operator":"GroenLeven","start":null,"osmType":"way"}},{"type":"Feature","geometry":{"type":"Point","coordinates":[5.77066,52.43558]},"properties":{"id":"way/990704991","name":"Solar carport Biddinghuizen","fuel":"solar","source":"solar","method":"photovoltaic","capacityMW":35,"operator":null,"start":null,"osmType":"way"}},{"type":"Feature","geometry":{"type":"Point","coordinates":[4.78336,52.90737]},"properties":{"id":"way/990933266","name":"Zonnepark Kooypunt","fuel":"solar","source":"solar","method":"photovoltaic","capacityMW":12.5,"operator":"Vattenfall","start":null,"osmType":"way"}},{"type":"Feature","geometry":{"type":"Point","coordinates":[5.44059,52.16613]},"properties":{"id":"way/991124390","name":"Zonnepark Hoevelakensebeek","fuel":"solar","source":"solar","method":"photovoltaic","capacityMW":13.8,"operator":null,"start":null,"osmType":"way"}},{"type":"Feature","geometry":{"type":"Point","coordinates":[6.94181,53.0107]},"properties":{"id":"way/991482048","name":"Zonnepark Stadskanaal","fuel":"solar","source":"solar","method":"photovoltaic","capacityMW":100,"operator":null,"start":null,"osmType":"way"}},{"type":"Feature","geometry":{"type":"Point","coordinates":[6.5278,52.55597]},"properties":{"id":"way/993097667","name":"Zonnepark Bovenveld","fuel":"solar","source":"solar","method":"photovoltaic","capacityMW":6.6,"operator":null,"start":null,"osmType":"way"}},{"type":"Feature","geometry":{"type":"Point","coordinates":[6.72955,52.72205]},"properties":{"id":"way/993107695","name":"Zonnepark Wachtum","fuel":"solar","source":"solar","method":"photovoltaic","capacityMW":5.1,"operator":null,"start":null,"osmType":"way"}},{"type":"Feature","geometry":{"type":"Point","coordinates":[6.6336,52.40752]},"properties":{"id":"way/999535694","name":"Zonnepark RWZI Vriezenveen","fuel":"solar","source":"solar","method":"photovoltaic","capacityMW":null,"operator":null,"start":null,"osmType":"way"}},{"type":"Feature","geometry":{"type":"Point","coordinates":[5.68875,51.46347]},"properties":{"id":"way/1002123546","name":"Ennatuurlijk Warmtekrachtcentrale Helmond","fuel":"gas","source":"gas","method":"combustion","capacityMW":50,"operator":"Ennatuurlijk","start":null,"osmType":"way"}},{"type":"Feature","geometry":{"type":"Point","coordinates":[5.54469,52.51736]},"properties":{"id":"way/1007098441","name":"Rhino","fuel":"storage","source":"battery","method":null,"capacityMW":12,"operator":"GIGA Storage","start":"2020","osmType":"way"}},{"type":"Feature","geometry":{"type":"Point","coordinates":[5.44192,52.31015]},"properties":{"id":"way/1007101726","name":"Batterijopslag","fuel":"storage","source":"battery","method":null,"capacityMW":1.5,"operator":null,"start":null,"osmType":"way"}},{"type":"Feature","geometry":{"type":"Point","coordinates":[3.86217,51.27923]},"properties":{"id":"way/1007115041","name":"Star","fuel":"storage","source":"battery","method":null,"capacityMW":9.3,"operator":"SemperPower","start":null,"osmType":"way"}},{"type":"Feature","geometry":{"type":"Point","coordinates":[4.20944,51.75075]},"properties":{"id":"way/1014640450","name":"Batterijopslag Energiepark Haringvliet Zuid","fuel":"storage","source":"battery","method":null,"capacityMW":12,"operator":null,"start":null,"osmType":"way"}},{"type":"Feature","geometry":{"type":"Point","coordinates":[4.04802,51.92701]},"properties":{"id":"way/1015272266","name":"Unnamed site","fuel":"solar","source":"solar","method":null,"capacityMW":null,"operator":null,"start":null,"osmType":"way"}},{"type":"Feature","geometry":{"type":"Point","coordinates":[4.04792,51.92692]},"properties":{"id":"way/1015272267","name":"Unnamed site","fuel":"solar","source":"solar","method":null,"capacityMW":null,"operator":null,"start":null,"osmType":"way"}},{"type":"Feature","geometry":{"type":"Point","coordinates":[4.04844,51.92615]},"properties":{"id":"way/1015272268","name":"Unnamed site","fuel":"solar","source":"solar","method":null,"capacityMW":null,"operator":null,"start":null,"osmType":"way"}},{"type":"Feature","geometry":{"type":"Point","coordinates":[4.04887,51.9267]},"properties":{"id":"way/1015272269","name":"Unnamed site","fuel":"solar","source":"solar","method":null,"capacityMW":null,"operator":null,"start":null,"osmType":"way"}},{"type":"Feature","geometry":{"type":"Point","coordinates":[4.04888,51.92576]},"properties":{"id":"way/1015272270","name":"Unnamed site","fuel":"solar","source":"solar","method":null,"capacityMW":null,"operator":null,"start":null,"osmType":"way"}},{"type":"Feature","geometry":{"type":"Point","coordinates":[6.65842,52.57951]},"properties":{"id":"way/1018314896","name":"Zonnepark 't Zunneveld","fuel":"solar","source":"solar","method":"photovoltaic","capacityMW":15.1,"operator":"LC Energy","start":null,"osmType":"way"}},{"type":"Feature","geometry":{"type":"Point","coordinates":[5.66438,53.02387]},"properties":{"id":"way/1018610355","name":"Zonnepark Royal Lankhorst Euronete","fuel":"solar","source":"solar","method":"photovoltaic","capacityMW":2.6,"operator":null,"start":null,"osmType":"way"}},{"type":"Feature","geometry":{"type":"Point","coordinates":[6.39692,52.17132]},"properties":{"id":"way/1019395624","name":"Zonnepark Rengersweg","fuel":"solar","source":"solar","method":"photovoltaic","capacityMW":7,"operator":null,"start":null,"osmType":"way"}},{"type":"Feature","geometry":{"type":"Point","coordinates":[6.89242,53.14268]},"properties":{"id":"way/1019564091","name":"Zonnepark Duurkenakker","fuel":"solar","source":"solar","method":"photovoltaic","capacityMW":64,"operator":null,"start":null,"osmType":"way"}},{"type":"Feature","geometry":{"type":"Point","coordinates":[6.86263,52.9403]},"properties":{"id":"way/1019570914","name":"Zonnepark Buinerveen","fuel":"solar","source":"solar","method":"photovoltaic","capacityMW":45,"operator":null,"start":null,"osmType":"way"}},{"type":"Feature","geometry":{"type":"Point","coordinates":[5.90804,52.97496]},"properties":{"id":"way/1019597112","name":"Zonnepark Omweg Energy Park","fuel":"solar","source":"solar","method":"photovoltaic","capacityMW":7.285,"operator":null,"start":null,"osmType":"way"}},{"type":"Feature","geometry":{"type":"Point","coordinates":[6.40504,52.53874]},"properties":{"id":"way/1019671397","name":"Zonnepark De Lindenbergh","fuel":"solar","source":"solar","method":"photovoltaic","capacityMW":0.959,"operator":null,"start":null,"osmType":"way"}},{"type":"Feature","geometry":{"type":"Point","coordinates":[6.49431,52.59571]},"properties":{"id":"way/1019677386","name":"Zonnepark RWZI Dedemsvaart","fuel":"solar","source":"solar","method":"photovoltaic","capacityMW":null,"operator":null,"start":null,"osmType":"way"}},{"type":"Feature","geometry":{"type":"Point","coordinates":[6.23039,52.12128]},"properties":{"id":"way/1019692832","name":"Zonneakker Revelhorst","fuel":"solar","source":"solar","method":"photovoltaic","capacityMW":8,"operator":null,"start":null,"osmType":"way"}},{"type":"Feature","geometry":{"type":"Point","coordinates":[6.58984,53.1698]},"properties":{"id":"way/1020938741","name":"Unnamed site","fuel":"solar","source":"solar","method":"photovoltaic","capacityMW":null,"operator":null,"start":null,"osmType":"way"}},{"type":"Feature","geometry":{"type":"Point","coordinates":[6.53349,52.4458]},"properties":{"id":"way/1021401612","name":"Zonnepark Daarle","fuel":"solar","source":"solar","method":"photovoltaic","capacityMW":4.59,"operator":null,"start":null,"osmType":"way"}},{"type":"Feature","geometry":{"type":"Point","coordinates":[3.7372,51.34438]},"properties":{"id":"way/1021787970","name":"Zonnepark Mosselbanken Terneuzen","fuel":"solar","source":"solar","method":"photovoltaic","capacityMW":60,"operator":null,"start":null,"osmType":"way"}},{"type":"Feature","geometry":{"type":"Point","coordinates":[5.68766,51.60938]},"properties":{"id":"way/1021801501","name":"Zonneweide Zijp","fuel":"solar","source":"solar","method":"photovoltaic","capacityMW":null,"operator":null,"start":null,"osmType":"way"}},{"type":"Feature","geometry":{"type":"Point","coordinates":[5.69431,51.60153]},"properties":{"id":"way/1021801705","name":"Zonneweide Statenweg","fuel":"solar","source":"solar","method":"photovoltaic","capacityMW":null,"operator":null,"start":null,"osmType":"way"}},{"type":"Feature","geometry":{"type":"Point","coordinates":[5.65679,51.20743]},"properties":{"id":"way/1023612941","name":"Zonneweide Bocholterweg","fuel":"solar","source":"solar","method":"photovoltaic","capacityMW":3.5,"operator":null,"start":null,"osmType":"way"}},{"type":"Feature","geometry":{"type":"Point","coordinates":[5.94667,52.92745]},"properties":{"id":"way/1023984391","name":"Zonnepark Heerenveen Zuid","fuel":"solar","source":"solar","method":"photovoltaic","capacityMW":14,"operator":null,"start":null,"osmType":"way"}},{"type":"Feature","geometry":{"type":"Point","coordinates":[6.05771,53.29709]},"properties":{"id":"way/1030521115","name":"Zonnekwekerij Driezum","fuel":"solar","source":"solar","method":"photovoltaic","capacityMW":2.6,"operator":null,"start":null,"osmType":"way"}},{"type":"Feature","geometry":{"type":"Point","coordinates":[6.17297,53.11516]},"properties":{"id":"way/1030527665","name":"Zonnepark Lippe Gabriëlsplas","fuel":"solar","source":"solar","method":"photovoltaic","capacityMW":14,"operator":"GroenLeven","start":null,"osmType":"way"}},{"type":"Feature","geometry":{"type":"Point","coordinates":[4.84317,51.70637]},"properties":{"id":"way/1030678741","name":"Unnamed site","fuel":"solar","source":"solar","method":null,"capacityMW":null,"operator":null,"start":null,"osmType":"way"}},{"type":"Feature","geometry":{"type":"Point","coordinates":[4.84282,51.70872]},"properties":{"id":"way/1030678742","name":"Unnamed site","fuel":"solar","source":"solar","method":null,"capacityMW":null,"operator":null,"start":null,"osmType":"way"}},{"type":"Feature","geometry":{"type":"Point","coordinates":[4.83819,51.70922]},"properties":{"id":"way/1030678743","name":"Drijvend Zonnepark Amer","fuel":"solar","source":"solar","method":"photovoltaic","capacityMW":6.1,"operator":"GroenLeven","start":null,"osmType":"way"}},{"type":"Feature","geometry":{"type":"Point","coordinates":[5.54568,52.51734]},"properties":{"id":"way/1030720083","name":"Buffalo","fuel":"storage","source":"battery","method":null,"capacityMW":25,"operator":"GIGA Storage","start":"2022","osmType":"way"}},{"type":"Feature","geometry":{"type":"Point","coordinates":[5.54179,52.53726]},"properties":{"id":"way/1030722784","name":"Zonnepark Edelhertweg","fuel":"solar","source":"solar","method":"photovoltaic","capacityMW":43.3,"operator":null,"start":null,"osmType":"way"}},{"type":"Feature","geometry":{"type":"Point","coordinates":[5.23675,51.65398]},"properties":{"id":"way/1030892946","name":"Unnamed site","fuel":"solar","source":"solar","method":"photovoltaic","capacityMW":null,"operator":null,"start":null,"osmType":"way"}},{"type":"Feature","geometry":{"type":"Point","coordinates":[5.28152,51.71888]},"properties":{"id":"way/1030895188","name":"Zonnepark RWZI 's-Hertogenbosch","fuel":"solar","source":"solar","method":"photovoltaic","capacityMW":null,"operator":null,"start":null,"osmType":"way"}},{"type":"Feature","geometry":{"type":"Point","coordinates":[4.80109,52.41355]},"properties":{"id":"way/1031014328","name":"Zonnepark RWZI Westpoort","fuel":"solar","source":"solar","method":"photovoltaic","capacityMW":null,"operator":null,"start":null,"osmType":"way"}},{"type":"Feature","geometry":{"type":"Point","coordinates":[4.73311,52.69576]},"properties":{"id":"way/1031026484","name":"Zonnepark RWZI Geestmerambacht","fuel":"solar","source":"solar","method":"photovoltaic","capacityMW":null,"operator":null,"start":null,"osmType":"way"}},{"type":"Feature","geometry":{"type":"Point","coordinates":[5.03246,52.92812]},"properties":{"id":"way/1031027647","name":"Zonnepark RWZI Wieringen","fuel":"solar","source":"solar","method":"photovoltaic","capacityMW":null,"operator":null,"start":null,"osmType":"way"}},{"type":"Feature","geometry":{"type":"Point","coordinates":[4.91286,52.51804]},"properties":{"id":"way/1031029125","name":"Zonnepark RWZI Beemster","fuel":"solar","source":"solar","method":"photovoltaic","capacityMW":null,"operator":null,"start":null,"osmType":"way"}},{"type":"Feature","geometry":{"type":"Point","coordinates":[4.8922,52.31459]},"properties":{"id":"way/1031039235","name":"Zonnepark RWZI Amstelveen","fuel":"solar","source":"solar","method":"photovoltaic","capacityMW":null,"operator":null,"start":null,"osmType":"way"}},{"type":"Feature","geometry":{"type":"Point","coordinates":[5.24726,52.40147]},"properties":{"id":"way/1031304190","name":"Zonnepark RWZI Almere","fuel":"solar","source":"solar","method":"photovoltaic","capacityMW":null,"operator":null,"start":null,"osmType":"way"}},{"type":"Feature","geometry":{"type":"Point","coordinates":[5.43285,52.5052]},"properties":{"id":"way/1031305341","name":"Zonnepark RWZI Lelystad","fuel":"solar","source":"solar","method":"photovoltaic","capacityMW":null,"operator":null,"start":null,"osmType":"way"}},{"type":"Feature","geometry":{"type":"Point","coordinates":[5.50894,52.36072]},"properties":{"id":"way/1031306251","name":"Zonnepark RWZI Zeewolde","fuel":"solar","source":"solar","method":"photovoltaic","capacityMW":null,"operator":null,"start":null,"osmType":"way"}},{"type":"Feature","geometry":{"type":"Point","coordinates":[6.05386,52.3912]},"properties":{"id":"way/1031327733","name":"Zonnepark RWZI Heerde","fuel":"solar","source":"solar","method":"photovoltaic","capacityMW":null,"operator":null,"start":null,"osmType":"way"}},{"type":"Feature","geometry":{"type":"Point","coordinates":[6.00069,52.34314]},"properties":{"id":"way/1031328206","name":"Zonnepark RWZI Epe","fuel":"solar","source":"solar","method":"photovoltaic","capacityMW":null,"operator":null,"start":null,"osmType":"way"}},{"type":"Feature","geometry":{"type":"Point","coordinates":[6.18591,52.09366]},"properties":{"id":"way/1031329787","name":"Zonnepark RWZI Brummen","fuel":"solar","source":"solar","method":"photovoltaic","capacityMW":null,"operator":null,"start":null,"osmType":"way"}},{"type":"Feature","geometry":{"type":"Point","coordinates":[6.52829,52.3192]},"properties":{"id":"way/1031335115","name":"Zonnepark RWZI Rijssen","fuel":"solar","source":"solar","method":"photovoltaic","capacityMW":null,"operator":null,"start":null,"osmType":"way"}},{"type":"Feature","geometry":{"type":"Point","coordinates":[6.65037,52.36576]},"properties":{"id":"way/1031335518","name":"Zonnepark RWZI Almelo-Vissedijk","fuel":"solar","source":"solar","method":"photovoltaic","capacityMW":null,"operator":null,"start":null,"osmType":"way"}},{"type":"Feature","geometry":{"type":"Point","coordinates":[6.56427,52.44701]},"properties":{"id":"way/1031336265","name":"Zonnepark RWZI Vroomshoop","fuel":"solar","source":"solar","method":"photovoltaic","capacityMW":null,"operator":null,"start":null,"osmType":"way"}},{"type":"Feature","geometry":{"type":"Point","coordinates":[6.71895,52.6417]},"properties":{"id":"way/1031340356","name":"Zonnepark RWZI Coevorden","fuel":"solar","source":"solar","method":"photovoltaic","capacityMW":null,"operator":null,"start":null,"osmType":"way"}},{"type":"Feature","geometry":{"type":"Point","coordinates":[5.47266,52.23101]},"properties":{"id":"way/1031355711","name":"Zonnepark RWZI Nijkerk","fuel":"solar","source":"solar","method":"photovoltaic","capacityMW":null,"operator":null,"start":null,"osmType":"way"}},{"type":"Feature","geometry":{"type":"Point","coordinates":[5.39521,52.88489]},"properties":{"id":"way/1031383816","name":"Zonnepark RWZI Warns","fuel":"solar","source":"solar","method":"photovoltaic","capacityMW":null,"operator":null,"start":null,"osmType":"way"}},{"type":"Feature","geometry":{"type":"Point","coordinates":[5.98941,52.88736]},"properties":{"id":"way/1031386371","name":"Zonnepark RWZI Wolvega","fuel":"solar","source":"solar","method":"photovoltaic","capacityMW":null,"operator":null,"start":null,"osmType":"way"}},{"type":"Feature","geometry":{"type":"Point","coordinates":[5.885,53.2978]},"properties":{"id":"way/1031410708","name":"Zonnepark RWZI Birdaard","fuel":"solar","source":"solar","method":"photovoltaic","capacityMW":null,"operator":null,"start":null,"osmType":"way"}},{"type":"Feature","geometry":{"type":"Point","coordinates":[6.03148,53.27638]},"properties":{"id":"way/1031411284","name":"Zonnepark RWZI Damwâld","fuel":"solar","source":"solar","method":"photovoltaic","capacityMW":null,"operator":null,"start":null,"osmType":"way"}},