{"type":"FeatureCollection","features":[{"type":"Feature","geometry":{"type":"Point","coordinates":[7.14195,44.9372]},"properties":{"id":"node/3572515793","name":"Centrale idroelettrica \"Chiotti Superiori\"","fuel":"hydro","source":"hydro"}},{"type":"Feature","geometry":{"type":"Point","coordinates":[7.14881,44.93778]},"properties":{"id":"node/3572517993","name":"Centrale idroelettrica \"Chiotti Inferiori\"","fuel":"hydro","source":"hydro"}},{"type":"Feature","geometry":{"type":"Point","coordinates":[7.12056,44.93543]},"properties":{"id":"node/3575163021","name":"Centrale idroelettrica \"Ribbe\"","fuel":"other"}},{"type":"Feature","geometry":{"type":"Point","coordinates":[7.11825,44.93376]},"properties":{"id":"node/3575169223","name":"Centrale idroelettrica \"Courdoun\" (dismessa)","fuel":"other"}},{"type":"Feature","geometry":{"type":"Point","coordinates":[7.10965,44.93889]},"properties":{"id":"node/3576508356","name":"Centrale ideroelettrica \"Tessore\"","fuel":"hydro","source":"hydro"}},{"type":"Feature","geometry":{"type":"Point","coordinates":[7.76491,45.10389]},"properties":{"id":"node/4956971463","name":"Cimena DMV","fuel":"hydro","source":"hydro","capacityMW":1.4,"operator":"Enel"}},{"type":"Feature","geometry":{"type":"Point","coordinates":[11.23495,46.81701]},"properties":{"id":"node/7730313585","name":"Kraftwerk Glaiten","fuel":"hydro","source":"hydro"}},{"type":"Feature","geometry":{"type":"Point","coordinates":[7.32729,45.13529]},"properties":{"id":"node/12828314990","name":"Unnamed site","fuel":"other"}},{"type":"Feature","geometry":{"type":"Point","coordinates":[7.58244,45.62218]},"properties":{"id":"node/13120704174","name":"Unnamed site","fuel":"hydro","source":"hydro","method":"run-of-the-river"}},{"type":"Feature","geometry":{"type":"Point","coordinates":[10.93715,45.46301]},"properties":{"id":"way/23949987","name":"Centrale Chievo","fuel":"hydro","source":"hydro","capacityMW":75,"operator":"Hydro Dolomiti Energia"}},{"type":"Feature","geometry":{"type":"Point","coordinates":[9.25343,45.54192]},"properties":{"id":"way/25941989","name":"Centrale Termoelettrica di Sesto San Giovanni","fuel":"gas","source":"gas","method":"combustion","capacityMW":106,"operator":"Edison"}},{"type":"Feature","geometry":{"type":"Point","coordinates":[12.26598,44.48448]},"properties":{"id":"way/28441407","name":"Centrale termoelettrica \"Teodora\"","fuel":"gas","source":"gas","method":"combustion","capacityMW":768,"operator":"Enel"}},{"type":"Feature","geometry":{"type":"Point","coordinates":[11.24458,46.2904]},"properties":{"id":"way/32027443","name":"Wasserkraftwerk St. Florian - Centrale Idroelettrica di San Floriano","fuel":"hydro","source":"hydro","method":"water-storage","capacityMW":180,"operator":"Enel"}},{"type":"Feature","geometry":{"type":"Point","coordinates":[11.30873,46.46815]},"properties":{"id":"way/32472915","name":"Inceneritore - Müllverbrennungsanlage","fuel":"waste","source":"waste","method":"combustion"}},{"type":"Feature","geometry":{"type":"Point","coordinates":[13.12801,46.24847]},"properties":{"id":"way/36044156","name":"Unnamed site","fuel":"hydro","source":"hydro"}},{"type":"Feature","geometry":{"type":"Point","coordinates":[12.80207,46.172]},"properties":{"id":"way/36074939","name":"Colle","fuel":"hydro","source":"hydro","method":"run-of-the-river","capacityMW":4,"start":"1949"}},{"type":"Feature","geometry":{"type":"Point","coordinates":[12.88459,46.19903]},"properties":{"id":"way/36077507","name":"Centrale idroelettrica Madonna di Cosa","fuel":"hydro","source":"hydro"}},{"type":"Feature","geometry":{"type":"Point","coordinates":[12.69801,45.96006]},"properties":{"id":"way/36242877","name":"Unnamed site","fuel":"hydro","source":"hydro"}},{"type":"Feature","geometry":{"type":"Point","coordinates":[12.86157,46.49456]},"properties":{"id":"way/36420235","name":"Centrale idroelettrica Luincis","fuel":"hydro","source":"hydro","method":"combustion"}},{"type":"Feature","geometry":{"type":"Point","coordinates":[13.20201,46.41647]},"properties":{"id":"way/36420505","name":"Unnamed site","fuel":"hydro","source":"hydro"}},{"type":"Feature","geometry":{"type":"Point","coordinates":[13.20167,46.41641]},"properties":{"id":"way/36420506","name":"Unnamed site","fuel":"hydro","source":"hydro"}},{"type":"Feature","geometry":{"type":"Point","coordinates":[12.77491,46.21757]},"properties":{"id":"way/36420673","name":"Unnamed site","fuel":"hydro","source":"hydro","method":"water-storage","capacityMW":9,"start":"1952"}},{"type":"Feature","geometry":{"type":"Point","coordinates":[12.77511,46.21748]},"properties":{"id":"way/36420674","name":"Unnamed site","fuel":"hydro","source":"hydro","method":"water-storage","capacityMW":9,"start":"1952"}},{"type":"Feature","geometry":{"type":"Point","coordinates":[12.77476,46.21754]},"properties":{"id":"way/36420675","name":"Unnamed site","fuel":"hydro","source":"hydro","method":"water-storage","capacityMW":9,"start":"1952"}},{"type":"Feature","geometry":{"type":"Point","coordinates":[12.48423,46.00344]},"properties":{"id":"way/36421800","name":"Unnamed site","fuel":"hydro","source":"hydro"}},{"type":"Feature","geometry":{"type":"Point","coordinates":[13.27811,46.08694]},"properties":{"id":"way/36425078","name":"Unnamed site","fuel":"bioenergy","source":"biogas","operator":"Elettricita' dai Rifiuti Urbani S.R.L"}},{"type":"Feature","geometry":{"type":"Point","coordinates":[12.44179,45.96694]},"properties":{"id":"way/36426538","name":"Centrale ENEL","fuel":"hydro","source":"hydro"}},{"type":"Feature","geometry":{"type":"Point","coordinates":[12.50623,45.92549]},"properties":{"id":"way/36427525","name":"Centrale del Livenza","fuel":"hydro","source":"hydro","capacityMW":5.4}},{"type":"Feature","geometry":{"type":"Point","coordinates":[12.9083,45.85473]},"properties":{"id":"way/36664698","name":"nceneritore Salgaim Ecologic S.P.A.","fuel":"waste","source":"waste","method":"combustion"}},{"type":"Feature","geometry":{"type":"Point","coordinates":[13.50215,45.83244]},"properties":{"id":"way/36690014","name":"Unnamed site","fuel":"hydro","source":"hydro"}},{"type":"Feature","geometry":{"type":"Point","coordinates":[13.60469,45.94671]},"properties":{"id":"way/36690972","name":"Unnamed site","fuel":"hydro","source":"hydro","method":"run-of-the-river","operator":"Texgiulia spa"}},{"type":"Feature","geometry":{"type":"Point","coordinates":[9.8869,45.60075]},"properties":{"id":"way/37681343","name":"Unnamed site","fuel":"other","operator":"ENEL"}},{"type":"Feature","geometry":{"type":"Point","coordinates":[12.30416,46.03644]},"properties":{"id":"way/41547873","name":"Centrale di Nove 1925","fuel":"hydro","source":"hydro","method":"water-storage","start":"1925"}},{"type":"Feature","geometry":{"type":"Point","coordinates":[13.35911,38.07399]},"properties":{"id":"way/42345722","name":"Centrale idroelettrica Casuzze","fuel":"hydro","source":"hydro","method":"water-storage","capacityMW":9,"operator":"Enel Green Power"}},{"type":"Feature","geometry":{"type":"Point","coordinates":[10.57611,45.85957]},"properties":{"id":"way/44031730","name":"Centrale di Storo","fuel":"hydro","source":"hydro","capacityMW":20,"operator":"Hydro Dolomiti Enel"}},{"type":"Feature","geometry":{"type":"Point","coordinates":[10.59292,45.84197]},"properties":{"id":"way/44031753","name":"Unnamed site","fuel":"hydro","source":"hydro","operator":"Consorzio Elettrico di Storo"}},{"type":"Feature","geometry":{"type":"Point","coordinates":[10.28275,46.07371]},"properties":{"id":"way/44860949","name":"Centrale di Paisco","fuel":"hydro","source":"hydro","method":"run-of-the-river","capacityMW":7}},{"type":"Feature","geometry":{"type":"Point","coordinates":[11.65903,46.71044]},"properties":{"id":"way/48368378","name":"Unnamed site","fuel":"gas","source":"gas","method":"combustion","operator":"Stadtwerke Brixen ASM Bressanone","start":"2006"}},{"type":"Feature","geometry":{"type":"Point","coordinates":[8.7387,45.52093]},"properties":{"id":"way/51601405","name":"Centrale termoelettrica di Turbigo","fuel":"gas","source":"gas","method":"combustion","capacityMW":1280,"operator":"Iren"}},{"type":"Feature","geometry":{"type":"Point","coordinates":[8.70625,45.58262]},"properties":{"id":"way/51662594","name":"Centrale di Tornavento","fuel":"hydro","source":"hydro","capacityMW":7,"operator":"Enel"}},{"type":"Feature","geometry":{"type":"Point","coordinates":[13.75217,37.9689]},"properties":{"id":"way/53456167","name":"Centrale termoelettrica Ettore Maiorana","fuel":"gas","source":"gas","method":"combustion","capacityMW":1340,"operator":"Enel"}},{"type":"Feature","geometry":{"type":"Point","coordinates":[12.59031,37.87785]},"properties":{"id":"way/53638813","name":"Centrale Termoelettrica di Trapani","fuel":"gas","source":"gas","method":"combustion","capacityMW":213,"operator":"EPH"}},{"type":"Feature","geometry":{"type":"Point","coordinates":[11.42754,46.30311]},"properties":{"id":"way/58737813","name":"Ai Corozi","fuel":"solar","source":"solar","method":"photovoltaic"}},{"type":"Feature","geometry":{"type":"Point","coordinates":[7.65659,45.06303]},"properties":{"id":"way/59159261","name":"Centrale teleriscaldamento IREN","fuel":"gas","source":"gas","method":"combustion","operator":"IREN","start":"2003"}},{"type":"Feature","geometry":{"type":"Point","coordinates":[13.28889,45.81758]},"properties":{"id":"way/59462714","name":"Centrale termoelettrica di Torviscosa","fuel":"gas","source":"gas","method":"combustion","capacityMW":867,"operator":"Edison"}},{"type":"Feature","geometry":{"type":"Point","coordinates":[10.99302,46.65177]},"properties":{"id":"way/59620521","name":"Kraftwerk Naturns - Centrale idroelettrica Naturno","fuel":"hydro","source":"hydro","method":"water-storage","capacityMW":180,"start":"1963"}},{"type":"Feature","geometry":{"type":"Point","coordinates":[12.03034,45.83537]},"properties":{"id":"way/59999136","name":"Unnamed site","fuel":"hydro","source":"hydro"}},{"type":"Feature","geometry":{"type":"Point","coordinates":[15.0005,41.93703]},"properties":{"id":"way/60233407","name":"Sorgenia centrale di Termoli","fuel":"gas","source":"gas","method":"combustion","capacityMW":770,"operator":"Sorgenia","start":"2006"}},{"type":"Feature","geometry":{"type":"Point","coordinates":[14.80265,37.64904]},"properties":{"id":"way/61132350","name":"Centrale Solare Eurelios","fuel":"solar","source":"solar","method":"photovoltaic"}},{"type":"Feature","geometry":{"type":"Point","coordinates":[14.80639,37.65101]},"properties":{"id":"way/61161508","name":"Contrasto","fuel":"hydro","source":"hydro","method":"run-of-the-river","capacityMW":35}},{"type":"Feature","geometry":{"type":"Point","coordinates":[8.71246,40.65371]},"properties":{"id":"way/61743815","name":"Codrongianos power station","fuel":"oil","source":"oil;gas","method":"combustion","capacityMW":100,"operator":"Terna S.p.A."}},{"type":"Feature","geometry":{"type":"Point","coordinates":[18.0303,40.56262]},"properties":{"id":"way/61814451","name":"Centrale termoelettrica \"Federico II\"","fuel":"coal","source":"coal","method":"combustion","capacityMW":2640,"operator":"Enel"}},{"type":"Feature","geometry":{"type":"Point","coordinates":[12.7752,46.21757]},"properties":{"id":"way/62045167","name":"Centrale idroelettrica di Meduno","fuel":"hydro","source":"hydro","method":"water-storage","capacityMW":9,"operator":"Edison"}},{"type":"Feature","geometry":{"type":"Point","coordinates":[12.73388,46.25456]},"properties":{"id":"way/62188533","name":"Centrale Idroelettrica Chievolis","fuel":"hydro","source":"hydro","method":"water-storage","capacityMW":20.52,"operator":"Edison"}},{"type":"Feature","geometry":{"type":"Point","coordinates":[12.69748,46.26573]},"properties":{"id":"way/62188540","name":"Centrale Idroelettrica Valina","fuel":"hydro","source":"hydro","method":"water-storage","capacityMW":10.15,"operator":"Edison"}},{"type":"Feature","geometry":{"type":"Point","coordinates":[10.35364,46.17614]},"properties":{"id":"way/64201172","name":"Centrale Enel di Edolo","fuel":"pumped","source":"hydro","method":"water-pumped-storage","capacityMW":1000,"operator":"Enel Produzione S.p.A.","start":"1984"}},{"type":"Feature","geometry":{"type":"Point","coordinates":[9.50938,45.51081]},"properties":{"id":"way/67400512","name":"Centrale di Cassano d'Adda","fuel":"gas","source":"gas","method":"combustion","capacityMW":848,"operator":"A2A","start":"1960"}},{"type":"Feature","geometry":{"type":"Point","coordinates":[10.78307,45.11156]},"properties":{"id":"way/67630063","name":"Unnamed site","fuel":"solar","source":"solar","method":"photovoltaic"}},{"type":"Feature","geometry":{"type":"Point","coordinates":[15.04379,41.92886]},"properties":{"id":"way/69348581","name":"Centrale termoelettrica Campomarino","fuel":"gas","source":"gas","capacityMW":87,"operator":"Enel"}},{"type":"Feature","geometry":{"type":"Point","coordinates":[9.89158,45.31657]},"properties":{"id":"way/70474688","name":"Centrale Idroelettrica della Rezza","fuel":"hydro","source":"hydro","method":"run-of-the-river"}},{"type":"Feature","geometry":{"type":"Point","coordinates":[13.14353,43.54771]},"properties":{"id":"way/71134318","name":"Unnamed site","fuel":"solar","source":"solar","method":"photovoltaic"}},{"type":"Feature","geometry":{"type":"Point","coordinates":[13.06975,43.57046]},"properties":{"id":"way/71134459","name":"Unnamed site","fuel":"solar","source":"solar"}},{"type":"Feature","geometry":{"type":"Point","coordinates":[16.15776,40.26566]},"properties":{"id":"way/71378284","name":"Centrale Idroelettrica di Missanello","fuel":"hydro","source":"hydro","operator":"Enel"}},{"type":"Feature","geometry":{"type":"Point","coordinates":[10.26635,46.29223]},"properties":{"id":"way/72557214","name":"A2A Impianto di Grosio","fuel":"hydro","source":"hydro","operator":"A2A"}},{"type":"Feature","geometry":{"type":"Point","coordinates":[15.15226,36.95951]},"properties":{"id":"way/73259995","name":"Centrale Cassibile","fuel":"hydro","source":"hydro","method":"water-storage","capacityMW":2.2,"operator":"Enel Green Power"}},{"type":"Feature","geometry":{"type":"Point","coordinates":[8.25828,46.04773]},"properties":{"id":"way/75003391","name":"Centrale Idroelettrica Pallanzeno","fuel":"hydro","source":"hydro","capacityMW":40,"operator":"Enel"}},{"type":"Feature","geometry":{"type":"Point","coordinates":[9.84874,44.32607]},"properties":{"id":"way/75131091","name":"Centrale Rocchetta","fuel":"hydro","source":"hydro","capacityMW":3,"operator":"Edison","start":"1940"}},{"type":"Feature","geometry":{"type":"Point","coordinates":[7.39093,44.22817]},"properties":{"id":"way/75638511","name":"Centrale idroelettrica Luigi Einaudi","fuel":"pumped","source":"hydro","method":"water-pumped-storage","capacityMW":1200,"operator":"Enel Produzione","start":"1982"}},{"type":"Feature","geometry":{"type":"Point","coordinates":[11.18441,44.54517]},"properties":{"id":"way/77020236","name":"Unnamed site","fuel":"solar","source":"solar","method":"photovoltaic"}},{"type":"Feature","geometry":{"type":"Point","coordinates":[11.23252,46.16563]},"properties":{"id":"way/80502980","name":"Centrale idroelettrica di Pozzolago","fuel":"hydro","source":"hydro","method":"water-storage","capacityMW":8,"operator":"Dolomiti Edison Energy S.r.l."}},{"type":"Feature","geometry":{"type":"Point","coordinates":[11.25341,45.02661]},"properties":{"id":"way/82104193","name":"Centrale termoelettrica di Sermide","fuel":"gas","source":"gas","method":"combustion","capacityMW":1234,"operator":"Edipower","start":"1981"}},{"type":"Feature","geometry":{"type":"Point","coordinates":[11.13816,45.06096]},"properties":{"id":"way/82104200","name":"Centrale termoelettrica di Ostiglia","fuel":"gas","source":"gas","method":"combustion","capacityMW":1164,"operator":"EPH"}},{"type":"Feature","geometry":{"type":"Point","coordinates":[11.757,42.12862]},"properties":{"id":"way/82114731","name":"Centrale termoelettrica di Torrevaldaliga Nord","fuel":"coal","source":"coal","method":"combustion","capacityMW":1980,"operator":"Enel","start":"2008"}},{"type":"Feature","geometry":{"type":"Point","coordinates":[11.76388,42.12314]},"properties":{"id":"way/82768335","name":"Centrale termoelettrica di Torrevaldaliga Sud","fuel":"gas","source":"gas","method":"combustion","capacityMW":1180,"operator":"Tirreno Power"}},{"type":"Feature","geometry":{"type":"Point","coordinates":[14.12801,41.47653]},"properties":{"id":"way/83246343","name":"Centrale di Capriati al Volturno","fuel":"hydro","source":"hydro","method":"water-storage","operator":"Enel"}},{"type":"Feature","geometry":{"type":"Point","coordinates":[13.64546,46.53569]},"properties":{"id":"way/83249079","name":"Kraftwerk Thörl","fuel":"hydro","source":"hydro","operator":"KELAG","start":"1939"}},{"type":"Feature","geometry":{"type":"Point","coordinates":[11.60132,45.20032]},"properties":{"id":"way/83810886","name":"Unnamed site","fuel":"solar","source":"solar","method":"photovoltaic"}},{"type":"Feature","geometry":{"type":"Point","coordinates":[10.67186,45.88789]},"properties":{"id":"way/84688216","name":"Unnamed site","fuel":"other"}},{"type":"Feature","geometry":{"type":"Point","coordinates":[10.16773,44.43003]},"properties":{"id":"way/87032067","name":"Isola Palanzano","fuel":"hydro","source":"hydro","capacityMW":12,"operator":"Enel"}},{"type":"Feature","geometry":{"type":"Point","coordinates":[15.47596,41.2019]},"properties":{"id":"way/92433464","name":"Centrale Termoelettrica di Candela","fuel":"gas","source":"gas","method":"combustion","capacityMW":401,"operator":"Edison"}},{"type":"Feature","geometry":{"type":"Point","coordinates":[10.04769,44.47289]},"properties":{"id":"way/93099756","name":"Centrale idroelettrica di Marra","fuel":"hydro","source":"hydro","operator":"Enel"}},{"type":"Feature","geometry":{"type":"Point","coordinates":[11.76283,46.06704]},"properties":{"id":"way/93189472","name":"Moline","fuel":"hydro","source":"hydro","method":"water-storage","capacityMW":19,"operator":"Primerio Energia"}},{"type":"Feature","geometry":{"type":"Point","coordinates":[7.90041,45.1858]},"properties":{"id":"way/95099552","name":"Centrale Termoelettrica di Chivasso","fuel":"gas","source":"gas","method":"combustion","capacityMW":1179,"operator":"A2A"}},{"type":"Feature","geometry":{"type":"Point","coordinates":[13.41047,42.51118]},"properties":{"id":"way/96193666","name":"Centrale idroelettrica di Provvidenza","fuel":"pumped","source":"hydro","method":"water-pumped-storage","capacityMW":139}},{"type":"Feature","geometry":{"type":"Point","coordinates":[10.82782,46.48386]},"properties":{"id":"way/96257318","name":"Weissbrunn Zentrale","fuel":"hydro","source":"hydro"}},{"type":"Feature","geometry":{"type":"Point","coordinates":[10.91574,46.62266]},"properties":{"id":"way/96653153","name":"Kraftwerk Kastelbell - Centrale idroelettrica di Castelbello","fuel":"hydro","source":"hydro","method":"run-of-the-river","capacityMW":82}},{"type":"Feature","geometry":{"type":"Point","coordinates":[11.06329,46.32628]},"properties":{"id":"way/96654904","name":"Centrale Elettrica Taio","fuel":"hydro","source":"hydro","method":"water-storage","capacityMW":108,"start":"1951"}},{"type":"Feature","geometry":{"type":"Point","coordinates":[11.05574,46.56474]},"properties":{"id":"way/96759742","name":"St. Pankraz - San Pancrazio","fuel":"hydro","source":"hydro"}},{"type":"Feature","geometry":{"type":"Point","coordinates":[13.35733,43.31233]},"properties":{"id":"way/96886188","name":"Unnamed site","fuel":"solar","source":"solar","method":"photovoltaic"}},{"type":"Feature","geometry":{"type":"Point","coordinates":[11.53647,42.35882]},"properties":{"id":"way/96951146","name":"Centrale termoelettrica \"Alessandro Volta\"","fuel":"gas","source":"gas","method":"combustion","capacityMW":934,"operator":"Enel","start":"1992"}},{"type":"Feature","geometry":{"type":"Point","coordinates":[10.94448,44.67613]},"properties":{"id":"way/97778632","name":"Unnamed site","fuel":"waste","source":"waste","method":"combustion","capacityMW":25}},{"type":"Feature","geometry":{"type":"Point","coordinates":[14.56379,42.05031]},"properties":{"id":"way/98201273","name":"Centrale di Gissi","fuel":"gas","source":"gas","method":"combustion","capacityMW":840,"operator":"A2A"}},{"type":"Feature","geometry":{"type":"Point","coordinates":[10.57558,46.67415]},"properties":{"id":"way/98787026","name":"Wasserkraftwerk Glurns - Centrale idroelettrica di Glorenza","fuel":"hydro","source":"hydro","method":"water-storage","capacityMW":105,"operator":"Seledison AG"}},{"type":"Feature","geometry":{"type":"Point","coordinates":[10.80547,43.16593]},"properties":{"id":"way/100437706","name":"Unnamed site","fuel":"geothermal","source":"geothermal","operator":"Enel"}},{"type":"Feature","geometry":{"type":"Point","coordinates":[10.80546,43.16756]},"properties":{"id":"way/100437712","name":"Unnamed site","fuel":"bioenergy","source":"biomass"}},{"type":"Feature","geometry":{"type":"Point","coordinates":[10.9177,43.26166]},"properties":{"id":"way/100770981","name":"Unnamed site","fuel":"other"}},{"type":"Feature","geometry":{"type":"Point","coordinates":[10.88538,43.26142]},"properties":{"id":"way/100771196","name":"Nuova Gabbro","fuel":"geothermal","source":"geothermal","capacityMW":19,"operator":"Enel"}},{"type":"Feature","geometry":{"type":"Point","coordinates":[10.88503,43.23217]},"properties":{"id":"way/100771475","name":"Unnamed site","fuel":"geothermal","source":"geothermal"}},{"type":"Feature","geometry":{"type":"Point","coordinates":[10.88365,43.22737]},"properties":{"id":"way/100771687","name":"Unnamed site","fuel":"geothermal","source":"geothermal"}},{"type":"Feature","geometry":{"type":"Point","coordinates":[10.86708,43.23662]},"properties":{"id":"way/100772237","name":"Centrale di Valle Secolo","fuel":"geothermal","source":"geothermal","capacityMW":120}},{"type":"Feature","geometry":{"type":"Point","coordinates":[8.29201,40.83788]},"properties":{"id":"way/100836529","name":"Unnamed site","fuel":"solar","source":"solar","method":"photovoltaic"}},{"type":"Feature","geometry":{"type":"Point","coordinates":[13.5473,45.79733]},"properties":{"id":"way/100956358","name":"Centrale termoelettrica A2A di Monfalcone","fuel":"coal","source":"coal","method":"combustion","capacityMW":336,"operator":"A2A S.p.A."}},{"type":"Feature","geometry":{"type":"Point","coordinates":[13.06681,46.34231]},"properties":{"id":"way/100956948","name":"Centrale Idroelettrica di Somplago","fuel":"hydro","source":"hydro","method":"water-storage","operator":"A2A"}},{"type":"Feature","geometry":{"type":"Point","coordinates":[12.45252,42.4882]},"properties":{"id":"way/100962778","name":"Unnamed site","fuel":"solar","source":"solar","method":"photovoltaic"}},{"type":"Feature","geometry":{"type":"Point","coordinates":[13.18745,46.08866]},"properties":{"id":"way/101216840","name":"Centrale Idroelettrica Cormor","fuel":"hydro","source":"hydro","method":"run-of-the-river","capacityMW":0.37}},{"type":"Feature","geometry":{"type":"Point","coordinates":[7.20795,45.44082]},"properties":{"id":"way/102185360","name":"Centrale Elettrica Villa","fuel":"hydro","source":"hydro","method":"water-storage","capacityMW":40,"operator":"Iride"}},{"type":"Feature","geometry":{"type":"Point","coordinates":[7.87941,45.17438]},"properties":{"id":"way/102287751","name":"Centrale Idroelettrica Cimena","fuel":"hydro","source":"hydro","method":"run-of-the-river","capacityMW":22.8,"operator":"Enel"}},{"type":"Feature","geometry":{"type":"Point","coordinates":[10.83224,43.14494]},"properties":{"id":"way/102543024","name":"Centrale geotermica di San Martino","fuel":"geothermal","source":"geothermal","operator":"Enel"}},{"type":"Feature","geometry":{"type":"Point","coordinates":[7.14361,45.70605]},"properties":{"id":"way/102675885","name":"Centrale Idroelettrica Avise","fuel":"hydro","source":"hydro","method":"water-storage","capacityMW":70,"operator":"Compagnia Valdostana Acque","start":"1954"}},{"type":"Feature","geometry":{"type":"Point","coordinates":[8.35556,46.28987]},"properties":{"id":"way/102861659","name":"Centrale idroelettrica di Cadarese","fuel":"hydro","source":"hydro","operator":"Enel Green Power","start":"1929"}},{"type":"Feature","geometry":{"type":"Point","coordinates":[7.59294,45.74466]},"properties":{"id":"way/103007032","name":"Centrale Idroelettrica Chatillon","fuel":"hydro","source":"hydro","method":"run-of-the-river","capacityMW":29,"operator":"Compagnia Valdostana Acque"}},{"type":"Feature","geometry":{"type":"Point","coordinates":[7.21927,45.69993]},"properties":{"id":"way/103007034","name":"Centrale Idroelettrica Chavonne","fuel":"hydro","source":"hydro","method":"run-of-the-river","capacityMW":29,"operator":"Compagnia Valdostana Acque"}},{"type":"Feature","geometry":{"type":"Point","coordinates":[7.82588,45.83018]},"properties":{"id":"way/103007037","name":"Centrale Idroelettrica Gressoney","fuel":"hydro","source":"hydro","capacityMW":11,"operator":"Compagnia Valdostana Acque"}},{"type":"Feature","geometry":{"type":"Point","coordinates":[7.61658,45.90748]},"properties":{"id":"way/103007072","name":"Centrale Idroelettrica di Les Perrères","fuel":"hydro","source":"hydro","method":"water-storage","capacityMW":15,"operator":"Compagnia Valdostana Acque"}},{"type":"Feature","geometry":{"type":"Point","coordinates":[7.61464,45.86815]},"properties":{"id":"way/103007077","name":"Centrale Idroelettrica di Maen","fuel":"hydro","source":"hydro","method":"run-of-the-river","capacityMW":22,"operator":"Compagnia Valdostana Acque"}},{"type":"Feature","geometry":{"type":"Point","coordinates":[7.44636,45.73959]},"properties":{"id":"way/103007090","name":"Centrale Idroelettrica Nus","fuel":"hydro","source":"hydro","capacityMW":6.8,"operator":"Compagnia Valdostana Acque"}},{"type":"Feature","geometry":{"type":"Point","coordinates":[7.33214,45.82554]},"properties":{"id":"way/103127415","name":"Centrale Idroelettrica Valpelline","fuel":"hydro","source":"hydro","method":"water-storage","capacityMW":130,"operator":"Compagnia Valdostana Acque","start":"1958"}},{"type":"Feature","geometry":{"type":"Point","coordinates":[8.33939,44.54566]},"properties":{"id":"way/103132789","name":"Centrale Idroelettrica Spigno","fuel":"hydro","source":"hydro","capacityMW":12,"operator":"Tirreno Power"}},{"type":"Feature","geometry":{"type":"Point","coordinates":[7.48591,44.59454]},"properties":{"id":"way/103146660","name":"Centrale cogenerazione Smurfit Kappa","fuel":"gas","source":"gas","method":"combustion","capacityMW":120}},{"type":"Feature","geometry":{"type":"Point","coordinates":[9.07195,45.77332]},"properties":{"id":"way/103227830","name":"Termovalorizzatore di Como","fuel":"waste","source":"waste","method":"combustion","capacityMW":6,"operator":"Acinque Ambiente S.r.l.","start":"1968"}},{"type":"Feature","geometry":{"type":"Point","coordinates":[8.32395,46.24263]},"properties":{"id":"way/103418590","name":"Centrale Idroelettrica Verampio","fuel":"hydro","source":"hydro","method":"run-of-the-river","capacityMW":54,"operator":"Enel Green Power","start":"1930"}},{"type":"Feature","geometry":{"type":"Point","coordinates":[8.30724,46.15928]},"properties":{"id":"way/103418598","name":"Centrale idroelettrica Crevola Toce","fuel":"hydro","source":"hydro","capacityMW":30,"operator":"Enel Green Power","start":"1924"}},{"type":"Feature","geometry":{"type":"Point","coordinates":[8.28076,46.09513]},"properties":{"id":"way/103501231","name":"Centrale Idroelettrica di Calice","fuel":"hydro","source":"hydro","method":"run-of-the-river","capacityMW":23,"operator":"Enel Green Power"}},{"type":"Feature","geometry":{"type":"Point","coordinates":[6.97967,45.12187]},"properties":{"id":"way/103513742","name":"Centrale Idroelettrica Chiomonte","fuel":"hydro","source":"hydro","method":"run-of-the-river","capacityMW":17,"operator":"AEM Torino"}},{"type":"Feature","geometry":{"type":"Point","coordinates":[8.2536,46.01896]},"properties":{"id":"way/103513746","name":"Centrale Idroelettrica Pieve Vergonte","fuel":"hydro","source":"hydro","method":"run-of-the-river","capacityMW":47.8,"operator":"Enel Green Power"}},{"type":"Feature","geometry":{"type":"Point","coordinates":[7.24047,44.68595]},"properties":{"id":"way/103513748","name":"Centrale Idroelettrica Calcinere","fuel":"hydro","source":"hydro","method":"run-of-the-river","capacityMW":23,"operator":"Sied"}},{"type":"Feature","geometry":{"type":"Point","coordinates":[7.3229,44.65204]},"properties":{"id":"way/103513751","name":"Centrale Idroelettrica Sanfront","fuel":"hydro","source":"hydro","method":"run-of-the-river","capacityMW":14,"operator":"Enel"}},{"type":"Feature","geometry":{"type":"Point","coordinates":[8.64937,45.45701]},"properties":{"id":"way/103513766","name":"Centrale Novel","fuel":"other","operator":"Novel"}},{"type":"Feature","geometry":{"type":"Point","coordinates":[10.71364,45.39934]},"properties":{"id":"way/103562617","name":"Centrale di Ponti sul Mincio","fuel":"gas","source":"gas","method":"combustion","capacityMW":380,"operator":"A2A"}},{"type":"Feature","geometry":{"type":"Point","coordinates":[8.19941,46.12156]},"properties":{"id":"way/103653554","name":"Centrale idroelettriva Vinci","fuel":"hydro","source":"hydro"}},{"type":"Feature","geometry":{"type":"Point","coordinates":[8.02637,44.70348]},"properties":{"id":"way/103725164","name":"Centrale Turbogas AlbaPower","fuel":"other","operator":"AlbaPower"}},{"type":"Feature","geometry":{"type":"Point","coordinates":[8.07562,45.84225]},"properties":{"id":"way/103725252","name":"Centrale Idroelettrica Fervento","fuel":"hydro","source":"hydro","capacityMW":4.25,"operator":"Enel Green Power","start":"1925"}},{"type":"Feature","geometry":{"type":"Point","coordinates":[8.42397,46.38038]},"properties":{"id":"way/103747324","name":"Centrale idroelettrica di Ponte","fuel":"hydro","source":"hydro","method":"water-storage","capacityMW":91,"operator":"Enel Green Power","start":"1941"}},{"type":"Feature","geometry":{"type":"Point","coordinates":[7.44622,44.29482]},"properties":{"id":"way/103876042","name":"Centrale Idroelettrica Andonno","fuel":"hydro","source":"hydro","operator":"Enel"}},{"type":"Feature","geometry":{"type":"Point","coordinates":[8.25544,46.32157]},"properties":{"id":"way/104114274","name":"Centrale Idroelettrica Devero","fuel":"hydro","source":"hydro","method":"run-of-the-river","capacityMW":5.6,"operator":"Enel Green Power"}},{"type":"Feature","geometry":{"type":"Point","coordinates":[7.05536,45.02707]},"properties":{"id":"way/105141303","name":"Centrale Idroelettrica Fenestrelle","fuel":"hydro","source":"hydro","method":"water-storage","operator":"Energie"}},{"type":"Feature","geometry":{"type":"Point","coordinates":[7.30086,45.22594]},"properties":{"id":"way/105153385","name":"Centrale Idroelettrica Lemie","fuel":"hydro","source":"hydro","method":"run-of-the-river","capacityMW":22,"operator":"Enel Produzione"}},{"type":"Feature","geometry":{"type":"Point","coordinates":[8.39081,46.428]},"properties":{"id":"way/105462290","name":"Centrale Piero Ferrerio","fuel":"hydro","source":"hydro","method":"water-storage","capacityMW":45.6,"operator":"Enel Green Power"}},{"type":"Feature","geometry":{"type":"Point","coordinates":[8.42386,46.34223]},"properties":{"id":"way/105462292","name":"Centrale Idroelettrica di Fondovalle","fuel":"hydro","source":"hydro","operator":"Enel Green Power"}},{"type":"Feature","geometry":{"type":"Point","coordinates":[8.30663,46.1614]},"properties":{"id":"way/105591481","name":"Centrale Idroelettrica di Crevola Divera","fuel":"hydro","source":"hydro","capacityMW":44.6,"operator":"Enel Green Power"}},{"type":"Feature","geometry":{"type":"Point","coordinates":[12.18108,45.02902]},"properties":{"id":"way/105666539","name":"Unnamed site","fuel":"solar","source":"solar","method":"photovoltaic"}},{"type":"Feature","geometry":{"type":"Point","coordinates":[8.27372,44.38231]},"properties":{"id":"way/105737489","name":"Centrale Idroelettrica di Cairo Montenotte","fuel":"hydro","source":"hydro","method":"run-of-the-river","capacityMW":7,"operator":"Tirreno Power"}},{"type":"Feature","geometry":{"type":"Point","coordinates":[13.27101,46.02157]},"properties":{"id":"way/106091869","name":"Parco Solare Milleacque","fuel":"solar","source":"solar","method":"photovoltaic","capacityMW":3}},{"type":"Feature","geometry":{"type":"Point","coordinates":[11.56644,45.55672]},"properties":{"id":"way/106229850","name":"Unnamed site","fuel":"solar","source":"solar","method":"photovoltaic"}},{"type":"Feature","geometry":{"type":"Point","coordinates":[7.53516,45.25239]},"properties":{"id":"way/106629014","name":"Centrale di Mathi","fuel":"gas","source":"gas","method":"combustion","capacityMW":18,"operator":"Ahlstrom Turin"}},{"type":"Feature","geometry":{"type":"Point","coordinates":[7.0552,45.1438]},"properties":{"id":"way/106629019","name":"Centrale Idroelettrica di Mompantero","fuel":"hydro","source":"hydro","method":"water-storage","capacityMW":6.9,"operator":"Enel Green Power"}},{"type":"Feature","geometry":{"type":"Point","coordinates":[7.67608,44.99296]},"properties":{"id":"way/106629023","name":"Centrale termoelettrica di Moncalieri","fuel":"gas","source":"gas","method":"combustion","capacityMW":800,"operator":"Iren Energia"}},{"type":"Feature","geometry":{"type":"Point","coordinates":[14.63853,37.00976]},"properties":{"id":"way/108728422","name":"Unnamed site","fuel":"solar","source":"solar","method":"photovoltaic"}},{"type":"Feature","geometry":{"type":"Point","coordinates":[14.64551,36.99635]},"properties":{"id":"way/108728423","name":"Unnamed site","fuel":"solar","source":"solar","method":"photovoltaic"}},{"type":"Feature","geometry":{"type":"Point","coordinates":[16.21696,39.71135]},"properties":{"id":"way/110330926","name":"Centrale Termoelettrica di Altomonte","fuel":"gas","source":"gas","method":"combustion","capacityMW":780,"operator":"Edison","start":"2006"}},{"type":"Feature","geometry":{"type":"Point","coordinates":[10.84166,45.47758]},"properties":{"id":"way/111020794","name":"Centrale Idroelettrica di Bussolengo","fuel":"hydro","source":"hydro","method":"run-of-the-river","capacityMW":50,"operator":"Hydro Dolomiti Energia"}},{"type":"Feature","geometry":{"type":"Point","coordinates":[12.30246,46.20082]},"properties":{"id":"way/111346267","name":"Centrale idroelettrica \"Achille Gaggia\"","fuel":"hydro","source":"hydro","method":"water-storage","capacityMW":220}},{"type":"Feature","geometry":{"type":"Point","coordinates":[11.06371,43.16061]},"properties":{"id":"way/112869627","name":"Centrale di Chiusdino","fuel":"geothermal","source":"geothermal","capacityMW":18.5,"operator":"Enel"}},{"type":"Feature","geometry":{"type":"Point","coordinates":[7.60667,45.87213]},"properties":{"id":"way/113599971","name":"Unnamed site","fuel":"other"}},{"type":"Feature","geometry":{"type":"Point","coordinates":[11.47789,43.564]},"properties":{"id":"way/113684324","name":"Centrale termoelettrica \"Santa Barbara\"","fuel":"gas","source":"gas","method":"combustion","capacityMW":391,"operator":"Enel"}},{"type":"Feature","geometry":{"type":"Point","coordinates":[14.61381,37.00604]},"properties":{"id":"way/113828196","name":"Unnamed site","fuel":"solar","source":"solar","method":"photovoltaic"}},{"type":"Feature","geometry":{"type":"Point","coordinates":[9.47979,45.08997]},"properties":{"id":"way/116918904","name":"Centrale termoelettrica \"Edoardo Amaldi\"","fuel":"gas","source":"gas","method":"combustion","capacityMW":1476,"operator":"Enel"}},{"type":"Feature","geometry":{"type":"Point","coordinates":[9.50584,45.05185]},"properties":{"id":"way/117015784","name":"Edison","fuel":"gas","source":"gas","method":"combustion"}},{"type":"Feature","geometry":{"type":"Point","coordinates":[8.43043,44.27533]},"properties":{"id":"way/117169258","name":"Centrale Tirreno Power Vado Ligure","fuel":"gas","source":"gas","method":"combustion","capacityMW":760,"operator":"Tirreno Power"}},{"type":"Feature","geometry":{"type":"Point","coordinates":[10.68193,46.41471]},"properties":{"id":"way/118951879","name":"Centrale Malga Mare","fuel":"hydro","source":"hydro","method":"water-storage","capacityMW":12,"operator":"Hydro Dolomiti Energia","start":"1931"}},{"type":"Feature","geometry":{"type":"Point","coordinates":[10.86794,45.64722]},"properties":{"id":"way/119237263","name":"Centrale Idroelettrica - Brentino","fuel":"hydro","source":"hydro","capacityMW":2,"operator":"Enel Green Power"}},{"type":"Feature","geometry":{"type":"Point","coordinates":[9.58078,39.9653]},"properties":{"id":"way/119566587","name":"Unnamed site","fuel":"solar","source":"solar","method":"photovoltaic"}},{"type":"Feature","geometry":{"type":"Point","coordinates":[15.88555,41.63498]},"properties":{"id":"way/119930123","name":"Unnamed site","fuel":"solar","source":"solar","method":"photovoltaic"}},{"type":"Feature","geometry":{"type":"Point","coordinates":[12.20018,42.99617]},"properties":{"id":"way/120916822","name":"Centrale termoelettrica \"Franco Rasetti\"","fuel":"gas","source":"gas","method":"combustion","capacityMW":365,"operator":"Enel"}},{"type":"Feature","geometry":{"type":"Point","coordinates":[8.72922,45.53205]},"properties":{"id":"way/121151090","name":"Centrale Guglielmo Castelli","fuel":"hydro","source":"hydro"}},{"type":"Feature","geometry":{"type":"Point","coordinates":[11.67708,45.87692]},"properties":{"id":"way/121292713","name":"Unnamed site","fuel":"hydro","source":"hydro"}},{"type":"Feature","geometry":{"type":"Point","coordinates":[11.72137,45.91638]},"properties":{"id":"way/121292780","name":"Centrale Marzotto","fuel":"hydro","source":"hydro","method":"water-storage","capacityMW":5.76}},{"type":"Feature","geometry":{"type":"Point","coordinates":[11.72969,45.91354]},"properties":{"id":"way/122154091","name":"Centrale Cavilla","fuel":"hydro","source":"hydro","method":"water-storage","capacityMW":24,"operator":"Enel","start":"1953"}},{"type":"Feature","geometry":{"type":"Point","coordinates":[7.58489,45.03736]},"properties":{"id":"way/122234828","name":"Termovalorizzatore di Torino","fuel":"waste","source":"waste","method":"combustion","operator":"TRM S.p.A.","start":"2013"}},{"type":"Feature","geometry":{"type":"Point","coordinates":[11.73366,46.55777]},"properties":{"id":"way/125369541","name":"Zentrela idroeletrica Sëlva","fuel":"hydro","source":"hydro","operator":"alperia"}},{"type":"Feature","geometry":{"type":"Point","coordinates":[17.10569,39.22392]},"properties":{"id":"way/127240992","name":"Biomasse Italia - Stabilimento di Strongoli","fuel":"bioenergy","source":"biomass","method":"combustion","capacityMW":48,"operator":"EPH"}},{"type":"Feature","geometry":{"type":"Point","coordinates":[13.24038,43.16418]},"properties":{"id":"way/127679680","name":"Centrale Enel Belforte","fuel":"hydro","source":"hydro","method":"run-of-the-river","capacityMW":6,"operator":"ENEL","start":"1954"}},{"type":"Feature","geometry":{"type":"Point","coordinates":[16.12519,41.31174]},"properties":{"id":"way/127957795","name":"Unnamed site","fuel":"solar","source":"solar","method":"photovoltaic"}},{"type":"Feature","geometry":{"type":"Point","coordinates":[14.96528,41.8195]},"properties":{"id":"way/128175798","name":"Centrale termoelettrica Larino","fuel":"gas","source":"gas","method":"combustion","capacityMW":250,"operator":"Enel"}},{"type":"Feature","geometry":{"type":"Point","coordinates":[9.52086,45.61246]},"properties":{"id":"way/128198971","name":"Centrale Taccani","fuel":"hydro","source":"hydro","method":"run-of-the-river","capacityMW":10.5,"operator":"Enel Green Power","start":"1906"}},{"type":"Feature","geometry":{"type":"Point","coordinates":[17.26468,40.93896]},"properties":{"id":"way/128265497","name":"Unnamed site","fuel":"solar","source":"solar","method":"photovoltaic"}},{"type":"Feature","geometry":{"type":"Point","coordinates":[17.26563,40.93831]},"properties":{"id":"way/128265498","name":"Unnamed site","fuel":"solar","source":"solar","method":"photovoltaic"}},{"type":"Feature","geometry":{"type":"Point","coordinates":[11.71581,44.25653]},"properties":{"id":"way/128380039","name":"Unnamed site","fuel":"solar","source":"solar","method":"photovoltaic"}},{"type":"Feature","geometry":{"type":"Point","coordinates":[7.20871,45.58746]},"properties":{"id":"way/129412598","name":"Levionaz","fuel":"hydro","source":"hydro","operator":"Comune di Valsavarenche","start":"1996"}},{"type":"Feature","geometry":{"type":"Point","coordinates":[7.19313,45.69259]},"properties":{"id":"way/129736325","name":"Unnamed site","fuel":"hydro","source":"hydro","method":"water-storage"}},{"type":"Feature","geometry":{"type":"Point","coordinates":[16.22041,41.27334]},"properties":{"id":"way/129767697","name":"Unnamed site","fuel":"solar","source":"solar","method":"photovoltaic"}},{"type":"Feature","geometry":{"type":"Point","coordinates":[11.92941,45.39264]},"properties":{"id":"way/131678575","name":"Unnamed site","fuel":"other"}},{"type":"Feature","geometry":{"type":"Point","coordinates":[9.33486,46.44337]},"properties":{"id":"way/132368715","name":"Unnamed site","fuel":"hydro","source":"hydro"}},{"type":"Feature","geometry":{"type":"Point","coordinates":[7.09107,45.67305]},"properties":{"id":"way/132442606","name":"Planaval s.r.l.","fuel":"hydro","source":"hydro"}},{"type":"Feature","geometry":{"type":"Point","coordinates":[14.11242,41.17799]},"properties":{"id":"way/132450235","name":"Sparanise Power Plant","fuel":"gas","source":"gas","method":"combustion","capacityMW":760,"operator":"Axpo Italia","start":"2007-09-25"}},{"type":"Feature","geometry":{"type":"Point","coordinates":[14.55741,40.82717]},"properties":{"id":"way/132640617","name":"Unnamed site","fuel":"solar","source":"solar","method":"photovoltaic"}},{"type":"Feature","geometry":{"type":"Point","coordinates":[14.10837,40.83812]},"properties":{"id":"way/132726372","name":"Unnamed site","fuel":"oil","source":"oil"}},{"type":"Feature","geometry":{"type":"Point","coordinates":[9.60279,45.72826]},"properties":{"id":"way/134111401","name":"Centrale Idroeletrica Paladina","fuel":"hydro","source":"hydro"}},{"type":"Feature","geometry":{"type":"Point","coordinates":[10.49747,45.66977]},"properties":{"id":"way/134757354","name":"Centrale di Rango","fuel":"hydro","source":"hydro","capacityMW":0.02,"start":"~2015"}},{"type":"Feature","geometry":{"type":"Point","coordinates":[12.94961,46.62295]},"properties":{"id":"way/135103694","name":"Kraftwerk Kreuztratte","fuel":"hydro","source":"hydro","capacityMW":2,"operator":"Elektrizitätswerk Plöcken GmbH","start":"1993"}},{"type":"Feature","geometry":{"type":"Point","coordinates":[9.68048,40.54828]},"properties":{"id":"way/135201680","name":"Unnamed site","fuel":"solar","source":"solar","method":"photovoltaic"}},{"type":"Feature","geometry":{"type":"Point","coordinates":[10.23025,45.5622]},"properties":{"id":"way/135908752","name":"Centrale Nord","fuel":"gas","source":"gas","method":"combustion","operator":"A2A Calore e Servizi S.p.A."}},{"type":"Feature","geometry":{"type":"Point","coordinates":[8.60911,44.94068]},"properties":{"id":"way/136309749","name":"Unnamed site","fuel":"solar","source":"solar","method":"photovoltaic"}},{"type":"Feature","geometry":{"type":"Point","coordinates":[8.58947,44.8802]},"properties":{"id":"way/136309761","name":"Unnamed site","fuel":"solar","source":"solar","method":"photovoltaic"}},{"type":"Feature","geometry":{"type":"Point","coordinates":[8.26023,39.16606]},"properties":{"id":"way/136507877","name":"Unnamed site","fuel":"solar","source":"solar;wind","method":"photovoltaic;wind_turbine"}},{"type":"Feature","geometry":{"type":"Point","coordinates":[8.54414,39.11167]},"properties":{"id":"way/137299657","name":"Unnamed site","fuel":"solar","source":"solar","method":"photovoltaic"}},{"type":"Feature","geometry":{"type":"Point","coordinates":[8.68373,39.11478]},"properties":{"id":"way/137412153","name":"Unnamed site","fuel":"solar","source":"solar","method":"photovoltaic"}},{"type":"Feature","geometry":{"type":"Point","coordinates":[12.82574,37.7155]},"properties":{"id":"way/137466637","name":"Unnamed site","fuel":"solar","source":"solar","method":"photovoltaic"}},{"type":"Feature","geometry":{"type":"Point","coordinates":[13.43698,43.32954]},"properties":{"id":"way/137572431","name":"Centrale idroelettrica Enel","fuel":"hydro","source":"hydro","operator":"Enel Green Power"}},{"type":"Feature","geometry":{"type":"Point","coordinates":[12.25637,45.66392]},"properties":{"id":"way/138768819","name":"Centrale di Ponte della Gobba","fuel":"hydro","source":"hydro","method":"run-of-the-river"}},{"type":"Feature","geometry":{"type":"Point","coordinates":[12.24534,45.66266]},"properties":{"id":"way/138826441","name":"Centrale di Ponte San Martino","fuel":"hydro","source":"hydro","method":"run-of-the-river","capacityMW":0.35,"operator":"Enel Green Power S.p.A.","start":"1917"}},{"type":"Feature","geometry":{"type":"Point","coordinates":[14.88571,41.94652]},"properties":{"id":"way/138980514","name":"Unnamed site","fuel":"solar","source":"solar","method":"photovoltaic"}},{"type":"Feature","geometry":{"type":"Point","coordinates":[14.88116,41.95127]},"properties":{"id":"way/138980547","name":"Unnamed site","fuel":"solar","source":"solar","method":"photovoltaic"}},{"type":"Feature","geometry":{"type":"Point","coordinates":[14.87027,41.95155]},"properties":{"id":"way/138980635","name":"Unnamed site","fuel":"solar","source":"solar","method":"photovoltaic"}},{"type":"Feature","geometry":{"type":"Point","coordinates":[14.87522,41.95109]},"properties":{"id":"way/138980708","name":"Unnamed site","fuel":"solar","source":"solar","method":"photovoltaic"}},{"type":"Feature","geometry":{"type":"Point","coordinates":[15.28448,38.20225]},"properties":{"id":"way/139107362","name":"Centrale di San Filippo del Mela","fuel":"oil","source":"oil","method":"combustion","capacityMW":960,"operator":"A2A","start":"1971"}},{"type":"Feature","geometry":{"type":"Point","coordinates":[14.84271,41.96283]},"properties":{"id":"way/139118205","name":"Unnamed site","fuel":"solar","source":"solar","method":"photovoltaic"}},{"type":"Feature","geometry":{"type":"Point","coordinates":[14.98199,41.67949]},"properties":{"id":"way/139140502","name":"Unnamed site","fuel":"solar","source":"solar"}},{"type":"Feature","geometry":{"type":"Point","coordinates":[15.26814,38.19811]},"properties":{"id":"way/139267038","name":"Centrale Termoelettrica RAM","fuel":"other"}},{"type":"Feature","geometry":{"type":"Point","coordinates":[9.16605,45.3597]},"properties":{"id":"way/139380040","name":"Centrale Termica A","fuel":"gas","source":"gas","method":"combustion"}},{"type":"Feature","geometry":{"type":"Point","coordinates":[11.18265,44.54233]},"properties":{"id":"way/139502953","name":"Unnamed site","fuel":"solar","source":"solar","method":"photovoltaic"}},{"type":"Feature","geometry":{"type":"Point","coordinates":[9.14083,40.12705]},"properties":{"id":"way/139974542","name":"Unnamed site","fuel":"other"}},{"type":"Feature","geometry":{"type":"Point","coordinates":[11.05589,43.80502]},"properties":{"id":"way/139978610","name":"Unnamed site","fuel":"solar","source":"solar","method":"photovoltaic"}},{"type":"Feature","geometry":{"type":"Point","coordinates":[11.057,43.80711]},"properties":{"id":"way/139978913","name":"Unnamed site","fuel":"solar","source":"solar","method":"photovoltaic"}},{"type":"Feature","geometry":{"type":"Point","coordinates":[11.05369,43.80777]},"properties":{"id":"way/139978982","name":"Unnamed site","fuel":"solar","source":"solar","method":"photovoltaic"}},{"type":"Feature","geometry":{"type":"Point","coordinates":[11.05357,43.80575]},"properties":{"id":"way/139979053","name":"Unnamed site","fuel":"solar","source":"solar","method":"photovoltaic"}},{"type":"Feature","geometry":{"type":"Point","coordinates":[13.53933,43.52251]},"properties":{"id":"way/140349021","name":"Unnamed site","fuel":"solar","source":"solar","method":"photovoltaic"}},{"type":"Feature","geometry":{"type":"Point","coordinates":[13.51818,43.53196]},"properties":{"id":"way/140349022","name":"Unnamed site","fuel":"solar","source":"solar","method":"photovoltaic"}},{"type":"Feature","geometry":{"type":"Point","coordinates":[13.65177,43.42497]},"properties":{"id":"way/140471335","name":"Unnamed site","fuel":"solar","source":"solar"}},{"type":"Feature","geometry":{"type":"Point","coordinates":[13.61404,43.44815]},"properties":{"id":"way/140471336","name":"Unnamed site","fuel":"solar","source":"solar","method":"photovoltaic"}},{"type":"Feature","geometry":{"type":"Point","coordinates":[8.96036,39.45937]},"properties":{"id":"way/140743016","name":"Campo Fotovoltaico","fuel":"solar","source":"solar","method":"photovoltaic"}},{"type":"Feature","geometry":{"type":"Point","coordinates":[11.03702,45.58844]},"properties":{"id":"way/140980821","name":"Impianto fotovoltaico Zambelli","fuel":"solar","source":"solar","method":"photovoltaic"}},{"type":"Feature","geometry":{"type":"Point","coordinates":[8.7881,40.24581]},"properties":{"id":"way/141046351","name":"Unnamed site","fuel":"solar","source":"solar","method":"photovoltaic"}},{"type":"Feature","geometry":{"type":"Point","coordinates":[11.614,44.40012]},"properties":{"id":"way/141655868","name":"Unnamed site","fuel":"solar","source":"solar","method":"photovoltaic"}},{"type":"Feature","geometry":{"type":"Point","coordinates":[11.66222,44.38594]},"properties":{"id":"way/141655953","name":"Unnamed site","fuel":"solar","source":"solar","method":"photovoltaic"}},{"type":"Feature","geometry":{"type":"Point","coordinates":[12.03431,44.28151]},"properties":{"id":"way/141671274","name":"Unnamed site","fuel":"solar","source":"solar","method":"photovoltaic"}},{"type":"Feature","geometry":{"type":"Point","coordinates":[15.03106,40.6305]},"properties":{"id":"way/142079699","name":"Impianto Fotovoltaico Monte di Eboli","fuel":"solar","source":"solar","method":"photovoltaic"}},{"type":"Feature","geometry":{"type":"Point","coordinates":[15.11875,40.57606]},"properties":{"id":"way/142084862","name":"Unnamed site","fuel":"solar","source":"solar","method":"photovoltaic"}},{"type":"Feature","geometry":{"type":"Point","coordinates":[10.21129,45.51645]},"properties":{"id":"way/142535890","name":"Centrale teleriscaldamento Lamarmora","fuel":"coal","source":"coal;gas","method":"combustion","capacityMW":75,"operator":"A2A Calore e Servizi S.p.A.","start":"1978"}},{"type":"Feature","geometry":{"type":"Point","coordinates":[10.15137,44.84943]},"properties":{"id":"way/142610448","name":"Campo Pannelli Fotovoltaici","fuel":"solar","source":"solar","method":"photovoltaic"}},{"type":"Feature","geometry":{"type":"Point","coordinates":[8.92636,39.54262]},"properties":{"id":"way/142902988","name":"Unnamed site","fuel":"solar","source":"solar","method":"photovoltaic"}},{"type":"Feature","geometry":{"type":"Point","coordinates":[10.45713,44.76406]},"properties":{"id":"way/142983569","name":"Unnamed site","fuel":"solar","source":"solar","method":"photovoltaic"}},{"type":"Feature","geometry":{"type":"Point","coordinates":[9.87022,46.19185]},"properties":{"id":"way/143258301","name":"Centrale Idroelettrica Mallero","fuel":"hydro","source":"hydro","operator":"Enel"}},{"type":"Feature","geometry":{"type":"Point","coordinates":[13.46409,43.34124]},"properties":{"id":"way/143339646","name":"Unnamed site","fuel":"solar","source":"solar","method":"photovoltaic"}},{"type":"Feature","geometry":{"type":"Point","coordinates":[12.28482,44.16517]},"properties":{"id":"way/143461016","name":"Unnamed site","fuel":"solar","source":"solar","method":"photovoltaic"}},{"type":"Feature","geometry":{"type":"Point","coordinates":[12.26724,44.18186]},"properties":{"id":"way/143461125","name":"Unnamed site","fuel":"solar","source":"solar","method":"photovoltaic"}},{"type":"Feature","geometry":{"type":"Point","coordinates":[12.36219,44.10772]},"properties":{"id":"way/143463009","name":"Unnamed site","fuel":"solar","source":"solar","method":"photovoltaic"}},{"type":"Feature","geometry":{"type":"Point","coordinates":[12.36169,44.10305]},"properties":{"id":"way/143466114","name":"Unnamed site","fuel":"solar","source":"solar","method":"photovoltaic"}},{"type":"Feature","geometry":{"type":"Point","coordinates":[14.34588,41.29175]},"properties":{"id":"way/143819428","name":"Unnamed site","fuel":"solar","source":"solar","method":"photovoltaic"}},{"type":"Feature","geometry":{"type":"Point","coordinates":[15.89107,40.31672]},"properties":{"id":"way/143853796","name":"Unnamed site","fuel":"solar","source":"solar","method":"photovoltaic"}},{"type":"Feature","geometry":{"type":"Point","coordinates":[17.51199,40.35271]},"properties":{"id":"way/143950629","name":"Unnamed site","fuel":"solar","source":"solar","method":"photovoltaic"}},{"type":"Feature","geometry":{"type":"Point","coordinates":[14.47641,41.54345]},"properties":{"id":"way/144008215","name":"Unnamed site","fuel":"solar","source":"solar","method":"photovoltaic"}},{"type":"Feature","geometry":{"type":"Point","coordinates":[8.57139,40.27454]},"properties":{"id":"way/144012570","name":"Unnamed site","fuel":"solar","source":"solar","method":"photovoltaic"}},{"type":"Feature","geometry":{"type":"Point","coordinates":[8.55923,40.26879]},"properties":{"id":"way/144012572","name":"Unnamed site","fuel":"solar","source":"solar","method":"photovoltaic"}},{"type":"Feature","geometry":{"type":"Point","coordinates":[8.55911,40.27174]},"properties":{"id":"way/144012577","name":"Unnamed site","fuel":"solar","source":"solar","method":"photovoltaic"}},{"type":"Feature","geometry":{"type":"Point","coordinates":[16.52921,40.4077]},"properties":{"id":"way/144072839","name":"Unnamed site","fuel":"solar","source":"solar","method":"photovoltaic"}},{"type":"Feature","geometry":{"type":"Point","coordinates":[15.42398,41.62587]},"properties":{"id":"way/144251069","name":"San Severo CCGT Power Plant","fuel":"gas","source":"gas","method":"combustion","capacityMW":419,"operator":"En Plus"}},{"type":"Feature","geometry":{"type":"Point","coordinates":[16.74372,40.46147]},"properties":{"id":"way/144286138","name":"Unnamed site","fuel":"solar","source":"solar","method":"photovoltaic"}},{"type":"Feature","geometry":{"type":"Point","coordinates":[13.4078,43.5071]},"properties":{"id":"way/144814125","name":"Unnamed site","fuel":"solar","source":"solar","method":"photovoltaic"}},{"type":"Feature","geometry":{"type":"Point","coordinates":[13.39616,43.51122]},"properties":{"id":"way/144814422","name":"Unnamed site","fuel":"solar","source":"solar","method":"photovoltaic"}},{"type":"Feature","geometry":{"type":"Point","coordinates":[11.73108,45.77969]},"properties":{"id":"way/144913007","name":"Centrale idroelettrica Ca' Barzizza","fuel":"hydro","source":"hydro","operator":"Enel Green Power"}},{"type":"Feature","geometry":{"type":"Point","coordinates":[8.47915,44.86792]},"properties":{"id":"way/145228755","name":"Impianto fotovoltaico di Oviglio","fuel":"solar","source":"solar","method":"photovoltaic","capacityMW":3,"operator":"Edison"}},{"type":"Feature","geometry":{"type":"Point","coordinates":[8.70005,44.90248]},"properties":{"id":"way/145228763","name":"Unnamed site","fuel":"solar","source":"solar","method":"photovoltaic"}},{"type":"Feature","geometry":{"type":"Point","coordinates":[13.04295,43.59433]},"properties":{"id":"way/145475612","name":"Montenovo Servizi","fuel":"solar","source":"solar","method":"photovoltaic"}},{"type":"Feature","geometry":{"type":"Point","coordinates":[15.04528,40.7055]},"properties":{"id":"way/145564947","name":"Opera di Presa Centrale Tusciano","fuel":"hydro","source":"hydro","method":"run-of-the-river","operator":"IREN"}},{"type":"Feature","geometry":{"type":"Point","coordinates":[16.88504,40.45785]},"properties":{"id":"way/145567489","name":"Unnamed site","fuel":"solar","source":"solar","method":"photovoltaic"}},{"type":"Feature","geometry":{"type":"Point","coordinates":[16.88406,40.45935]},"properties":{"id":"way/145567491","name":"Unnamed site","fuel":"solar","source":"solar","method":"photovoltaic"}},{"type":"Feature","geometry":{"type":"Point","coordinates":[16.93345,40.81002]},"properties":{"id":"way/145573613","name":"Unnamed site","fuel":"solar","source":"solar","method":"photovoltaic"}},{"type":"Feature","geometry":{"type":"Point","coordinates":[16.91024,40.99813]},"properties":{"id":"way/145575265","name":"Unnamed site","fuel":"solar","source":"solar","method":"photovoltaic"}},{"type":"Feature","geometry":{"type":"Point","coordinates":[16.90771,40.99946]},"properties":{"id":"way/145575266","name":"Unnamed site","fuel":"solar","source":"solar","method":"photovoltaic"}},{"type":"Feature","geometry":{"type":"Point","coordinates":[16.91184,40.99697]},"properties":{"id":"way/145575267","name":"Unnamed site","fuel":"solar","source":"solar","method":"photovoltaic"}},{"type":"Feature","geometry":{"type":"Point","coordinates":[17.00415,40.99243]},"properties":{"id":"way/145576609","name":"Unnamed site","fuel":"solar","source":"solar","method":"photovoltaic"}},{"type":"Feature","geometry":{"type":"Point","coordinates":[17.70478,40.678]},"properties":{"id":"way/145662953","name":"Unnamed site","fuel":"solar","source":"solar","method":"photovoltaic"}},{"type":"Feature","geometry":{"type":"Point","coordinates":[17.72491,40.69171]},"properties":{"id":"way/145663080","name":"Unnamed site","fuel":"solar","source":"solar","method":"photovoltaic"}},{"type":"Feature","geometry":{"type":"Point","coordinates":[17.8549,40.61249]},"properties":{"id":"way/145663719","name":"Unnamed site","fuel":"solar","source":"solar","method":"photovoltaic"}},{"type":"Feature","geometry":{"type":"Point","coordinates":[17.83604,40.62223]},"properties":{"id":"way/145663720","name":"Unnamed site","fuel":"solar","source":"solar","method":"photovoltaic"}},{"type":"Feature","geometry":{"type":"Point","coordinates":[17.83459,40.62207]},"properties":{"id":"way/145663721","name":"Unnamed site","fuel":"solar","source":"solar","method":"photovoltaic"}},{"type":"Feature","geometry":{"type":"Point","coordinates":[17.84079,40.63778]},"properties":{"id":"way/145663736","name":"Unnamed site","fuel":"solar","source":"solar","method":"photovoltaic"}},{"type":"Feature","geometry":{"type":"Point","coordinates":[17.85288,40.6389]},"properties":{"id":"way/145663737","name":"Unnamed site","fuel":"solar","source":"solar","method":"photovoltaic"}},{"type":"Feature","geometry":{"type":"Point","coordinates":[17.87588,40.6159]},"properties":{"id":"way/145663841","name":"Unnamed site","fuel":"solar","source":"solar","method":"photovoltaic"}},{"type":"Feature","geometry":{"type":"Point","coordinates":[17.87034,40.61594]},"properties":{"id":"way/145663842","name":"Unnamed site","fuel":"solar","source":"solar","method":"photovoltaic"}},{"type":"Feature","geometry":{"type":"Point","coordinates":[17.88272,40.61081]},"properties":{"id":"way/145664032","name":"Restinco Solar plant","fuel":"solar","source":"solar","method":"photovoltaic"}},{"type":"Feature","geometry":{"type":"Point","coordinates":[17.90304,40.5959]},"properties":{"id":"way/145664533","name":"Unnamed site","fuel":"solar","source":"solar","method":"photovoltaic"}},{"type":"Feature","geometry":{"type":"Point","coordinates":[17.89746,40.59387]},"properties":{"id":"way/145664547","name":"Unnamed site","fuel":"solar","source":"solar","method":"photovoltaic"}},{"type":"Feature","geometry":{"type":"Point","coordinates":[17.89961,40.59291]},"properties":{"id":"way/145664548","name":"Unnamed site","fuel":"solar","source":"solar","method":"photovoltaic"}},{"type":"Feature","geometry":{"type":"Point","coordinates":[17.9039,40.58477]},"properties":{"id":"way/145664724","name":"Unnamed site","fuel":"solar","source":"solar","method":"photovoltaic"}},{"type":"Feature","geometry":{"type":"Point","coordinates":[17.95901,40.60252]},"properties":{"id":"way/145665487","name":"Unnamed site","fuel":"solar","source":"solar","method":"photovoltaic"}},{"type":"Feature","geometry":{"type":"Point","coordinates":[17.96614,40.60678]},"properties":{"id":"way/145665539","name":"Unnamed site","fuel":"solar","source":"solar","method":"photovoltaic"}},{"type":"Feature","geometry":{"type":"Point","coordinates":[17.90329,40.54338]},"properties":{"id":"way/145666231","name":"Unnamed site","fuel":"solar","source":"solar","method":"photovoltaic"}},{"type":"Feature","geometry":{"type":"Point","coordinates":[17.9097,40.54837]},"properties":{"id":"way/145666232","name":"Unnamed site","fuel":"solar","source":"solar","method":"photovoltaic"}},{"type":"Feature","geometry":{"type":"Point","coordinates":[17.91125,40.54587]},"properties":{"id":"way/145666233","name":"Unnamed site","fuel":"solar","source":"solar","method":"photovoltaic"}},{"type":"Feature","geometry":{"type":"Point","coordinates":[17.81308,40.60266]},"properties":{"id":"way/145666616","name":"Unnamed site","fuel":"solar","source":"solar","method":"photovoltaic"}},{"type":"Feature","geometry":{"type":"Point","coordinates":[17.80621,40.61291]},"properties":{"id":"way/145666716","name":"Unnamed site","fuel":"solar","source":"solar","method":"photovoltaic"}},{"type":"Feature","geometry":{"type":"Point","coordinates":[17.81258,40.60885]},"properties":{"id":"way/145666717","name":"Unnamed site","fuel":"solar","source":"solar","method":"photovoltaic"}},{"type":"Feature","geometry":{"type":"Point","coordinates":[17.80931,40.60839]},"properties":{"id":"way/145666718","name":"Unnamed site","fuel":"solar","source":"solar","method":"photovoltaic"}},{"type":"Feature","geometry":{"type":"Point","coordinates":[17.7959,40.59856]},"properties":{"id":"way/145666784","name":"Unnamed site","fuel":"solar","source":"solar","method":"photovoltaic"}},{"type":"Feature","geometry":{"type":"Point","coordinates":[17.7994,40.60738]},"properties":{"id":"way/145667131","name":"Unnamed site","fuel":"solar","source":"solar","method":"photovoltaic"}},{"type":"Feature","geometry":{"type":"Point","coordinates":[17.78513,40.60838]},"properties":{"id":"way/145667132","name":"Unnamed site","fuel":"solar","source":"solar","method":"photovoltaic"}},{"type":"Feature","geometry":{"type":"Point","coordinates":[17.77889,40.60739]},"properties":{"id":"way/145667136","name":"Unnamed site","fuel":"solar","source":"solar","method":"photovoltaic"}},{"type":"Feature","geometry":{"type":"Point","coordinates":[17.634,40.5898]},"properties":{"id":"way/145667865","name":"Unnamed site","fuel":"solar","source":"solar","method":"photovoltaic"}},{"type":"Feature","geometry":{"type":"Point","coordinates":[16.8188,40.88012]},"properties":{"id":"way/145912592","name":"Unnamed site","fuel":"solar","source":"solar","method":"photovoltaic"}},{"type":"Feature","geometry":{"type":"Point","coordinates":[16.83439,40.88941]},"properties":{"id":"way/145912858","name":"Unnamed site","fuel":"solar","source":"solar","method":"photovoltaic"}},{"type":"Feature","geometry":{"type":"Point","coordinates":[16.73673,40.92711]},"properties":{"id":"way/145917462","name":"Unnamed site","fuel":"solar","source":"solar","method":"photovoltaic"}},{"type":"Feature","geometry":{"type":"Point","coordinates":[16.69586,41.00853]},"properties":{"id":"way/145920560","name":"Unnamed site","fuel":"solar","source":"solar","method":"photovoltaic"}},{"type":"Feature","geometry":{"type":"Point","coordinates":[16.83399,40.92643]},"properties":{"id":"way/145920722","name":"Unnamed site","fuel":"solar","source":"solar","method":"photovoltaic"}},{"type":"Feature","geometry":{"type":"Point","coordinates":[16.8351,40.93014]},"properties":{"id":"way/145920723","name":"Unnamed site","fuel":"solar","source":"solar","method":"photovoltaic"}},{"type":"Feature","geometry":{"type":"Point","coordinates":[16.83583,40.9325]},"properties":{"id":"way/145920724","name":"Unnamed site","fuel":"solar","source":"solar","method":"photovoltaic"}},{"type":"Feature","geometry":{"type":"Point","coordinates":[16.82695,40.92876]},"properties":{"id":"way/145920725","name":"Unnamed site","fuel":"solar","source":"solar","method":"photovoltaic"}},{"type":"Feature","geometry":{"type":"Point","coordinates":[16.83608,40.93418]},"properties":{"id":"way/145920726","name":"Unnamed site","fuel":"solar","source":"solar","method":"photovoltaic"}},{"type":"Feature","geometry":{"type":"Point","coordinates":[16.82952,40.93618]},"properties":{"id":"way/145920728","name":"Unnamed site","fuel":"solar","source":"solar","method":"photovoltaic"}},{"type":"Feature","geometry":{"type":"Point","coordinates":[17.91146,40.59497]},"properties":{"id":"way/145924136","name":"Unnamed site","fuel":"solar","source":"solar","method":"photovoltaic"}},{"type":"Feature","geometry":{"type":"Point","coordinates":[17.94833,40.55625]},"properties":{"id":"way/145925298","name":"Unnamed site","fuel":"solar","source":"solar","method":"photovoltaic"}},{"type":"Feature","geometry":{"type":"Point","coordinates":[17.94845,40.55454]},"properties":{"id":"way/145926308","name":"Unnamed site","fuel":"solar","source":"solar","method":"photovoltaic"}},{"type":"Feature","geometry":{"type":"Point","coordinates":[17.31814,40.52902]},"properties":{"id":"way/145927406","name":"Unnamed site","fuel":"solar","source":"solar","method":"photovoltaic"}},{"type":"Feature","geometry":{"type":"Point","coordinates":[17.32379,40.52592]},"properties":{"id":"way/145927408","name":"Unnamed site","fuel":"solar","source":"solar","method":"photovoltaic"}},{"type":"Feature","geometry":{"type":"Point","coordinates":[17.31654,40.53341]},"properties":{"id":"way/145927412","name":"Unnamed site","fuel":"solar","source":"solar","method":"photovoltaic"}},{"type":"Feature","geometry":{"type":"Point","coordinates":[18.14156,40.15785]},"properties":{"id":"way/145928045","name":"Unnamed site","fuel":"solar","source":"solar","method":"photovoltaic"}},{"type":"Feature","geometry":{"type":"Point","coordinates":[18.14757,40.15629]},"properties":{"id":"way/145928183","name":"Unnamed site","fuel":"solar","source":"solar","method":"photovoltaic"}},{"type":"Feature","geometry":{"type":"Point","coordinates":[18.25989,40.20107]},"properties":{"id":"way/145929456","name":"Unnamed site","fuel":"solar","source":"solar","method":"photovoltaic"}},{"type":"Feature","geometry":{"type":"Point","coordinates":[18.25638,40.20262]},"properties":{"id":"way/145929458","name":"Unnamed site","fuel":"solar","source":"solar","method":"photovoltaic"}},{"type":"Feature","geometry":{"type":"Point","coordinates":[11.70984,45.75367]},"properties":{"id":"way/145931418","name":"Centrale idroelettrica di San Lazzaro","fuel":"hydro","source":"hydro","operator":"Consorzio di Bonifica Brenta"}},{"type":"Feature","geometry":{"type":"Point","coordinates":[18.2689,40.22925]},"properties":{"id":"way/145931429","name":"Unnamed site","fuel":"solar","source":"solar","method":"photovoltaic"}},{"type":"Feature","geometry":{"type":"Point","coordinates":[18.26835,40.23042]},"properties":{"id":"way/145931441","name":"Unnamed site","fuel":"solar","source":"solar","method":"photovoltaic"}},{"type":"Feature","geometry":{"type":"Point","coordinates":[18.32572,40.12161]},"properties":{"id":"way/145934863","name":"Unnamed site","fuel":"solar","source":"solar","method":"photovoltaic"}},{"type":"Feature","geometry":{"type":"Point","coordinates":[11.03579,45.35341]},"properties":{"id":"way/145990743","name":"Unnamed site","fuel":"solar","source":"solar","method":"photovoltaic"}},{"type":"Feature","geometry":{"type":"Point","coordinates":[12.20932,45.82793]},"properties":{"id":"way/146048332","name":"Unnamed site","fuel":"hydro","source":"hydro"}},{"type":"Feature","geometry":{"type":"Point","coordinates":[18.32626,40.112]},"properties":{"id":"way/146170419","name":"Unnamed site","fuel":"solar","source":"solar","method":"photovoltaic"}},{"type":"Feature","geometry":{"type":"Point","coordinates":[18.34862,40.07608]},"properties":{"id":"way/146170710","name":"Unnamed site","fuel":"solar","source":"solar","method":"photovoltaic"}},{"type":"Feature","geometry":{"type":"Point","coordinates":[18.34141,40.06532]},"properties":{"id":"way/146170711","name":"Unnamed site","fuel":"solar","source":"solar","method":"photovoltaic"}},{"type":"Feature","geometry":{"type":"Point","coordinates":[18.34801,40.06656]},"properties":{"id":"way/146170712","name":"Unnamed site","fuel":"solar","source":"solar","method":"photovoltaic"}},{"type":"Feature","geometry":{"type":"Point","coordinates":[18.34981,40.05768]},"properties":{"id":"way/146170854","name":"Unnamed site","fuel":"solar","source":"solar","method":"photovoltaic"}},{"type":"Feature","geometry":{"type":"Point","coordinates":[18.36342,40.03966]},"properties":{"id":"way/146171044","name":"Unnamed site","fuel":"solar","source":"solar","method":"photovoltaic"}},{"type":"Feature","geometry":{"type":"Point","coordinates":[18.25254,39.95409]},"properties":{"id":"way/146176173","name":"Unnamed site","fuel":"solar","source":"solar","method":"photovoltaic"}},{"type":"Feature","geometry":{"type":"Point","coordinates":[18.14066,40.27545]},"properties":{"id":"way/146177721","name":"Unnamed site","fuel":"solar","source":"solar","method":"photovoltaic"}},{"type":"Feature","geometry":{"type":"Point","coordinates":[18.15153,40.27394]},"properties":{"id":"way/146177755","name":"Unnamed site","fuel":"solar","source":"solar","method":"photovoltaic"}},{"type":"Feature","geometry":{"type":"Point","coordinates":[18.15022,40.27268]},"properties":{"id":"way/146177756","name":"Unnamed site","fuel":"solar","source":"solar","method":"photovoltaic"}},{"type":"Feature","geometry":{"type":"Point","coordinates":[18.14991,40.2769]},"properties":{"id":"way/146177757","name":"Unnamed site","fuel":"solar","source":"solar","method":"photovoltaic"}},{"type":"Feature","geometry":{"type":"Point","coordinates":[18.16932,40.31515]},"properties":{"id":"way/146178481","name":"Unnamed site","fuel":"solar","source":"solar","method":"photovoltaic"}},{"type":"Feature","geometry":{"type":"Point","coordinates":[18.13948,40.42327]},"properties":{"id":"way/146344635","name":"Unnamed site","fuel":"solar","source":"solar","method":"photovoltaic"}},{"type":"Feature","geometry":{"type":"Point","coordinates":[18.15392,40.42332]},"properties":{"id":"way/146344636","name":"Unnamed site","fuel":"solar","source":"solar","method":"photovoltaic"}},{"type":"Feature","geometry":{"type":"Point","coordinates":[18.12741,40.4206]},"properties":{"id":"way/146344637","name":"Unnamed site","fuel":"solar","source":"solar","method":"photovoltaic"}},{"type":"Feature","geometry":{"type":"Point","coordinates":[18.14502,40.41624]},"properties":{"id":"way/146344638","name":"Unnamed site","fuel":"solar","source":"solar","method":"photovoltaic"}},{"type":"Feature","geometry":{"type":"Point","coordinates":[18.15946,40.4093]},"properties":{"id":"way/146344731","name":"Unnamed site","fuel":"solar","source":"solar","method":"photovoltaic"}},{"type":"Feature","geometry":{"type":"Point","coordinates":[18.15118,40.40814]},"properties":{"id":"way/146344733","name":"Unnamed site","fuel":"solar","source":"solar","method":"photovoltaic"}},{"type":"Feature","geometry":{"type":"Point","coordinates":[18.17842,40.40815]},"properties":{"id":"way/146344918","name":"Unnamed site","fuel":"solar","source":"solar","method":"photovoltaic"}},{"type":"Feature","geometry":{"type":"Point","coordinates":[18.16528,40.40285]},"properties":{"id":"way/146344919","name":"Unnamed site","fuel":"solar","source":"solar","method":"photovoltaic"}},{"type":"Feature","geometry":{"type":"Point","coordinates":[18.16948,40.4281]},"properties":{"id":"way/146344920","name":"Unnamed site","fuel":"solar","source":"solar","method":"photovoltaic"}},{"type":"Feature","geometry":{"type":"Point","coordinates":[18.20159,40.41432]},"properties":{"id":"way/146344994","name":"Unnamed site","fuel":"solar","source":"solar","method":"photovoltaic"}},{"type":"Feature","geometry":{"type":"Point","coordinates":[18.12039,40.42955]},"properties":{"id":"way/146345232","name":"Unnamed site","fuel":"solar","source":"solar","method":"photovoltaic"}},{"type":"Feature","geometry":{"type":"Point","coordinates":[18.12179,40.43534]},"properties":{"id":"way/146345238","name":"Unnamed site","fuel":"solar","source":"solar","method":"photovoltaic"}},{"type":"Feature","geometry":{"type":"Point","coordinates":[18.065,40.47218]},"properties":{"id":"way/146345511","name":"Unnamed site","fuel":"solar","source":"solar","method":"photovoltaic"}},{"type":"Feature","geometry":{"type":"Point","coordinates":[17.98933,40.54518]},"properties":{"id":"way/146345722","name":"Unnamed site","fuel":"solar","source":"solar","method":"photovoltaic"}},{"type":"Feature","geometry":{"type":"Point","coordinates":[17.96609,40.51897]},"properties":{"id":"way/146345873","name":"Unnamed site","fuel":"solar","source":"solar","method":"photovoltaic"}},{"type":"Feature","geometry":{"type":"Point","coordinates":[17.97478,40.52587]},"properties":{"id":"way/146345874","name":"Unnamed site","fuel":"solar","source":"solar","method":"photovoltaic"}},{"type":"Feature","geometry":{"type":"Point","coordinates":[17.97501,40.52238]},"properties":{"id":"way/146345882","name":"Unnamed site","fuel":"solar","source":"solar","method":"photovoltaic"}},{"type":"Feature","geometry":{"type":"Point","coordinates":[17.96977,40.5254]},"properties":{"id":"way/146345887","name":"Unnamed site","fuel":"solar","source":"solar","method":"photovoltaic"}},{"type":"Feature","geometry":{"type":"Point","coordinates":[17.97177,40.52228]},"properties":{"id":"way/146345888","name":"Unnamed site","fuel":"solar","source":"solar","method":"photovoltaic"}},{"type":"Feature","geometry":{"type":"Point","coordinates":[17.97814,40.52683]},"properties":{"id":"way/146345939","name":"Unnamed site","fuel":"solar","source":"solar","method":"photovoltaic"}},{"type":"Feature","geometry":{"type":"Point","coordinates":[17.98097,40.52784]},"properties":{"id":"way/146345940","name":"Unnamed site","fuel":"solar","source":"solar","method":"photovoltaic"}},{"type":"Feature","geometry":{"type":"Point","coordinates":[17.9689,40.51383]},"properties":{"id":"way/146345944","name":"Unnamed site","fuel":"solar","source":"solar","method":"photovoltaic"}},{"type":"Feature","geometry":{"type":"Point","coordinates":[17.96684,40.51157]},"properties":{"id":"way/146345945","name":"Unnamed site","fuel":"solar","source":"solar","method":"photovoltaic"}},{"type":"Feature","geometry":{"type":"Point","coordinates":[17.98232,40.51813]},"properties":{"id":"way/146345962","name":"Unnamed site","fuel":"solar","source":"solar","method":"photovoltaic"}},{"type":"Feature","geometry":{"type":"Point","coordinates":[17.97518,40.51644]},"properties":{"id":"way/146345971","name":"Unnamed site","fuel":"solar","source":"solar","method":"photovoltaic"}},{"type":"Feature","geometry":{"type":"Point","coordinates":[17.97889,40.5128]},"properties":{"id":"way/146345985","name":"Unnamed site","fuel":"solar","source":"solar","method":"photovoltaic"}},{"type":"Feature","geometry":{"type":"Point","coordinates":[17.98158,40.50496]},"properties":{"id":"way/146346047","name":"Unnamed site","fuel":"solar","source":"solar","method":"photovoltaic"}},{"type":"Feature","geometry":{"type":"Point","coordinates":[17.97087,40.50644]},"properties":{"id":"way/146346079","name":"Unnamed site","fuel":"solar","source":"solar","method":"photovoltaic"}},{"type":"Feature","geometry":{"type":"Point","coordinates":[17.96672,40.50727]},"properties":{"id":"way/146346080","name":"Unnamed site","fuel":"solar","source":"solar","method":"photovoltaic"}},{"type":"Feature","geometry":{"type":"Point","coordinates":[17.96227,40.49634]},"properties":{"id":"way/146346437","name":"Unnamed site","fuel":"solar","source":"solar","method":"photovoltaic"}},{"type":"Feature","geometry":{"type":"Point","coordinates":[17.96061,40.49962]},"properties":{"id":"way/146346438","name":"Unnamed site","fuel":"solar","source":"solar","method":"photovoltaic"}},{"type":"Feature","geometry":{"type":"Point","coordinates":[17.97518,40.49511]},"properties":{"id":"way/146346617","name":"Unnamed site","fuel":"solar","source":"solar","method":"photovoltaic"}},{"type":"Feature","geometry":{"type":"Point","coordinates":[17.94313,40.5105]},"properties":{"id":"way/146447186","name":"Unnamed site","fuel":"solar","source":"solar","method":"photovoltaic"}},{"type":"Feature","geometry":{"type":"Point","coordinates":[17.93201,40.5165]},"properties":{"id":"way/146447203","name":"Unnamed site","fuel":"solar","source":"solar","method":"photovoltaic"}},{"type":"Feature","geometry":{"type":"Point","coordinates":[17.92715,40.52215]},"properties":{"id":"way/146447233","name":"Unnamed site","fuel":"solar","source":"solar","method":"photovoltaic"}},{"type":"Feature","geometry":{"type":"Point","coordinates":[17.91705,40.51676]},"properties":{"id":"way/146447266","name":"Unnamed site","fuel":"solar","source":"solar","method":"photovoltaic"}},{"type":"Feature","geometry":{"type":"Point","coordinates":[17.91691,40.52087]},"properties":{"id":"way/146447267","name":"Unnamed site","fuel":"solar","source":"solar","method":"photovoltaic"}},{"type":"Feature","geometry":{"type":"Point","coordinates":[17.91196,40.517]},"properties":{"id":"way/146447268","name":"Unnamed site","fuel":"solar","source":"solar","method":"photovoltaic"}},{"type":"Feature","geometry":{"type":"Point","coordinates":[17.95813,40.51491]},"properties":{"id":"way/146447342","name":"Unnamed site","fuel":"solar","source":"solar","method":"photovoltaic"}},{"type":"Feature","geometry":{"type":"Point","coordinates":[17.95858,40.51374]},"properties":{"id":"way/146447343","name":"Unnamed site","fuel":"solar","source":"solar","method":"photovoltaic"}},{"type":"Feature","geometry":{"type":"Point","coordinates":[17.95564,40.51431]},"properties":{"id":"way/146447344","name":"Unnamed site","fuel":"solar","source":"solar","method":"photovoltaic"}},{"type":"Feature","geometry":{"type":"Point","coordinates":[17.95551,40.51614]},"properties":{"id":"way/146447346","name":"Unnamed site","fuel":"solar","source":"solar","method":"photovoltaic"}},{"type":"Feature","geometry":{"type":"Point","coordinates":[17.94691,40.50784]},"properties":{"id":"way/146447347","name":"Unnamed site","fuel":"solar","source":"solar","method":"photovoltaic"}},{"type":"Feature","geometry":{"type":"Point","coordinates":[17.91204,40.47852]},"properties":{"id":"way/146447422","name":"Unnamed site","fuel":"solar","source":"solar","method":"photovoltaic"}},{"type":"Feature","geometry":{"type":"Point","coordinates":[17.90992,40.47807]},"properties":{"id":"way/146447423","name":"Unnamed site","fuel":"solar","source":"solar","method":"photovoltaic"}},{"type":"Feature","geometry":{"type":"Point","coordinates":[17.90716,40.48148]},"properties":{"id":"way/146447424","name":"Unnamed site","fuel":"solar","source":"solar","method":"photovoltaic"}},{"type":"Feature","geometry":{"type":"Point","coordinates":[17.8811,40.46452]},"properties":{"id":"way/146447497","name":"Unnamed site","fuel":"solar","source":"solar","method":"photovoltaic"}},{"type":"Feature","geometry":{"type":"Point","coordinates":[17.88279,40.45682]},"properties":{"id":"way/146447498","name":"Unnamed site","fuel":"solar","source":"solar","method":"photovoltaic"}},{"type":"Feature","geometry":{"type":"Point","coordinates":[17.86937,40.50976]},"properties":{"id":"way/146447531","name":"Unnamed site","fuel":"solar","source":"solar","method":"photovoltaic"}},{"type":"Feature","geometry":{"type":"Point","coordinates":[17.8644,40.51047]},"properties":{"id":"way/146447532","name":"Unnamed site","fuel":"solar","source":"solar","method":"photovoltaic"}},{"type":"Feature","geometry":{"type":"Point","coordinates":[17.89464,40.49866]},"properties":{"id":"way/146447648","name":"Unnamed site","fuel":"solar","source":"solar","method":"photovoltaic"}},{"type":"Feature","geometry":{"type":"Point","coordinates":[17.89564,40.50215]},"properties":{"id":"way/146447649","name":"Unnamed site","fuel":"solar","source":"solar","method":"photovoltaic"}},{"type":"Feature","geometry":{"type":"Point","coordinates":[17.91931,40.50821]},"properties":{"id":"way/146447670","name":"Unnamed site","fuel":"solar","source":"solar","method":"photovoltaic"}},{"type":"Feature","geometry":{"type":"Point","coordinates":[17.88969,40.53299]},"properties":{"id":"way/146447681","name":"Unnamed site","fuel":"solar","source":"solar","method":"photovoltaic"}},{"type":"Feature","geometry":{"type":"Point","coordinates":[17.84406,40.49149]},"properties":{"id":"way/146447768","name":"Unnamed site","fuel":"solar","source":"solar","method":"photovoltaic"}},{"type":"Feature","geometry":{"type":"Point","coordinates":[17.84929,40.49101]},"properties":{"id":"way/146447769","name":"Unnamed site","fuel":"solar","source":"solar","method":"photovoltaic"}},{"type":"Feature","geometry":{"type":"Point","coordinates":[17.85304,40.49009]},"properties":{"id":"way/146447771","name":"Unnamed site","fuel":"solar","source":"solar","method":"photovoltaic"}},{"type":"Feature","geometry":{"type":"Point","coordinates":[18.33437,39.85479]},"properties":{"id":"way/146450868","name":"Unnamed site","fuel":"solar","source":"solar","method":"photovoltaic"}},{"type":"Feature","geometry":{"type":"Point","coordinates":[18.19073,40.17678]},"properties":{"id":"way/146451610","name":"Unnamed site","fuel":"solar","source":"solar","method":"photovoltaic"}},{"type":"Feature","geometry":{"type":"Point","coordinates":[18.18997,40.17815]},"properties":{"id":"way/146451612","name":"Unnamed site","fuel":"solar","source":"solar","method":"photovoltaic"}},{"type":"Feature","geometry":{"type":"Point","coordinates":[17.64009,40.44391]},"properties":{"id":"way/146595921","name":"Unnamed site","fuel":"solar","source":"solar","method":"photovoltaic"}},{"type":"Feature","geometry":{"type":"Point","coordinates":[17.59955,40.47269]},"properties":{"id":"way/146595923","name":"Unnamed site","fuel":"solar","source":"solar","method":"photovoltaic"}},{"type":"Feature","geometry":{"type":"Point","coordinates":[17.62149,40.46805]},"properties":{"id":"way/146595924","name":"Unnamed site","fuel":"solar","source":"solar","method":"photovoltaic"}},{"type":"Feature","geometry":{"type":"Point","coordinates":[17.62293,40.47794]},"properties":{"id":"way/146596804","name":"Unnamed site","fuel":"solar","source":"solar","method":"photovoltaic"}},{"type":"Feature","geometry":{"type":"Point","coordinates":[17.80171,40.53767]},"properties":{"id":"way/146601741","name":"Unnamed site","fuel":"solar","source":"solar","method":"photovoltaic"}},{"type":"Feature","geometry":{"type":"Point","coordinates":[17.79483,40.54039]},"properties":{"id":"way/146601748","name":"Unnamed site","fuel":"solar","source":"solar","method":"photovoltaic"}},{"type":"Feature","geometry":{"type":"Point","coordinates":[17.7921,40.54196]},"properties":{"id":"way/146601754","name":"Unnamed site","fuel":"solar","source":"solar","method":"photovoltaic"}},{"type":"Feature","geometry":{"type":"Point","coordinates":[17.83606,40.55179]},"properties":{"id":"way/146602192","name":"Unnamed site","fuel":"solar","source":"solar","method":"photovoltaic"}},{"type":"Feature","geometry":{"type":"Point","coordinates":[17.82604,40.56603]},"properties":{"id":"way/146602287","name":"Unnamed site","fuel":"solar","source":"solar","method":"photovoltaic"}},{"type":"Feature","geometry":{"type":"Point","coordinates":[17.83206,40.5599]},"properties":{"id":"way/146602288","name":"Unnamed site","fuel":"solar","source":"solar","method":"photovoltaic"}},{"type":"Feature","geometry":{"type":"Point","coordinates":[17.82925,40.56792]},"properties":{"id":"way/146602289","name":"Unnamed site","fuel":"solar","source":"solar","method":"photovoltaic"}},{"type":"Feature","geometry":{"type":"Point","coordinates":[17.85315,40.54342]},"properties":{"id":"way/146602295","name":"Unnamed site","fuel":"solar","source":"solar","method":"photovoltaic"}},{"type":"Feature","geometry":{"type":"Point","coordinates":[17.86296,40.55884]},"properties":{"id":"way/146602348","name":"Unnamed site","fuel":"solar","source":"solar","method":"photovoltaic"}},{"type":"Feature","geometry":{"type":"Point","coordinates":[17.86864,40.58784]},"properties":{"id":"way/146602383","name":"Unnamed site","fuel":"solar","source":"solar","method":"photovoltaic"}},{"type":"Feature","geometry":{"type":"Point","coordinates":[17.8654,40.57926]},"properties":{"id":"way/146602384","name":"Unnamed site","fuel":"solar","source":"solar","method":"photovoltaic"}},{"type":"Feature","geometry":{"type":"Point","coordinates":[17.87036,40.58396]},"properties":{"id":"way/146602386","name":"Unnamed site","fuel":"solar","source":"solar","method":"photovoltaic"}},{"type":"Feature","geometry":{"type":"Point","coordinates":[17.87325,40.58234]},"properties":{"id":"way/146602423","name":"Unnamed site","fuel":"solar","source":"solar","method":"photovoltaic"}},{"type":"Feature","geometry":{"type":"Point","coordinates":[17.88408,40.58119]},"properties":{"id":"way/146602463","name":"Unnamed site","fuel":"solar","source":"solar","method":"photovoltaic"}},{"type":"Feature","geometry":{"type":"Point","coordinates":[17.89568,40.57616]},"properties":{"id":"way/146602473","name":"Unnamed site","fuel":"solar","source":"solar","method":"photovoltaic"}},{"type":"Feature","geometry":{"type":"Point","coordinates":[17.89775,40.57679]},"properties":{"id":"way/146602474","name":"Unnamed site","fuel":"solar","source":"solar","method":"photovoltaic"}},{"type":"Feature","geometry":{"type":"Point","coordinates":[17.89808,40.57253]},"properties":{"id":"way/146602475","name":"Unnamed site","fuel":"solar","source":"solar","method":"photovoltaic"}},{"type":"Feature","geometry":{"type":"Point","coordinates":[17.90624,40.56563]},"properties":{"id":"way/146602505","name":"Unnamed site","fuel":"solar","source":"solar","method":"photovoltaic"}},{"type":"Feature","geometry":{"type":"Point","coordinates":[14.2291,41.00823]},"properties":{"id":"way/146652794","name":"Centrale Termoelettrica SET - Servizi Energetici Teverola","fuel":"gas","source":"gas","method":"combustion","capacityMW":400,"operator":"SET S.p.A., Gruppo Repower"}},{"type":"Feature","geometry":{"type":"Point","coordinates":[13.27617,41.51581]},"properties":{"id":"way/146734204","name":"Unnamed site","fuel":"solar","source":"solar","method":"photovoltaic"}},{"type":"Feature","geometry":{"type":"Point","coordinates":[16.55279,41.11458]},"properties":{"id":"way/146797661","name":"Unnamed site","fuel":"solar","source":"solar","method":"photovoltaic"}},{"type":"Feature","geometry":{"type":"Point","coordinates":[15.53263,41.50043]},"properties":{"id":"way/146800615","name":"Unnamed site","fuel":"solar","source":"solar","method":"photovoltaic"}},{"type":"Feature","geometry":{"type":"Point","coordinates":[15.54792,41.50282]},"properties":{"id":"way/146800639","name":"Unnamed site","fuel":"solar","source":"solar","method":"photovoltaic"}},{"type":"Feature","geometry":{"type":"Point","coordinates":[15.55243,41.49939]},"properties":{"id":"way/146800640","name":"Unnamed site","fuel":"solar","source":"solar","method":"photovoltaic"}},{"type":"Feature","geometry":{"type":"Point","coordinates":[15.30978,41.80139]},"properties":{"id":"way/147011711","name":"Unnamed site","fuel":"solar","source":"solar","method":"photovoltaic"}},{"type":"Feature","geometry":{"type":"Point","coordinates":[15.31196,41.81914]},"properties":{"id":"way/147011762","name":"Unnamed site","fuel":"solar","source":"solar","method":"photovoltaic"}},{"type":"Feature","geometry":{"type":"Point","coordinates":[15.30087,41.81204]},"properties":{"id":"way/147011763","name":"Unnamed site","fuel":"solar","source":"solar","method":"photovoltaic"}},{"type":"Feature","geometry":{"type":"Point","coordinates":[15.01404,41.92419]},"properties":{"id":"way/147012437","name":"Unnamed site","fuel":"solar","source":"solar","method":"photovoltaic"}},{"type":"Feature","geometry":{"type":"Point","coordinates":[15.17246,41.8255]},"properties":{"id":"way/147013442","name":"Unnamed site","fuel":"solar","source":"solar","method":"photovoltaic"}},{"type":"Feature","geometry":{"type":"Point","coordinates":[15.17849,41.8344]},"properties":{"id":"way/147013471","name":"Unnamed site","fuel":"solar","source":"solar","method":"photovoltaic"}},{"type":"Feature","geometry":{"type":"Point","coordinates":[15.20086,41.79159]},"properties":{"id":"way/147014964","name":"Unnamed site","fuel":"solar","source":"solar","method":"photovoltaic"}},{"type":"Feature","geometry":{"type":"Point","coordinates":[15.34563,41.7088]},"properties":{"id":"way/147015598","name":"Unnamed site","fuel":"solar","source":"solar","method":"photovoltaic"}},{"type":"Feature","geometry":{"type":"Point","coordinates":[14.85426,41.69428]},"properties":{"id":"way/147292341","name":"Unnamed site","fuel":"solar","source":"solar","method":"photovoltaic"}},{"type":"Feature","geometry":{"type":"Point","coordinates":[8.12727,45.9831]},"properties":{"id":"way/147450067","name":"Unnamed site","fuel":"hydro","source":"hydro"}},{"type":"Feature","geometry":{"type":"Point","coordinates":[12.35147,45.97003]},"properties":{"id":"way/147541946","name":"Unnamed site","fuel":"hydro","source":"hydro"}},{"type":"Feature","geometry":{"type":"Point","coordinates":[12.30156,46.02845]},"properties":{"id":"way/148425189","name":"Centrale Elettrica San Floriano Vecchia","fuel":"hydro","source":"hydro","method":"water-storage","capacityMW":4,"start":"1923"}},{"type":"Feature","geometry":{"type":"Point","coordinates":[12.93285,45.97355]},"properties":{"id":"way/148470403","name":"Parco Fotovoltaico Pannellia 1","fuel":"solar","source":"solar","method":"photovoltaic"}},{"type":"Feature","geometry":{"type":"Point","coordinates":[13.56861,43.2652]},"properties":{"id":"way/148934689","name":"Unnamed site","fuel":"solar","source":"solar"}},{"type":"Feature","geometry":{"type":"Point","coordinates":[13.61421,43.2799]},"properties":{"id":"way/148934694","name":"Unnamed site","fuel":"solar","source":"solar","method":"photovoltaic"}},{"type":"Feature","geometry":{"type":"Point","coordinates":[11.06807,44.61397]},"properties":{"id":"way/149168635","name":"Unnamed site","fuel":"solar","source":"solar","method":"photovoltaic"}},{"type":"Feature","geometry":{"type":"Point","coordinates":[11.06942,44.61463]},"properties":{"id":"way/149169602","name":"Unnamed site","fuel":"solar","source":"solar","method":"photovoltaic","capacityMW":2}},{"type":"Feature","geometry":{"type":"Point","coordinates":[11.87823,46.04684]},"properties":{"id":"way/149499872","name":"Unnamed site","fuel":"hydro","source":"hydro"}},{"type":"Feature","geometry":{"type":"Point","coordinates":[11.87808,46.04666]},"properties":{"id":"way/149499948","name":"Unnamed site","fuel":"hydro","source":"hydro"}},{"type":"Feature","geometry":{"type":"Point","coordinates":[11.87823,46.04667]},"properties":{"id":"way/149500759","name":"Centrale di Colmeda","fuel":"hydro","source":"hydro","capacityMW":0.962,"start":"1929"}},{"type":"Feature","geometry":{"type":"Point","coordinates":[16.80929,40.3458]},"properties":{"id":"way/149587191","name":"Unnamed site","fuel":"solar","source":"solar","method":"photovoltaic"}},{"type":"Feature","geometry":{"type":"Point","coordinates":[9.65337,45.88217]},"properties":{"id":"way/149943107","name":"Centrale di San Giovanni Bianco","fuel":"hydro","source":"hydro"}},{"type":"Feature","geometry":{"type":"Point","coordinates":[16.94822,40.97572]},"properties":{"id":"way/150499436","name":"Unnamed site","fuel":"solar","source":"solar","method":"photovoltaic"}},{"type":"Feature","geometry":{"type":"Point","coordinates":[16.94403,40.97307]},"properties":{"id":"way/150499469","name":"Unnamed site","fuel":"solar","source":"solar","method":"photovoltaic"}},{"type":"Feature","geometry":{"type":"Point","coordinates":[13.4995,41.52362]},"properties":{"id":"way/151380491","name":"Unnamed site","fuel":"solar","source":"solar","method":"photovoltaic"}},{"type":"Feature","geometry":{"type":"Point","coordinates":[10.75559,45.35635]},"properties":{"id":"way/151547166","name":"Unnamed site","fuel":"solar","source":"solar","method":"photovoltaic"}},{"type":"Feature","geometry":{"type":"Point","coordinates":[8.07344,46.04819]},"properties":{"id":"way/152078436","name":"Centrale idroelettrica di Campliccioli","fuel":"hydro","source":"hydro","method":"run-of-the-river","operator":"Enel Green Power"}},{"type":"Feature","geometry":{"type":"Point","coordinates":[7.77647,45.16035]},"properties":{"id":"way/152186140","name":"Unnamed site","fuel":"solar","source":"solar","method":"photovoltaic"}},{"type":"Feature","geometry":{"type":"Point","coordinates":[11.21023,44.49926]},"properties":{"id":"way/152510202","name":"Unnamed site","fuel":"other"}},{"type":"Feature","geometry":{"type":"Point","coordinates":[15.62068,41.85306]},"properties":{"id":"way/152604918","name":"Unnamed site","fuel":"solar","source":"solar","method":"photovoltaic"}},{"type":"Feature","geometry":{"type":"Point","coordinates":[12.60802,44.03231]},"properties":{"id":"way/152975900","name":"Unnamed site","fuel":"solar","source":"solar","method":"photovoltaic","capacityMW":1.8}},{"type":"Feature","geometry":{"type":"Point","coordinates":[8.66487,39.75852]},"properties":{"id":"way/153176571","name":"Unnamed site","fuel":"solar","source":"solar","method":"photovoltaic"}},{"type":"Feature","geometry":{"type":"Point","coordinates":[11.67293,46.40089]},"properties":{"id":"way/153428834","name":"Consorzio Elettrico Pozza di Fassa","fuel":"hydro","source":"hydro","method":"run-of-the-river","capacityMW":4,"operator":"CEP"}},{"type":"Feature","geometry":{"type":"Point","coordinates":[8.67103,39.73915]},"properties":{"id":"way/153503314","name":"Unnamed site","fuel":"solar","source":"solar","method":"photovoltaic"}},{"type":"Feature","geometry":{"type":"Point","coordinates":[8.67094,39.74007]},"properties":{"id":"way/153503335","name":"Unnamed site","fuel":"solar","source":"solar","method":"photovoltaic"}},{"type":"Feature","geometry":{"type":"Point","coordinates":[11.37463,46.62093]},"properties":{"id":"way/153786721","name":"Sarentino","fuel":"hydro","source":"hydro","operator":"SE Hydropower"}},{"type":"Feature","geometry":{"type":"Point","coordinates":[11.46706,44.64998]},"properties":{"id":"way/153987459","name":"Bentivoglio Energy","fuel":"solar","source":"solar","method":"photovoltaic"}},{"type":"Feature","geometry":{"type":"Point","coordinates":[11.67523,44.37574]},"properties":{"id":"way/153989124","name":"Unnamed site","fuel":"solar","source":"solar","method":"photovoltaic"}},{"type":"Feature","geometry":{"type":"Point","coordinates":[12.33131,46.06898]},"properties":{"id":"way/154060910","name":"Unnamed site","fuel":"hydro","source":"hydro","method":"water-storage"}},{"type":"Feature","geometry":{"type":"Point","coordinates":[6.86982,45.06232]},"properties":{"id":"way/154698135","name":"Unnamed site","fuel":"solar","source":"solar","method":"photovoltaic"}},{"type":"Feature","geometry":{"type":"Point","coordinates":[12.25236,45.70174]},"properties":{"id":"way/154947826","name":"Unnamed site","fuel":"hydro","source":"hydro"}},{"type":"Feature","geometry":{"type":"Point","coordinates":[10.54648,43.64426]},"properties":{"id":"way/155602752","name":"Unnamed site","fuel":"solar","source":"solar","method":"photovoltaic"}},{"type":"Feature","geometry":{"type":"Point","coordinates":[13.12016,43.18357]},"properties":{"id":"way/155720107","name":"Unnamed site","fuel":"solar","source":"solar"}},{"type":"Feature","geometry":{"type":"Point","coordinates":[13.11855,43.18279]},"properties":{"id":"way/155720108","name":"Unnamed site","fuel":"solar","source":"solar"}},{"type":"Feature","geometry":{"type":"Point","coordinates":[11.75455,44.34589]},"properties":{"id":"way/156702170","name":"Unnamed site","fuel":"solar","source":"solar","method":"photovoltaic"}},{"type":"Feature","geometry":{"type":"Point","coordinates":[11.7565,44.34638]},"properties":{"id":"way/156702171","name":"Unnamed site","fuel":"solar","source":"solar","method":"photovoltaic"}},{"type":"Feature","geometry":{"type":"Point","coordinates":[11.76258,44.34935]},"properties":{"id":"way/156708272","name":"Unnamed site","fuel":"solar","source":"solar","method":"photovoltaic"}},{"type":"Feature","geometry":{"type":"Point","coordinates":[11.73899,44.3662]},"properties":{"id":"way/157254858","name":"Unnamed site","fuel":"solar","source":"solar","method":"photovoltaic"}},{"type":"Feature","geometry":{"type":"Point","coordinates":[12.64658,42.97786]},"properties":{"id":"way/157571778","name":"Unnamed site","fuel":"solar","source":"solar","method":"photovoltaic"}},{"type":"Feature","geometry":{"type":"Point","coordinates":[12.55899,42.89742]},"properties":{"id":"way/157572706","name":"Unnamed site","fuel":"solar","source":"solar","method":"photovoltaic"}},{"type":"Feature","geometry":{"type":"Point","coordinates":[12.53914,42.89665]},"properties":{"id":"way/157572878","name":"Ex Centrale Termoelettrica ENEL \"Pietro Vannucci\"","fuel":"coal","source":"coal","method":"combustion","capacityMW":150,"operator":"Enel"}},{"type":"Feature","geometry":{"type":"Point","coordinates":[12.70888,42.8366]},"properties":{"id":"way/157574761","name":"Unnamed site","fuel":"solar","source":"solar","method":"photovoltaic"}},{"type":"Feature","geometry":{"type":"Point","coordinates":[12.72803,42.83805]},"properties":{"id":"way/157575222","name":"Unnamed site","fuel":"solar","source":"solar","method":"photovoltaic"}},{"type":"Feature","geometry":{"type":"Point","coordinates":[13.37103,43.27099]},"properties":{"id":"way/157598787","name":"Unnamed site","fuel":"solar","source":"solar"}},{"type":"Feature","geometry":{"type":"Point","coordinates":[14.0985,42.36132]},"properties":{"id":"way/157708512","name":"Unnamed site","fuel":"solar","source":"solar","method":"photovoltaic"}},{"type":"Feature","geometry":{"type":"Point","coordinates":[14.00134,42.63715]},"properties":{"id":"way/158327500","name":"Unnamed site","fuel":"solar","source":"solar","method":"photovoltaic"}},{"type":"Feature","geometry":{"type":"Point","coordinates":[14.01409,42.65232]},"properties":{"id":"way/158328092","name":"Unnamed site","fuel":"solar","source":"solar","method":"photovoltaic"}},{"type":"Feature","geometry":{"type":"Point","coordinates":[14.01786,42.60386]},"properties":{"id":"way/158330273","name":"Unnamed site","fuel":"solar","source":"solar","method":"photovoltaic"}},{"type":"Feature","geometry":{"type":"Point","coordinates":[13.45679,43.23028]},"properties":{"id":"way/158743151","name":"Unnamed site","fuel":"solar","source":"solar","method":"photovoltaic"}},{"type":"Feature","geometry":{"type":"Point","coordinates":[13.4856,43.23379]},"properties":{"id":"way/158743319","name":"Unnamed site","fuel":"solar","source":"solar","method":"photovoltaic"}},{"type":"Feature","geometry":{"type":"Point","coordinates":[13.48006,43.23757]},"properties":{"id":"way/158743322","name":"Unnamed site","fuel":"solar","source":"solar","method":"photovoltaic"}},{"type":"Feature","geometry":{"type":"Point","coordinates":[13.52889,43.23589]},"properties":{"id":"way/158743800","name":"Unnamed site","fuel":"solar","source":"solar","method":"photovoltaic"}},{"type":"Feature","geometry":{"type":"Point","coordinates":[13.67431,43.04581]},"properties":{"id":"way/158757497","name":"Unnamed site","fuel":"solar","source":"solar","method":"photovoltaic"}},{"type":"Feature","geometry":{"type":"Point","coordinates":[13.74009,43.13404]},"properties":{"id":"way/158758189","name":"Unnamed site","fuel":"solar","source":"solar"}},{"type":"Feature","geometry":{"type":"Point","coordinates":[13.79099,43.09107]},"properties":{"id":"way/158898374","name":"Unnamed site","fuel":"solar","source":"solar","method":"photovoltaic"}},{"type":"Feature","geometry":{"type":"Point","coordinates":[13.26476,43.11966]},