{"type":"FeatureCollection","features":[{"type":"Feature","geometry":{"type":"Point","coordinates":[7.7725,47.64744]},"properties":{"id":"node/6481111957","name":"Wasserkraftwerk Maulburg II","fuel":"hydro","source":"hydro","method":"run-of-the-river","capacityMW":0.19,"operator":"Energiedienst","start":"2019-05-17"}},{"type":"Feature","geometry":{"type":"Point","coordinates":[7.73866,52.28653]},"properties":{"id":"node/8357826373","name":"Energieversorgungsanlage Von-Oeynhausen","fuel":"gas","source":"abandoned_mine_methane;oil","capacityMW":33}},{"type":"Feature","geometry":{"type":"Point","coordinates":[13.26859,52.51867]},"properties":{"id":"node/8399137101","name":"Unnamed site","fuel":"solar","source":"solar","method":"photovoltaic"}},{"type":"Feature","geometry":{"type":"Point","coordinates":[10.98486,50.79831]},"properties":{"id":"node/8406295666","name":"Bioenergie Dannheim","fuel":"bioenergy","source":"biomass","method":"anaerobic_digestion","operator":"Bioenergie Dannheim GmbH"}},{"type":"Feature","geometry":{"type":"Point","coordinates":[8.83047,49.59805]},"properties":{"id":"node/8683280575","name":"Unnamed site","fuel":"gas","source":"gas","method":"combustion"}},{"type":"Feature","geometry":{"type":"Point","coordinates":[10.35422,53.45221]},"properties":{"id":"node/9249072104","name":"Heizkraftwerk Besenhorst","fuel":"gas","source":"gas","operator":"Stadtwerke Geesthacht"}},{"type":"Feature","geometry":{"type":"Point","coordinates":[8.18317,47.80018]},"properties":{"id":"node/10235706898","name":"Wasserkraftwerk - Schaukraftwerk","fuel":"hydro","source":"hydro","method":"run-of-the-river","capacityMW":0.06}},{"type":"Feature","geometry":{"type":"Point","coordinates":[11.03594,47.44114]},"properties":{"id":"node/11107451860","name":"Wasserkraftwerk Höllentalangerhütte","fuel":"other"}},{"type":"Feature","geometry":{"type":"Point","coordinates":[9.18748,48.83542]},"properties":{"id":"node/11523712555","name":"Unnamed site","fuel":"solar","source":"solar","method":"photovoltaic"}},{"type":"Feature","geometry":{"type":"Point","coordinates":[9.52676,50.34827]},"properties":{"id":"node/12069468323","name":"Unnamed site","fuel":"other"}},{"type":"Feature","geometry":{"type":"Point","coordinates":[10.52451,49.12916]},"properties":{"id":"node/12769081017","name":"Unnamed site","fuel":"solar","source":"solar","method":"photovoltaic"}},{"type":"Feature","geometry":{"type":"Point","coordinates":[9.14222,48.99729]},"properties":{"id":"node/13165135343","name":"Mühlrad","fuel":"other"}},{"type":"Feature","geometry":{"type":"Point","coordinates":[11.97945,51.35635]},"properties":{"id":"node/13420672702","name":"Unnamed site","fuel":"gas","source":"gas"}},{"type":"Feature","geometry":{"type":"Point","coordinates":[13.38208,48.73523]},"properties":{"id":"node/13429339724","name":"Unnamed site","fuel":"storage","source":"battery","start":"2025"}},{"type":"Feature","geometry":{"type":"Point","coordinates":[12.98746,51.35075]},"properties":{"id":"node/13543935473","name":"Unnamed site","fuel":"solar","source":"solar"}},{"type":"Feature","geometry":{"type":"Point","coordinates":[9.69162,52.67479]},"properties":{"id":"node/13743625944","name":"Unnamed site","fuel":"solar","source":"solar","method":"photovoltaic"}},{"type":"Feature","geometry":{"type":"Point","coordinates":[11.11583,49.12829]},"properties":{"id":"node/13914149663","name":"Unnamed site","fuel":"bioenergy","source":"biomass"}},{"type":"Feature","geometry":{"type":"Point","coordinates":[11.80208,48.45494]},"properties":{"id":"way/4345043","name":"Kraftwerk Zolling","fuel":"coal","source":"coal;biomass;waste;oil","method":"combustion","capacityMW":542,"operator":"Onyx Power Kraftwerk Zolling GmbH","start":"1958-10-04"}},{"type":"Feature","geometry":{"type":"Point","coordinates":[7.61693,51.63649]},"properties":{"id":"way/4670340","name":"Kraftwerk Bergkamen","fuel":"coal","source":"coal","method":"combustion","capacityMW":717,"operator":"RWE;evonik","start":"1981"}},{"type":"Feature","geometry":{"type":"Point","coordinates":[13.34731,52.53757]},"properties":{"id":"way/4677631","name":"Heizkraftwerk Moabit","fuel":"coal","source":"coal","method":"combustion","capacityMW":140,"operator":"Berliner Energie und Wärme"}},{"type":"Feature","geometry":{"type":"Point","coordinates":[13.3103,52.52249]},"properties":{"id":"way/4763495","name":"Heizkraftwerk Charlottenburg","fuel":"gas","source":"gas","method":"combustion","capacityMW":211,"operator":"Berliner Energie und Wärme"}},{"type":"Feature","geometry":{"type":"Point","coordinates":[8.64977,52.19431]},"properties":{"id":"way/4967984","name":"Gasturbinenkraftwerk Kirchlengern","fuel":"gas","source":"gas","method":"combustion","capacityMW":184.5,"operator":"EON WestfalenWeser"}},{"type":"Feature","geometry":{"type":"Point","coordinates":[8.63939,50.02453]},"properties":{"id":"way/5097254","name":"Solarpark Dreieich-Buchschlag","fuel":"solar","source":"solar","method":"photovoltaic","capacityMW":8.2,"operator":"Rhein-Main-Solarpark GmbH","start":"2011-12-01"}},{"type":"Feature","geometry":{"type":"Point","coordinates":[7.12021,50.70997]},"properties":{"id":"relation/8244639","name":"Heizkraftwerk Süd","fuel":"other","operator":"Stadtwerke Bonn – Energie und Wasser"}},{"type":"Feature","geometry":{"type":"Point","coordinates":[11.48814,52.25407]},"properties":{"id":"way/8055997","name":"Biogasanalge Vahldorf","fuel":"bioenergy","source":"biomass","method":"anaerobic_digestion","operator":"Agrarenergie Vahldorf GmbH"}},{"type":"Feature","geometry":{"type":"Point","coordinates":[9.68051,52.39852]},"properties":{"id":"way/8879842","name":"Heizkraftwerk Herrenhausen","fuel":"gas","source":"gas","method":"combustion","capacityMW":100}},{"type":"Feature","geometry":{"type":"Point","coordinates":[9.7265,53.56758]},"properties":{"id":"way/9725292","name":"Heizkraftwerk Wedel","fuel":"coal","source":"coal","method":"combustion","capacityMW":260,"operator":"Wärme Hamburg"}},{"type":"Feature","geometry":{"type":"Point","coordinates":[13.71039,51.04302]},"properties":{"id":"way/10212613","name":"Heizkraftwerk Nossener Brücke","fuel":"gas","source":"gas","method":"combustion","capacityMW":270,"operator":"SachsenEnergie","start":"1995"}},{"type":"Feature","geometry":{"type":"Point","coordinates":[11.63934,48.18102]},"properties":{"id":"way/10445112","name":"Heizkraftwerk Nord","fuel":"coal","source":"coal;waste","method":"combustion","capacityMW":373,"operator":"Stadtwerke München"}},{"type":"Feature","geometry":{"type":"Point","coordinates":[8.47301,47.57507]},"properties":{"id":"way/11338158","name":"Kraftwerk Eglisau-Glattfelden","fuel":"hydro","source":"hydro","capacityMW":43.4,"operator":"KW Eglisau-Glattfelden AG","start":"1920"}},{"type":"Feature","geometry":{"type":"Point","coordinates":[14.45989,51.83542]},"properties":{"id":"way/11341038","name":"Kraftwerk Jänschwalde","fuel":"coal","source":"coal","method":"combustion","capacityMW":3000,"operator":"LEAG - Lausitz Energie Kraftwerke AG"}},{"type":"Feature","geometry":{"type":"Point","coordinates":[6.32104,50.83649]},"properties":{"id":"way/11346170","name":"Kraftwerk Weisweiler","fuel":"coal","source":"coal;gas","method":"combustion","capacityMW":2361,"operator":"RWE"}},{"type":"Feature","geometry":{"type":"Point","coordinates":[11.33474,48.21422]},"properties":{"id":"way/15806581","name":"Wasserkraftwerk Olching II","fuel":"hydro","source":"hydro","method":"run-of-the-river","operator":"Amper-Kraftwerke-Olching"}},{"type":"Feature","geometry":{"type":"Point","coordinates":[7.00626,51.59929]},"properties":{"id":"way/22943608","name":"Kraftwerk Scholven","fuel":"coal","source":"coal","method":"combustion","capacityMW":690,"operator":"Uniper Kraftwerke"}},{"type":"Feature","geometry":{"type":"Point","coordinates":[13.55891,52.58912]},"properties":{"id":"way/22981090","name":"Gasturbinenkraftwerk Ahrensfelde","fuel":"gas","source":"gas","method":"combustion","capacityMW":152,"operator":"Lausitz Energie Kraftwerke AG","start":"1990"}},{"type":"Feature","geometry":{"type":"Point","coordinates":[6.90648,51.08605]},"properties":{"id":"way/23017893","name":"Unnamed site","fuel":"gas","source":"gas","method":"combustion","operator":"Innogy SE"}},{"type":"Feature","geometry":{"type":"Point","coordinates":[11.59387,48.1384]},"properties":{"id":"way/23039984","name":"Maximilianswerk","fuel":"hydro","source":"hydro","method":"run-of-the-river","capacityMW":0.41,"operator":"Stadtwerke München","start":"1895"}},{"type":"Feature","geometry":{"type":"Point","coordinates":[10.19577,51.38733]},"properties":{"id":"relation/18558668","name":"Biogasanlage","fuel":"bioenergy","source":"biomass","method":"anaerobic_digestion","capacityMW":0.5}},{"type":"Feature","geometry":{"type":"Point","coordinates":[14.36996,51.76049]},"properties":{"id":"way/23160849","name":"Unnamed site","fuel":"gas","source":"gas","method":"combustion"}},{"type":"Feature","geometry":{"type":"Point","coordinates":[11.0091,49.42023]},"properties":{"id":"way/23415653","name":"Kraftwerk Franken I","fuel":"gas","source":"gas;oil","method":"combustion","capacityMW":823,"operator":"E.ON Kraftwerke"}},{"type":"Feature","geometry":{"type":"Point","coordinates":[10.09081,52.31414]},"properties":{"id":"way/23681460","name":"Gemeinschaftskraftwerk Mehrum","fuel":"coal","source":"coal","method":"combustion","operator":"Kraftwerk Mehrum GmbH"}},{"type":"Feature","geometry":{"type":"Point","coordinates":[13.22027,52.56117]},"properties":{"id":"way/23741686","name":"Unnamed site","fuel":"other"}},{"type":"Feature","geometry":{"type":"Point","coordinates":[8.63646,50.1615]},"properties":{"id":"way/23926625","name":"Müllheizkraftwerk Frankfurt","fuel":"waste","source":"waste","method":"combustion","capacityMW":47,"operator":"MHKW Müllheizkraftwerk Frankfurt am Main GmbH"}},{"type":"Feature","geometry":{"type":"Point","coordinates":[11.65769,48.26048]},"properties":{"id":"way/24013692","name":"TUM Heizkraftwerk","fuel":"oil","source":"oil","method":"combustion"}},{"type":"Feature","geometry":{"type":"Point","coordinates":[8.52605,49.26186]},"properties":{"id":"way/24243476","name":"Solartestpark Bruhrain","fuel":"solar","source":"solar","method":"photovoltaic","capacityMW":2.258,"operator":"Wircon GmbH","start":"2007"}},{"type":"Feature","geometry":{"type":"Point","coordinates":[11.67921,52.18551]},"properties":{"id":"way/24556804","name":"Müllheizkraftwerk Rothensee","fuel":"waste","source":"waste","method":"combustion","capacityMW":58.4,"operator":"Müllheizkraftwerk Rothensee GmbH"}},{"type":"Feature","geometry":{"type":"Point","coordinates":[6.88035,49.24894]},"properties":{"id":"way/24599434","name":"Kraftwerk Fenne","fuel":"coal","source":"coal;abandoned_mine_methane","method":"combustion","capacityMW":432,"operator":"Evonik New Energies GmbH"}},{"type":"Feature","geometry":{"type":"Point","coordinates":[9.18238,49.77877]},"properties":{"id":"way/24673823","name":"Wasserkraftwerk Klingenberg","fuel":"hydro","source":"hydro","method":"run-of-the-river","capacityMW":3.04,"operator":"Uniper Kraftwerke"}},{"type":"Feature","geometry":{"type":"Point","coordinates":[11.50307,48.76282]},"properties":{"id":"way/24768052","name":"Kraftwerk Ingolstadt","fuel":"oil","source":"oil","method":"combustion","capacityMW":840,"operator":"E.ON"}},{"type":"Feature","geometry":{"type":"Point","coordinates":[6.66938,50.99285]},"properties":{"id":"way/24840439","name":"Kraftwerk Niederaußem","fuel":"coal","source":"coal","method":"combustion","capacityMW":3133,"operator":"RWE Power AG"}},{"type":"Feature","geometry":{"type":"Point","coordinates":[9.4325,54.80428]},"properties":{"id":"way/24842149","name":"Kraftwerk Flensburg","fuel":"gas","source":"gas;coal;biomass;oil","method":"combustion","capacityMW":173,"operator":"Stadtwerke Flensburg"}},{"type":"Feature","geometry":{"type":"Point","coordinates":[6.73184,51.22224]},"properties":{"id":"way/24849905","name":"Kraftwerk Lausward","fuel":"gas","source":"gas","method":"combustion","capacityMW":825,"operator":"Stadtwerke Düsseldorf","start":"1957"}},{"type":"Feature","geometry":{"type":"Point","coordinates":[13.58261,50.97091]},"properties":{"id":"way/24861145","name":"Wasserkraftwerk Tharandt","fuel":"hydro","source":"hydro","method":"run-of-the-river","operator":"SachsenEnergie"}},{"type":"Feature","geometry":{"type":"Point","coordinates":[10.89753,48.69246]},"properties":{"id":"way/24900433","name":"Lechstaustufe Rain","fuel":"hydro","source":"hydro","method":"run-of-the-river","capacityMW":10.9,"operator":"LEW Wasserkraft"}},{"type":"Feature","geometry":{"type":"Point","coordinates":[10.06629,53.52713]},"properties":{"id":"way/24953276","name":"Kraftwerk Tiefstack","fuel":"coal","source":"coal;gas;fuel","method":"combustion","capacityMW":321,"operator":"Wärme Hamburg GmbH","start":"1917"}},{"type":"Feature","geometry":{"type":"Point","coordinates":[6.9358,51.3604]},"properties":{"id":"way/25032143","name":"Wasserkraftwerk Kettwig","fuel":"hydro","source":"hydro","method":"run-of-the-river","capacityMW":5.3,"operator":"RWE Innogy"}},{"type":"Feature","geometry":{"type":"Point","coordinates":[13.49833,52.49002]},"properties":{"id":"way/25056842","name":"Heizkraftwerk Klingenberg","fuel":"gas","source":"gas","method":"combustion","capacityMW":164}},{"type":"Feature","geometry":{"type":"Point","coordinates":[10.78707,52.43219]},"properties":{"id":"way/25297726","name":"Heizkraftwerk Wolfsburg Nord/Süd","fuel":"coal","source":"coal;gas;oil","method":"combustion","capacityMW":123,"operator":"Volkswagen Kraftwerk GmbH","start":"1938"}},{"type":"Feature","geometry":{"type":"Point","coordinates":[8.67207,49.42181]},"properties":{"id":"way/25317632","name":"Heizkraftwerk Heidelberg","fuel":"gas","source":"gas","method":"combustion","capacityMW":13.5,"operator":"E.ON"}},{"type":"Feature","geometry":{"type":"Point","coordinates":[6.96296,51.01765]},"properties":{"id":"way/25369355","name":"Heizkraftwerk Köln-Merkenich","fuel":"gas","source":"gas;coal","method":"combustion","capacityMW":198,"operator":"RheinEnergie"}},{"type":"Feature","geometry":{"type":"Point","coordinates":[7.18732,51.55025]},"properties":{"id":"way/25649285","name":"Heizkraftwerk Herne","fuel":"coal","source":"coal","method":"combustion","capacityMW":435,"operator":"STEAG GmbH","start":"1989-07-25"}},{"type":"Feature","geometry":{"type":"Point","coordinates":[12.65393,51.3316]},"properties":{"id":"way/25692975","name":"Solaranlage Waldpolenz","fuel":"solar","source":"solar","method":"photovoltaic","capacityMW":52,"operator":"SachsenFonds Solar I GmbH & Co. KG, S+S Solarfonds Brandis GmbH & Co. KG","start":"22.01.2008"}},{"type":"Feature","geometry":{"type":"Point","coordinates":[11.09348,49.57884]},"properties":{"id":"way/25751876","name":"Solarpark Uttenreuth","fuel":"solar","source":"solar","method":"photovoltaic","capacityMW":7.2,"operator":"Naturstrom AG"}},{"type":"Feature","geometry":{"type":"Point","coordinates":[10.68621,48.14107]},"properties":{"id":"way/25842179","name":"Kraftwerk Siebnach","fuel":"hydro","source":"hydro","method":"run-of-the-river","capacityMW":2.06}},{"type":"Feature","geometry":{"type":"Point","coordinates":[9.62504,52.31645]},"properties":{"id":"way/25856552","name":"Biogas Anlage Ronnenberg","fuel":"bioenergy","source":"biomass","method":"anaerobic_digestion"}},{"type":"Feature","geometry":{"type":"Point","coordinates":[9.3722,48.71863]},"properties":{"id":"way/25973419","name":"Heizkraftwerk Altbach/Deizisau","fuel":"coal","source":"coal;gas","method":"combustion","capacityMW":1022,"operator":"EnBW Energie Baden-Württemberg AG"}},{"type":"Feature","geometry":{"type":"Point","coordinates":[10.11178,54.30721]},"properties":{"id":"way/26130020","name":"Müllheizkraftwerk Kiel","fuel":"waste","source":"waste","method":"combustion","capacityMW":5.8,"operator":"Müllverbrennung Kiel GmbH & Co. KG"}},{"type":"Feature","geometry":{"type":"Point","coordinates":[10.24814,54.28803]},"properties":{"id":"way/26171182","name":"Wasserkraftwerk Raisdorf 2","fuel":"hydro","source":"hydro","capacityMW":0.75,"operator":"Stadtwerke Kiel","start":"1909"}},{"type":"Feature","geometry":{"type":"Point","coordinates":[10.23758,54.29277]},"properties":{"id":"way/26171348","name":"Wasserkraftwerk Raisdorf 1","fuel":"hydro","source":"hydro","capacityMW":1.2,"operator":"Stadtwerke Kiel","start":"1903"}},{"type":"Feature","geometry":{"type":"Point","coordinates":[7.62628,47.55989]},"properties":{"id":"way/26348079","name":"Kraftwerk Birsfelden","fuel":"hydro","source":"hydro","method":"run-of-the-river","capacityMW":100}},{"type":"Feature","geometry":{"type":"Point","coordinates":[10.73758,48.46512]},"properties":{"id":"way/94811878","name":"Solarpark Heretsried","fuel":"solar","source":"solar","method":"photovoltaic","capacityMW":2.554,"operator":"Sonnenfeld Weiherberg GmbH & Co KG, Heretsried","start":"2010-06-30"}},{"type":"Feature","geometry":{"type":"Point","coordinates":[12.1316,54.14185]},"properties":{"id":"way/26389159","name":"Kraftwerk Rostock","fuel":"coal","source":"coal","method":"combustion","capacityMW":514,"operator":"KNG Kraftwerks- und Netzgesellschaft mbH","start":"1994-10-01"}},{"type":"Feature","geometry":{"type":"Point","coordinates":[11.53419,48.31568]},"properties":{"id":"way/26534169","name":"Solarpark Haimhausen I","fuel":"solar","source":"solar","method":"photovoltaic","capacityMW":1.12,"operator":"Kommunalunternehmen Haimhausen;Amper Solar"}},{"type":"Feature","geometry":{"type":"Point","coordinates":[7.01129,51.42889]},"properties":{"id":"way/26551785","name":"Heizkraftwerk Essen-Rüttenscheid STEAG","fuel":"gas","source":"gas","method":"combustion","capacityMW":12.1}},{"type":"Feature","geometry":{"type":"Point","coordinates":[13.60998,51.09138]},"properties":{"id":"way/26601148","name":"Pumpspeicherwerk Niederwartha","fuel":"pumped","source":"hydro","method":"water-pumped-storage","capacityMW":39.8,"operator":"Vattenfall","start":"1930"}},{"type":"Feature","geometry":{"type":"Point","coordinates":[9.22065,48.8153]},"properties":{"id":"way/26724246","name":"Kraftwerk Stuttgart-Münster","fuel":"coal","source":"coal;oil;waste","method":"combustion","capacityMW":179.4,"operator":"EnBW Energie Baden-Württemberg AG"}},{"type":"Feature","geometry":{"type":"Point","coordinates":[10.82035,48.66454]},"properties":{"id":"way/33882158","name":"Heizkraftwerk","fuel":"bioenergy","source":"biomass","method":"combustion","capacityMW":2.6,"operator":"MVV Energiedienstleistungen GmbH"}},{"type":"Feature","geometry":{"type":"Point","coordinates":[12.18225,51.06236]},"properties":{"id":"relation/6554303","name":"Solarkraftwerk","fuel":"solar","source":"solar","method":"photovoltaic"}},{"type":"Feature","geometry":{"type":"Point","coordinates":[11.58551,50.89558]},"properties":{"id":"way/26998822","name":"Heizkraftwerk Jena-Süd","fuel":"gas","source":"gas;oil","method":"combustion","capacityMW":197,"operator":"TEAG Thüringer Energie","start":"1972"}},{"type":"Feature","geometry":{"type":"Point","coordinates":[10.41694,52.34193]},"properties":{"id":"way/27139435","name":"Dralle Biogas","fuel":"bioenergy","source":"biomass","method":"anaerobic_digestion","capacityMW":0.711,"start":"2005-07-01"}},{"type":"Feature","geometry":{"type":"Point","coordinates":[8.99605,52.38122]},"properties":{"id":"way/27190807","name":"Kraftwerk Heyden","fuel":"coal","source":"coal","method":"combustion","capacityMW":875,"operator":"Uniper Kraftwerke GmbH","start":"1951-05-07"}},{"type":"Feature","geometry":{"type":"Point","coordinates":[7.9565,47.55818]},"properties":{"id":"way/27201008","name":"Rheinkraftwerk Säckingen","fuel":"hydro","source":"hydro","method":"run-of-the-river","capacityMW":73.6}},{"type":"Feature","geometry":{"type":"Point","coordinates":[8.68386,50.16595]},"properties":{"id":"way/27269428","name":"Heizkraftwerk Oberer Ornberg (Drake Edwards Kaserne)","fuel":"gas","source":"gas","method":"combustion","operator":"Mainova AG"}},{"type":"Feature","geometry":{"type":"Point","coordinates":[11.52365,48.05365]},"properties":{"id":"way/27439136","name":"Laufwasserkraftwerk Pullach","fuel":"hydro","source":"hydro","method":"run-of-the-river","capacityMW":4.1,"operator":"Uniper Kraftwerke"}},{"type":"Feature","geometry":{"type":"Point","coordinates":[11.21952,51.81232]},"properties":{"id":"way/27451361","name":"Solarpark \"Ehemalige Radarstation“","fuel":"solar","source":"solar","method":"photovoltaic","capacityMW":6,"operator":"Multhaupt GbR","start":"2024-01"}},{"type":"Feature","geometry":{"type":"Point","coordinates":[9.86185,54.39551]},"properties":{"id":"way/27465834","name":"Unnamed site","fuel":"bioenergy","source":"biomass","capacityMW":0.717}},{"type":"Feature","geometry":{"type":"Point","coordinates":[13.4363,48.5536]},"properties":{"id":"way/27661875","name":"Kraftwerk Passau-Ingling","fuel":"hydro","source":"hydro","method":"run-of-the-river","capacityMW":86.4,"operator":"Grenzkraftwerke GmbH"}},{"type":"Feature","geometry":{"type":"Point","coordinates":[11.43299,49.15845]},"properties":{"id":"way/27750557","name":"Unnamed site","fuel":"solar","source":"solar","method":"photovoltaic"}},{"type":"Feature","geometry":{"type":"Point","coordinates":[11.43681,49.15984]},"properties":{"id":"way/27750593","name":"Unnamed site","fuel":"solar","source":"solar","method":"photovoltaic"}},{"type":"Feature","geometry":{"type":"Point","coordinates":[10.9135,50.12644]},"properties":{"id":"way/27758732","name":"Unnamed site","fuel":"solar","source":"solar","method":"photovoltaic"}},{"type":"Feature","geometry":{"type":"Point","coordinates":[9.11376,52.54718]},"properties":{"id":"way/27793890","name":"Kraftwerk Robert Frank","fuel":"bioenergy","source":"biomass;gas","method":"combustion","capacityMW":78,"operator":"Statkraft Germany"}},{"type":"Feature","geometry":{"type":"Point","coordinates":[8.65286,50.09874]},"properties":{"id":"way/27803434","name":"Heizkraftwerk West","fuel":"coal","source":"coal;gas","method":"combustion","capacityMW":270,"operator":"Mainova"}},{"type":"Feature","geometry":{"type":"Point","coordinates":[7.23698,49.36133]},"properties":{"id":"way/28051874","name":"Kraftwerk Bexbach","fuel":"coal","source":"coal","method":"combustion","capacityMW":726,"operator":"STEAG GmbH","start":"1983-01-01"}},{"type":"Feature","geometry":{"type":"Point","coordinates":[9.58131,50.0532]},"properties":{"id":"way/28156411","name":"Pumpspeicherkraftwerk Langenprozelten","fuel":"pumped","source":"hydro","method":"water-pumped-storage","capacityMW":164,"operator":"Donau-Wasserkraft"}},{"type":"Feature","geometry":{"type":"Point","coordinates":[10.04006,53.60399]},"properties":{"id":"way/28157488","name":"Heizwerk Barmbek","fuel":"gas","source":"gas;oil","method":"combustion","operator":"Vattenfall Wärme Hamburg","start":"1911"}},{"type":"Feature","geometry":{"type":"Point","coordinates":[9.00385,48.67396]},"properties":{"id":"way/28259446","name":"Spitzenlastheizwerk Grund","fuel":"gas","source":"gas","method":"combustion","capacityMW":50}},{"type":"Feature","geometry":{"type":"Point","coordinates":[11.54286,48.31054]},"properties":{"id":"way/28347066","name":"E-Werk 1","fuel":"hydro","source":"hydro","method":"run-of-the-river","capacityMW":0.15,"operator":"E-Werke Haniel"}},{"type":"Feature","geometry":{"type":"Point","coordinates":[8.84096,51.28448]},"properties":{"id":"way/28417944","name":"SBW Biogas Lelbach GmbH","fuel":"bioenergy","source":"biomass","method":"anaerobic_digestion"}},{"type":"Feature","geometry":{"type":"Point","coordinates":[11.2495,48.1748]},"properties":{"id":"way/28418597","name":"Wasserkraftwerk Obermühle","fuel":"hydro","source":"hydro","method":"run-of-the-river","capacityMW":1.36,"operator":"Stadtwerke Fürstenfeldbruck"}},{"type":"Feature","geometry":{"type":"Point","coordinates":[11.66697,47.97229]},"properties":{"id":"way/28535145","name":"Zukunfts-Energie-Sauerlach","fuel":"bioenergy","source":"biomass","capacityMW":0.48,"operator":"Zukunfts-Energie-Sauerlach"}},{"type":"Feature","geometry":{"type":"Point","coordinates":[13.00784,48.24464]},"properties":{"id":"way/28599518","name":"Innkraftwerk Braunau-Simbach","fuel":"hydro","source":"hydro","method":"run-of-the-river","capacityMW":100,"operator":"Österreichisch-Bayerische Kraftwerke AG"}},{"type":"Feature","geometry":{"type":"Point","coordinates":[12.30207,48.60357]},"properties":{"id":"way/28621412","name":"Kraftwerk Niederaichbach","fuel":"hydro","source":"hydro","method":"run-of-the-river","capacityMW":16.1,"operator":"Uniper Kraftwerke"}},{"type":"Feature","geometry":{"type":"Point","coordinates":[10.86656,48.14841]},"properties":{"id":"way/28653243","name":"Lechstaustufe 19 Schwabstadl","fuel":"hydro","source":"hydro","method":"run-of-the-river","capacityMW":12,"operator":"Uniper Kraftwerke","start":"1981"}},{"type":"Feature","geometry":{"type":"Point","coordinates":[10.88254,48.18021]},"properties":{"id":"way/28653252","name":"Lechstaustufe 20 Scheuring","fuel":"hydro","source":"hydro","method":"run-of-the-river","capacityMW":12.2,"operator":"Uniper Kraftwerke"}},{"type":"Feature","geometry":{"type":"Point","coordinates":[10.90402,48.21044]},"properties":{"id":"way/28653277","name":"Laufwasserkraftwerk Prittriching","fuel":"hydro","source":"hydro","method":"run-of-the-river","capacityMW":12.1,"operator":"Uniper Kraftwerke"}},{"type":"Feature","geometry":{"type":"Point","coordinates":[10.92662,48.23735]},"properties":{"id":"way/28653294","name":"Laufwasserkraftwerk Unterbergen","fuel":"hydro","source":"hydro","method":"run-of-the-river","capacityMW":12.3,"operator":"Uniper Kraftwerke"}},{"type":"Feature","geometry":{"type":"Point","coordinates":[8.65969,50.14077]},"properties":{"id":"way/28673841","name":"Heizwerk Raimundstraße","fuel":"gas","source":"gas","method":"combustion","capacityMW":21,"operator":"Mainova AG"}},{"type":"Feature","geometry":{"type":"Point","coordinates":[10.77007,48.70028]},"properties":{"id":"way/29106000","name":"Kraftwerk Donauwörth","fuel":"hydro","source":"hydro","method":"run-of-the-river","capacityMW":8.5,"operator":"LEW Wasserkraft GmbH","start":"1984"}},{"type":"Feature","geometry":{"type":"Point","coordinates":[11.5827,48.76667]},"properties":{"id":"way/29122363","name":"Wärmekraftwerk Irsching","fuel":"gas","source":"gas;oil","method":"combustion","capacityMW":1822,"operator":"Uniper"}},{"type":"Feature","geometry":{"type":"Point","coordinates":[8.63312,49.79805]},"properties":{"id":"way/29163750","name":"Unnamed site","fuel":"other"}},{"type":"Feature","geometry":{"type":"Point","coordinates":[10.14128,47.89528]},"properties":{"id":"way/29262332","name":"Illerstaustufe 7","fuel":"hydro","source":"hydro","method":"run-of-the-river","capacityMW":6,"operator":"Lechwerke","start":"1938"}},{"type":"Feature","geometry":{"type":"Point","coordinates":[7.01951,50.00483]},"properties":{"id":"way/29299110","name":"Unnamed site","fuel":"solar","source":"solar"}},{"type":"Feature","geometry":{"type":"Point","coordinates":[13.3027,52.23021]},"properties":{"id":"way/29331528","name":"Spitzenlastgasturbinenkraftwerk Thyrow","fuel":"gas","source":"gas","method":"combustion","capacityMW":181,"operator":"50Hertz"}},{"type":"Feature","geometry":{"type":"Point","coordinates":[8.67264,49.27046]},"properties":{"id":"way/29914263","name":"Solarpark Rauenberg","fuel":"solar","source":"solar","capacityMW":4.624,"operator":"Wircon GmbH"}},{"type":"Feature","geometry":{"type":"Point","coordinates":[13.95666,50.95823]},"properties":{"id":"way/30009604","name":"HKW Pirna-Sonnenstein","fuel":"gas","source":"gas","method":"combustion","capacityMW":0.001999,"operator":"Stadtwerke Pirna"}},{"type":"Feature","geometry":{"type":"Point","coordinates":[8.80589,50.82014]},"properties":{"id":"way/30096959","name":"Fernheizwerk Lahnberge","fuel":"bioenergy","source":"biomass;oil;gas","method":"combustion","operator":"Philipps-Universität Marburg","start":"1972"}},{"type":"Feature","geometry":{"type":"Point","coordinates":[8.64985,50.11742]},"properties":{"id":"way/30119025","name":"Fernheizwerk Gräfstraße","fuel":"gas","source":"gas","method":"combustion","operator":"Johann Wolfgang Goethe Universität Frankfurt Am Main"}},{"type":"Feature","geometry":{"type":"Point","coordinates":[9.1276,49.93277]},"properties":{"id":"way/30150906","name":"Wasserkraftwerk Obernau","fuel":"hydro","source":"hydro","method":"run-of-the-river","capacityMW":3.2,"operator":"Uniper Kraftwerke"}},{"type":"Feature","geometry":{"type":"Point","coordinates":[6.9971,51.51576]},"properties":{"id":"way/30152617","name":"RWE Müllheizkraftwerk Karnap","fuel":"waste","source":"waste","operator":"RWE Power AG"}},{"type":"Feature","geometry":{"type":"Point","coordinates":[11.41193,48.7505]},"properties":{"id":"way/30156512","name":"Laufwasserkraftwerk Ingolstadt","fuel":"hydro","source":"hydro","method":"run-of-the-river","capacityMW":19.8,"operator":"Uniper Kraftwerke"}},{"type":"Feature","geometry":{"type":"Point","coordinates":[11.2733,48.7508]},"properties":{"id":"way/30157328","name":"Kraftwerk Bergheim","fuel":"hydro","source":"hydro","method":"run-of-the-river","capacityMW":23.7,"operator":"Uniper Kraftwerke"}},{"type":"Feature","geometry":{"type":"Point","coordinates":[11.59463,48.18876]},"properties":{"id":"way/30215693","name":"Heizkraftwerk Freimann","fuel":"gas","source":"gas","method":"combustion","capacityMW":110,"operator":"Stadtwerke München","start":"1974"}},{"type":"Feature","geometry":{"type":"Point","coordinates":[7.03006,49.33477]},"properties":{"id":"way/30425117","name":"Kraftwerk Weiher","fuel":"coal","source":"coal","method":"combustion","capacityMW":655,"operator":"Steag GmbH","start":"1918"}},{"type":"Feature","geometry":{"type":"Point","coordinates":[11.16266,49.78622]},"properties":{"id":"way/30611045","name":"Unnamed site","fuel":"bioenergy","source":"biomass","method":"combustion"}},{"type":"Feature","geometry":{"type":"Point","coordinates":[10.93682,48.26592]},"properties":{"id":"way/30734802","name":"Laufwasserkraftwerk Merching","fuel":"hydro","source":"hydro","method":"run-of-the-river","capacityMW":12,"operator":"Uniper Kraftwerke","start":"1978"}},{"type":"Feature","geometry":{"type":"Point","coordinates":[10.92393,48.23764]},"properties":{"id":"way/30799994","name":"Laufwasserkraftwerk Lochbach","fuel":"hydro","source":"hydro","method":"run-of-the-river","operator":"E.ON Wasserkraft"}},{"type":"Feature","geometry":{"type":"Point","coordinates":[10.74982,47.65421]},"properties":{"id":"way/30885167","name":"Kraftwerk Roßhaupten","fuel":"hydro","source":"hydro","method":"water-storage","capacityMW":45.5,"operator":"Uniper Kraftwerke"}},{"type":"Feature","geometry":{"type":"Point","coordinates":[6.8269,51.44204]},"properties":{"id":"way/30969781","name":"Wasserkraftwerk Raffelberg","fuel":"hydro","source":"hydro","method":"run-of-the-river","capacityMW":5.2,"operator":"Stadt Mülheim an der Ruhr"}},{"type":"Feature","geometry":{"type":"Point","coordinates":[12.20645,48.99737]},"properties":{"id":"way/31018902","name":"Unnamed site","fuel":"solar","source":"solar","method":"photovoltaic","capacityMW":4,"start":"2024.05.21"}},{"type":"Feature","geometry":{"type":"Point","coordinates":[12.20955,48.99662]},"properties":{"id":"way/31018909","name":"Solarpark Barbing","fuel":"solar","source":"solar","method":"photovoltaic","capacityMW":1.83,"start":"2024.04.25"}},{"type":"Feature","geometry":{"type":"Point","coordinates":[11.61761,48.16915]},"properties":{"id":"way/31103527","name":"Kraftwerk Oberföhring","fuel":"hydro","source":"hydro","method":"run-of-the-river","capacityMW":1,"operator":"E.ON Wasserkraft"}},{"type":"Feature","geometry":{"type":"Point","coordinates":[13.06578,52.01114]},"properties":{"id":"way/31172941","name":"Unnamed site","fuel":"bioenergy","source":"biomass","method":"anaerobic_digestion"}},{"type":"Feature","geometry":{"type":"Point","coordinates":[12.03226,52.49645]},"properties":{"id":"way/31253118","name":"Unnamed site","fuel":"solar","source":"solar","method":"photovoltaic"}},{"type":"Feature","geometry":{"type":"Point","coordinates":[12.47217,51.12821]},"properties":{"id":"way/31391416","name":"Solarstromkraftwerk Borna","fuel":"solar","source":"solar","method":"photovoltaic","capacityMW":3.44}},{"type":"Feature","geometry":{"type":"Point","coordinates":[8.56536,52.09423]},"properties":{"id":"way/31464070","name":"Unnamed site","fuel":"other"}},{"type":"Feature","geometry":{"type":"Point","coordinates":[8.99948,48.69743]},"properties":{"id":"way/31576232","name":"Mercedes-Benz-Heizkraftwerk Sindelfingen","fuel":"gas","source":"gas;oil","method":"combustion","capacityMW":95,"operator":"Mercedes-Benz-Werk Sindelfingen","start":"2013-11-21"}},{"type":"Feature","geometry":{"type":"Point","coordinates":[11.12279,52.20916]},"properties":{"id":"way/31694800","name":"Unnamed site","fuel":"solar","source":"solar","method":"photovoltaic"}},{"type":"Feature","geometry":{"type":"Point","coordinates":[6.61358,51.03446]},"properties":{"id":"way/31765594","name":"Batteriespeicher Neurath","fuel":"storage","source":"battery","method":"battery-storage","capacityMW":80,"operator":"RWE Generation SE","start":"2025"}},{"type":"Feature","geometry":{"type":"Point","coordinates":[6.61966,51.03881]},"properties":{"id":"way/31765608","name":"Biogasanlage Neurath","fuel":"bioenergy","source":"biomass","method":"anaerobic_digestion","operator":"RWE"}},{"type":"Feature","geometry":{"type":"Point","coordinates":[6.80815,50.88358]},"properties":{"id":"way/31897241","name":"Unnamed site","fuel":"solar","source":"solar","capacityMW":24,"operator":"JT Solarpark Hürth GmbH"}},{"type":"Feature","geometry":{"type":"Point","coordinates":[11.95477,49.8406]},"properties":{"id":"way/32149309","name":"Unnamed site","fuel":"bioenergy","source":"biomass"}},{"type":"Feature","geometry":{"type":"Point","coordinates":[10.9714,48.92931]},"properties":{"id":"way/32228904","name":"Unnamed site","fuel":"solar","source":"solar"}},{"type":"Feature","geometry":{"type":"Point","coordinates":[9.31664,48.74801]},"properties":{"id":"way/32297990","name":"Unnamed site","fuel":"other"}},{"type":"Feature","geometry":{"type":"Point","coordinates":[10.16697,52.53553]},"properties":{"id":"way/32354535","name":"Biogas-Anlage","fuel":"bioenergy","source":"biomass"}},{"type":"Feature","geometry":{"type":"Point","coordinates":[12.57549,48.06753]},"properties":{"id":"way/32782021","name":"Heider Kraftwerk II","fuel":"hydro","source":"hydro","method":"run-of-the-river","capacityMW":8}},{"type":"Feature","geometry":{"type":"Point","coordinates":[8.85667,51.26414]},"properties":{"id":"way/32786799","name":"Biogasanlage Rube","fuel":"bioenergy","source":"biomass","method":"anaerobic_digestion"}},{"type":"Feature","geometry":{"type":"Point","coordinates":[11.26605,50.95798]},"properties":{"id":"way/32859468","name":"Unnamed site","fuel":"solar","source":"solar","method":"photovoltaic"}},{"type":"Feature","geometry":{"type":"Point","coordinates":[12.54644,48.02482]},"properties":{"id":"way/33130078","name":"Heider Kraftwerk I","fuel":"hydro","source":"hydro","method":"run-of-the-river","capacityMW":1.8}},{"type":"Feature","geometry":{"type":"Point","coordinates":[10.10987,47.919]},"properties":{"id":"way/33216404","name":"Illerstaustufe 8","fuel":"hydro","source":"hydro","method":"run-of-the-river","capacityMW":60,"operator":"Lechwerke","start":"1948"}},{"type":"Feature","geometry":{"type":"Point","coordinates":[9.15538,49.01949]},"properties":{"id":"way/33277907","name":"Kraftwerk Walheim","fuel":"coal","source":"coal;oil","method":"combustion","capacityMW":380,"operator":"EnBW Energie Baden-Württemberg GmbH","start":"1964-09"}},{"type":"Feature","geometry":{"type":"Point","coordinates":[8.13323,53.57691]},"properties":{"id":"way/33290357","name":"Engie SA Steinkohlekraftwerk Wilhelmshaven","fuel":"coal","source":"coal","method":"combustion","capacityMW":726,"operator":"Engie SA","start":"2015-10-30"}},{"type":"Feature","geometry":{"type":"Point","coordinates":[10.67496,48.64515]},"properties":{"id":"way/33420762","name":"Kraftwerk Schwenningen","fuel":"hydro","source":"hydro","method":"run-of-the-river","capacityMW":8.6,"operator":"LEW Wasserkraft GmbH","start":"1983"}},{"type":"Feature","geometry":{"type":"Point","coordinates":[12.47961,51.19715]},"properties":{"id":"way/33782476","name":"Solarkraftwerk Espenhain","fuel":"solar","source":"solar","method":"photovoltaic","capacityMW":4.8,"operator":"WestFonds Solar 1 GmbH & Co. KG","start":"15.7.2004"}},{"type":"Feature","geometry":{"type":"Point","coordinates":[12.10092,48.51511]},"properties":{"id":"way/33790771","name":"Uppenbornwerk II","fuel":"hydro","source":"hydro","method":"run-of-the-river","capacityMW":18,"operator":"Stadtwerke München"}},{"type":"Feature","geometry":{"type":"Point","coordinates":[12.15881,54.0758]},"properties":{"id":"way/33842350","name":"Unnamed site","fuel":"solar","source":"solar"}},{"type":"Feature","geometry":{"type":"Point","coordinates":[12.15915,54.07591]},"properties":{"id":"way/33842353","name":"Unnamed site","fuel":"solar","source":"solar"}},{"type":"Feature","geometry":{"type":"Point","coordinates":[7.71884,51.67377]},"properties":{"id":"way/33883956","name":"Gersteinwerk","fuel":"gas","source":"gas","method":"combustion","capacityMW":987,"operator":"RWE Gersteinwerk","start":"1917"}},{"type":"Feature","geometry":{"type":"Point","coordinates":[9.89628,51.54534]},"properties":{"id":"way/33922272","name":"Unnamed site","fuel":"solar","source":"solar","method":"photovoltaic"}},{"type":"Feature","geometry":{"type":"Point","coordinates":[10.87263,48.03423]},"properties":{"id":"way/34007454","name":"Lech Staustufe 15","fuel":"hydro","source":"hydro","method":"run-of-the-river","capacityMW":7.8,"operator":"Uniper Kraftwerke","start":"1943"}},{"type":"Feature","geometry":{"type":"Point","coordinates":[13.22266,51.43543]},"properties":{"id":"way/34096081","name":"Solarpark Mühlberg","fuel":"solar","source":"solar","method":"photovoltaic"}},{"type":"Feature","geometry":{"type":"Point","coordinates":[9.73964,52.17748]},"properties":{"id":"way/34146188","name":"Unnamed site","fuel":"bioenergy","source":"biomass","method":"anaerobic_digestion","capacityMW":0.37}},{"type":"Feature","geometry":{"type":"Point","coordinates":[13.31906,48.31955]},"properties":{"id":"way/34196640","name":"Laufwasserkraftwerk Egglfing-Obernberg","fuel":"hydro","source":"hydro","method":"run-of-the-river","capacityMW":80.7,"operator":"Verbund Hydro Power AG"}},{"type":"Feature","geometry":{"type":"Point","coordinates":[7.62207,52.2022]},"properties":{"id":"way/34510209","name":"Bioenergiepark Saerbeck","fuel":"bioenergy","source":"biomass;solar;wind","operator":"SaerVe"}},{"type":"Feature","geometry":{"type":"Point","coordinates":[10.87892,48.64631]},"properties":{"id":"way/34639225","name":"Lechstaustufe Oberpeiching","fuel":"hydro","source":"hydro","method":"run-of-the-river","capacityMW":11.9,"operator":"LEW Wasserkraft","start":"1954"}},{"type":"Feature","geometry":{"type":"Point","coordinates":[11.35855,48.23475]},"properties":{"id":"way/35145960","name":"Abfallheizkraftwerk Geiselbullach","fuel":"waste","source":"waste","method":"combustion","operator":"GfA – Gemeinsames Kommunalunternehmen für Abfallwirtschaft"}},{"type":"Feature","geometry":{"type":"Point","coordinates":[12.6913,48.24963]},"properties":{"id":"way/35147298","name":"Wasserkraftwerk Neuötting","fuel":"hydro","source":"hydro","method":"run-of-the-river","capacityMW":26.1,"operator":"Verbund Hydro Power AG"}},{"type":"Feature","geometry":{"type":"Point","coordinates":[11.62834,48.2101]},"properties":{"id":"way/35173170","name":"Energiezentrale","fuel":"gas","source":"gas","method":"combustion","capacityMW":6.5,"operator":"Münchener Stadtentwässerung"}},{"type":"Feature","geometry":{"type":"Point","coordinates":[6.74764,51.39055]},"properties":{"id":"way/35310406","name":"Heizkraftwerk III","fuel":"gas","source":"gas","method":"combustion","capacityMW":274,"operator":"DEW"}},{"type":"Feature","geometry":{"type":"Point","coordinates":[10.94054,49.42762]},"properties":{"id":"way/35338199","name":"Unnamed site","fuel":"solar","source":"solar","method":"photovoltaic"}},{"type":"Feature","geometry":{"type":"Point","coordinates":[10.15849,49.3445]},"properties":{"id":"way/35394715","name":"Unnamed site","fuel":"solar","source":"solar","method":"photovoltaic"}},{"type":"Feature","geometry":{"type":"Point","coordinates":[10.85431,49.91143]},"properties":{"id":"way/35415445","name":"Müllheizkraftwerk Bamberg","fuel":"waste","source":"waste","method":"combustion"}},{"type":"Feature","geometry":{"type":"Point","coordinates":[10.91452,47.81403]},"properties":{"id":"way/35559670","name":"Unnamed site","fuel":"solar","source":"solar","method":"photovoltaic"}},{"type":"Feature","geometry":{"type":"Point","coordinates":[11.803,48.18928]},"properties":{"id":"way/36071749","name":"Biogasanlage Kern","fuel":"bioenergy","source":"biomass","method":"anaerobic_digestion"}},{"type":"Feature","geometry":{"type":"Point","coordinates":[8.80869,50.86004]},"properties":{"id":"way/36503981","name":"Solaracker Kiesgrube Bernsdorf","fuel":"solar","source":"solar","method":"photovoltaic","capacityMW":3.3,"operator":"Solaracker Cölbe GmbH & Co. KG"}},{"type":"Feature","geometry":{"type":"Point","coordinates":[8.95605,48.92743]},"properties":{"id":"way/36728273","name":"Wasserkraftanlage Vaihingen","fuel":"hydro","source":"hydro","method":"run-of-the-river","operator":"Wasserkraft KE GbR","start":"1954"}},{"type":"Feature","geometry":{"type":"Point","coordinates":[9.05509,48.54176]},"properties":{"id":"way/36960149","name":"Blockheizkraftwerk Obere Viehweide","fuel":"gas","source":"gas","method":"combustion","capacityMW":13.4,"operator":"Stadtwerke Tübingen"}},{"type":"Feature","geometry":{"type":"Point","coordinates":[9.28693,48.50506]},"properties":{"id":"way/36974025","name":"Pumpspeicherwerk Glems","fuel":"pumped","source":"hydro","method":"water-pumped-storage","capacityMW":90,"operator":"EnBW Energie Baden-Württemberg"}},{"type":"Feature","geometry":{"type":"Point","coordinates":[10.72501,51.02757]},"properties":{"id":"way/36981881","name":"Solarpark \"Sonnenweide\"","fuel":"solar","source":"solar","method":"photovoltaic","capacityMW":0.49989999999999996}},{"type":"Feature","geometry":{"type":"Point","coordinates":[7.63125,47.8966]},"properties":{"id":"way/37043715","name":"Unnamed site","fuel":"solar","source":"solar","method":"photovoltaic"}},{"type":"Feature","geometry":{"type":"Point","coordinates":[11.33944,48.55014]},"properties":{"id":"way/37061497","name":"Unnamed site","fuel":"solar","source":"solar","method":"photovoltaic","operator":"PVStrom"}},{"type":"Feature","geometry":{"type":"Point","coordinates":[10.71778,48.34983]},"properties":{"id":"way/37283962","name":"Biogasanlage Dörle GbrR","fuel":"bioenergy","source":"biomass","method":"anaerobic_digestion"}},{"type":"Feature","geometry":{"type":"Point","coordinates":[11.22796,48.74239]},"properties":{"id":"way/37556269","name":"Solarpark Ochsengründlweg","fuel":"solar","source":"solar","method":"photovoltaic","capacityMW":1,"operator":"Anumar GmbH","start":"2018"}},{"type":"Feature","geometry":{"type":"Point","coordinates":[10.19756,53.94758]},"properties":{"id":"way/37633681","name":"E.ON Heizwerk","fuel":"other","operator":"E.ON"}},{"type":"Feature","geometry":{"type":"Point","coordinates":[10.48383,52.28807]},"properties":{"id":"way/37704313","name":"Heizwerk Ölper","fuel":"bioenergy","source":"biogas","operator":"Braunschweiger Versorgungs AG"}},{"type":"Feature","geometry":{"type":"Point","coordinates":[9.52934,51.31537]},"properties":{"id":"way/37936111","name":"Müllheizkraftwerk Kassel","fuel":"waste","source":"waste","method":"combustion","capacityMW":17.7}},{"type":"Feature","geometry":{"type":"Point","coordinates":[12.01393,48.92735]},"properties":{"id":"way/37972492","name":"Wasserkraftwerk Bad Abbach","fuel":"hydro","source":"hydro","method":"run-of-the-river","capacityMW":6.5}},{"type":"Feature","geometry":{"type":"Point","coordinates":[11.59765,48.05697]},"properties":{"id":"way/38026422","name":"Geothermie-Heizkraftwerk Unterhaching und Förderbohrung","fuel":"other","source":"geothermal","capacityMW":3.36,"operator":"Geothermie Unterhaching GmbH & Co. KG","start":"2007"}},{"type":"Feature","geometry":{"type":"Point","coordinates":[11.58394,51.03266]},"properties":{"id":"way/38120148","name":"Solarpark Wormstedt","fuel":"solar","source":"solar;wind","method":"photovoltaic;wind_turbine","capacityMW":2.4,"start":"2021"}},{"type":"Feature","geometry":{"type":"Point","coordinates":[12.28478,51.60739]},"properties":{"id":"way/38144064","name":"Unnamed site","fuel":"solar","source":"solar","method":"photovoltaic","capacityMW":5.3}},{"type":"Feature","geometry":{"type":"Point","coordinates":[10.92637,51.22703]},"properties":{"id":"way/38146635","name":"PV Kraftwerk Am Kalkufer","fuel":"solar","source":"solar","method":"photovoltaic","capacityMW":3.56,"operator":"Solarpark am Kalkufer GmbH & Co. KG c/o BDO AG","start":"2012"}},{"type":"Feature","geometry":{"type":"Point","coordinates":[13.53409,52.25125]},"properties":{"id":"way/38164191","name":"Hinterste Plan","fuel":"solar","source":"solar","method":"photovoltaic","operator":"Solaranlage Hinterste Plan GmbH & Co. KG","start":"2020"}},{"type":"Feature","geometry":{"type":"Point","coordinates":[11.32414,49.51182]},"properties":{"id":"way/38370377","name":"ehem. Elektrochemische Werke Pirner","fuel":"hydro","source":"hydro","method":"run-of-the-river"}},{"type":"Feature","geometry":{"type":"Point","coordinates":[11.88169,48.35869]},"properties":{"id":"way/38419337","name":"Laufwasserkraftwerk Eitting","fuel":"hydro","source":"hydro","method":"run-of-the-river","capacityMW":26,"operator":"Uniper Kraftwerke","start":"1925"}},{"type":"Feature","geometry":{"type":"Point","coordinates":[11.88224,48.3588]},"properties":{"id":"way/38419425","name":"Unnamed site","fuel":"other"}},{"type":"Feature","geometry":{"type":"Point","coordinates":[7.10935,51.42964]},"properties":{"id":"way/38456845","name":"Wasserkraftwerk Horster Mühle","fuel":"hydro","source":"hydro","method":"run-of-the-river","operator":"RWE","start":"2. Hälfte 18. Jahrhundert"}},{"type":"Feature","geometry":{"type":"Point","coordinates":[9.61935,52.31723]},"properties":{"id":"way/38609954","name":"Biogas Anlage Gehrden","fuel":"bioenergy","source":"biomass","method":"anaerobic_digestion"}},{"type":"Feature","geometry":{"type":"Point","coordinates":[11.54588,48.08875]},"properties":{"id":"way/38808179","name":"Isarwerk 1","fuel":"hydro","source":"hydro","method":"run-of-the-river","capacityMW":2.4,"operator":"Stadtwerke München"}},{"type":"Feature","geometry":{"type":"Point","coordinates":[12.20169,53.80689]},"properties":{"id":"way/39245807","name":"Unnamed site","fuel":"gas","source":"gas","method":"combustion","operator":"Stadtwerke Güstrow"}},{"type":"Feature","geometry":{"type":"Point","coordinates":[12.29167,51.08067]},"properties":{"id":"way/39488685","name":"Photovoltaik-Kraftwerk Falkenhain","fuel":"solar","source":"solar","method":"photovoltaic","capacityMW":2.54,"start":"2010-12"}},{"type":"Feature","geometry":{"type":"Point","coordinates":[6.89026,49.42045]},"properties":{"id":"way/39493654","name":"BHKW Krankenhaus Lebach","fuel":"gas","source":"gas"}},{"type":"Feature","geometry":{"type":"Point","coordinates":[11.21696,48.20692]},"properties":{"id":"way/39538623","name":"Solarpark Malching","fuel":"solar","source":"solar","method":"photovoltaic","capacityMW":4.733}},{"type":"Feature","geometry":{"type":"Point","coordinates":[10.70792,52.27415]},"properties":{"id":"way/39540876","name":"Unnamed site","fuel":"solar","source":"solar","method":"photovoltaic"}},{"type":"Feature","geometry":{"type":"Point","coordinates":[11.47482,49.48707]},"properties":{"id":"way/39822495","name":"Pumpspeicherwerk Happurg","fuel":"pumped","source":"hydro","method":"water-pumped-storage","capacityMW":160,"operator":"Uniper Kraftwerke"}},{"type":"Feature","geometry":{"type":"Point","coordinates":[6.73648,49.78581]},"properties":{"id":"way/39947084","name":"Solarkraftwerke Kenn & Kenn II","fuel":"solar","source":"solar","method":"photovoltaic"}},{"type":"Feature","geometry":{"type":"Point","coordinates":[8.60167,47.63894]},"properties":{"id":"way/40128123","name":"Kraftwerk Rheinau","fuel":"hydro","source":"hydro","method":"run-of-the-river","capacityMW":36.8,"operator":"Axpo;EnBW","start":"1957"}},{"type":"Feature","geometry":{"type":"Point","coordinates":[9.60181,52.34976]},"properties":{"id":"way/40300790","name":"Unnamed site","fuel":"solar","source":"solar","method":"photovoltaic"}},{"type":"Feature","geometry":{"type":"Point","coordinates":[13.43721,48.73479]},"properties":{"id":"way/40388069","name":"Wasserkraftwerk Schrottenbaummühle","fuel":"hydro","source":"hydro","method":"run-of-the-river"}},{"type":"Feature","geometry":{"type":"Point","coordinates":[8.59965,49.89246]},"properties":{"id":"way/40471090","name":"Solarpark Weiterstadt","fuel":"solar","source":"solar","method":"photovoltaic"}},{"type":"Feature","geometry":{"type":"Point","coordinates":[11.73539,48.16995]},"properties":{"id":"way/40750919","name":"Geothermie AFK","fuel":"other","source":"geothermal","method":"heat_pump","operator":"AFK Geothermie GmbH"}},{"type":"Feature","geometry":{"type":"Point","coordinates":[8.24501,47.61964]},"properties":{"id":"way/40763388","name":"Lonza Solarpark","fuel":"solar","source":"solar","method":"photovoltaic","capacityMW":0.4362,"start":"2008-12-22"}},{"type":"Feature","geometry":{"type":"Point","coordinates":[11.57174,53.35287]},"properties":{"id":"way/40822237","name":"Biogas Klein-Laasch","fuel":"bioenergy","source":"biomass","method":"anaerobic_digestion"}},{"type":"Feature","geometry":{"type":"Point","coordinates":[8.97896,52.36747]},"properties":{"id":"way/40894544","name":"Laufwasserkraftwerk Petershagen","fuel":"hydro","source":"hydro","method":"run-of-the-river","capacityMW":3.3,"operator":"Statkraft","start":"1953"}},{"type":"Feature","geometry":{"type":"Point","coordinates":[8.98203,54.63324]},"properties":{"id":"way/40946557","name":"Unnamed site","fuel":"solar","source":"solar"}},{"type":"Feature","geometry":{"type":"Point","coordinates":[8.56257,50.02708]},"properties":{"id":"way/40956343","name":"Heizwerk süd","fuel":"gas","source":"gas","method":"combustion","operator":"Mainova AG"}},{"type":"Feature","geometry":{"type":"Point","coordinates":[10.49196,51.94841]},"properties":{"id":"way/41174566","name":"Wehrte Biogas","fuel":"bioenergy","source":"biomass"}},{"type":"Feature","geometry":{"type":"Point","coordinates":[11.49184,48.76454]},"properties":{"id":"way/41189478","name":"Müllverwertungsanlage Ingolstadt","fuel":"waste","source":"waste","method":"combustion","capacityMW":25}},{"type":"Feature","geometry":{"type":"Point","coordinates":[9.72261,54.29057]},"properties":{"id":"way/41225256","name":"Kraftwerk Audorf","fuel":"oil","source":"oil","method":"combustion","capacityMW":87,"operator":"Uniper Kraftwerke"}},{"type":"Feature","geometry":{"type":"Point","coordinates":[10.10016,53.5975]},"properties":{"id":"way/48951060","name":"Blockheizkraftwerk","fuel":"gas","source":"gas","method":"combustion","capacityMW":1.5,"operator":"Vattenfall Europe New Energy Services GmbH","start":"03.09.1999"}},{"type":"Feature","geometry":{"type":"Point","coordinates":[10.26918,48.02263]},"properties":{"id":"way/41400399","name":"Solaranlage Holzgünz","fuel":"solar","source":"solar","capacityMW":4.7}},{"type":"Feature","geometry":{"type":"Point","coordinates":[8.82881,52.20209]},"properties":{"id":"way/41420125","name":"Biogasanlage am Hüffer Brink","fuel":"bioenergy","source":"biomass","method":"anaerobic_digestion","operator":"Rainer Meyer;Heinz-Wilhelm Reker"}},{"type":"Feature","geometry":{"type":"Point","coordinates":[12.09667,47.84719]},"properties":{"id":"way/41746619","name":"Wasserkraftwerk Oberwöhr","fuel":"hydro","source":"hydro","method":"run-of-the-river","capacityMW":1.2,"operator":"SWRO GmbH","start":"1896"}},{"type":"Feature","geometry":{"type":"Point","coordinates":[7.10938,50.08069]},"properties":{"id":"way/41951213","name":"Unnamed site","fuel":"solar","source":"solar","method":"photovoltaic"}},{"type":"Feature","geometry":{"type":"Point","coordinates":[8.87365,53.05936]},"properties":{"id":"way/42049929","name":"Kraftwerk Hastedt","fuel":"other","operator":"swb"}},{"type":"Feature","geometry":{"type":"Point","coordinates":[8.71631,50.58819]},"properties":{"id":"way/42227683","name":"Unnamed site","fuel":"other","operator":"Stadtwerke Gießen"}},{"type":"Feature","geometry":{"type":"Point","coordinates":[13.36423,52.53996]},"properties":{"id":"way/42284404","name":"Unnamed site","fuel":"gas","source":"gas","method":"combustion","capacityMW":16,"operator":"Bayer AG","start":"1973-06-01"}},{"type":"Feature","geometry":{"type":"Point","coordinates":[11.33829,47.62998]},"properties":{"id":"way/42298171","name":"Walchenseekraftwerk","fuel":"hydro","source":"hydro","method":"water-storage","capacityMW":124,"operator":"Uniper Kraftwerke"}},{"type":"Feature","geometry":{"type":"Point","coordinates":[8.40891,53.18995]},"properties":{"id":"way/42872353","name":"Druckluftspeicher- und Gasturbinenkraftwerk Huntorf","fuel":"gas","source":"gas;electricity","method":"air-pumped-storage","capacityMW":321,"operator":"E.ON Kraftwerke GmbH","start":"1978-01-01"}},{"type":"Feature","geometry":{"type":"Point","coordinates":[7.83376,47.58683]},"properties":{"id":"way/42882650","name":"Kraftwerk Ryburg-Schwörstadt","fuel":"hydro","source":"hydro","method":"run-of-the-river","capacityMW":120,"operator":"Kraftwerk Ryburg-Schwörstadt"}},{"type":"Feature","geometry":{"type":"Point","coordinates":[11.53979,47.77762]},"properties":{"id":"way/43139616","name":"Isarkraftwerk Bad Tölz","fuel":"hydro","source":"hydro","method":"run-of-the-river","capacityMW":1.9,"operator":"Stadtwerke Bad Tölz"}},{"type":"Feature","geometry":{"type":"Point","coordinates":[9.10868,53.99691]},"properties":{"id":"way/43175003","name":"Solarpark St. Michaelisdonn","fuel":"solar","source":"solar","method":"photovoltaic"}},{"type":"Feature","geometry":{"type":"Point","coordinates":[11.59706,48.41549]},"properties":{"id":"way/43658551","name":"Wasserkraftwerk Kranzberg","fuel":"hydro","source":"hydro","method":"run-of-the-river","capacityMW":2.4,"operator":"Wasserkraftwerk Kranzberg e.K.","start":"1911"}},{"type":"Feature","geometry":{"type":"Point","coordinates":[12.77852,50.97323]},"properties":{"id":"way/44020783","name":"Solarpark Cossen","fuel":"solar","source":"solar","method":"photovoltaic","capacityMW":3.167,"operator":"IBC Solar","start":"2020"}},{"type":"Feature","geometry":{"type":"Point","coordinates":[11.85421,48.19545]},"properties":{"id":"way/44084559","name":"Unnamed site","fuel":"bioenergy","source":"biomass","method":"combustion","operator":"Bayernwerk Natur GmbH","start":"2007-05-02"}},{"type":"Feature","geometry":{"type":"Point","coordinates":[10.0682,49.79153]},"properties":{"id":"way/44524073","name":"Unnamed site","fuel":"solar","source":"solar","method":"photovoltaic"}},{"type":"Feature","geometry":{"type":"Point","coordinates":[8.24264,50.46722]},"properties":{"id":"way/44651514","name":"Wasserkraftwerk Kirschhofen","fuel":"hydro","source":"hydro","method":"run-of-the-river","operator":"Elikraft AG Borken-Dilich"}},{"type":"Feature","geometry":{"type":"Point","coordinates":[8.67213,50.12914]},"properties":{"id":"way/44833841","name":"Heizwerk Lübecker Straße","fuel":"gas","source":"gas","method":"combustion","operator":"Mainova AG"}},{"type":"Feature","geometry":{"type":"Point","coordinates":[14.09213,51.78488]},"properties":{"id":"way/44885291","name":"Unnamed site","fuel":"gas","source":"gas","method":"combustion"}},{"type":"Feature","geometry":{"type":"Point","coordinates":[8.93478,54.61994]},"properties":{"id":"way/45068000","name":"Unnamed site","fuel":"solar","source":"solar","capacityMW":3.234}},{"type":"Feature","geometry":{"type":"Point","coordinates":[11.99823,48.49313]},"properties":{"id":"way/45085227","name":"Uppenbornwerk 1","fuel":"hydro","source":"hydro","method":"run-of-the-river","capacityMW":25,"operator":"Stadtwerke_München"}},{"type":"Feature","geometry":{"type":"Point","coordinates":[11.39366,47.5846]},"properties":{"id":"way/45182865","name":"Niedernachkraftwerk","fuel":"hydro","source":"hydro","method":"run-of-the-river","capacityMW":2.4}},{"type":"Feature","geometry":{"type":"Point","coordinates":[11.01503,49.64606]},"properties":{"id":"way/45190185","name":"Wasserkraftwerk Baiersdorf-Wellerstadt","fuel":"hydro","source":"hydro","method":"run-of-the-river","capacityMW":0.66,"operator":"RSV","start":"1921"}},{"type":"Feature","geometry":{"type":"Point","coordinates":[11.30873,47.56847]},"properties":{"id":"way/45205419","name":"Obernachkraftwerk","fuel":"hydro","source":"hydro","method":"run-of-the-river","capacityMW":12.8,"operator":"Uniper Kraftwerke"}},{"type":"Feature","geometry":{"type":"Point","coordinates":[8.974,48.72474]},"properties":{"id":"way/45244271","name":"Heizkraftwerk Grünäcker","fuel":"gas","source":"gas","method":"combustion","operator":"Stadtwerke Sindelfingen"}},{"type":"Feature","geometry":{"type":"Point","coordinates":[10.78741,49.92447]},"properties":{"id":"way/45725729","name":"Wasserkraftwerk Viereth","fuel":"hydro","source":"hydro","method":"run-of-the-river","capacityMW":6.15,"operator":"Uniper Kraftwerke"}},{"type":"Feature","geometry":{"type":"Point","coordinates":[12.92114,50.85623]},"properties":{"id":"way/45837119","name":"Heizkraftwerk Chemnitz-Nord","fuel":"coal","source":"coal","method":"combustion","capacityMW":167,"operator":"Eins Energie in Sachsen"}},{"type":"Feature","geometry":{"type":"Point","coordinates":[8.9174,54.58396]},"properties":{"id":"way/45961562","name":"GP-Solarpark 1 GmbH","fuel":"solar","source":"solar"}},{"type":"Feature","geometry":{"type":"Point","coordinates":[6.84622,51.51118]},"properties":{"id":"way/46851694","name":"Unnamed site","fuel":"bioenergy","source":"biomass","method":"combustion","capacityMW":3,"operator":"EVO"}},{"type":"Feature","geometry":{"type":"Point","coordinates":[7.14027,50.80693]},"properties":{"id":"way/46889960","name":"Solarpark Troisdorf","fuel":"solar","source":"solar","method":"photovoltaic","capacityMW":3.421,"operator":"Stadtwerke Troisdorf + F&S solar concept"}},{"type":"Feature","geometry":{"type":"Point","coordinates":[11.14377,48.73441]},"properties":{"id":"way/47198820","name":"Kraftwerk Bittenbrunn","fuel":"hydro","source":"hydro","method":"run-of-the-river","capacityMW":20.2,"operator":"Uniper Kraftwerke"}},{"type":"Feature","geometry":{"type":"Point","coordinates":[8.31933,49.22726]},"properties":{"id":"way/47493939","name":"Biovergärungsanlage Westheim","fuel":"bioenergy","source":"biomass","method":"anaerobic_digestion","operator":"Biogutvergärung Bietigheim GmbH","start":"2019"}},{"type":"Feature","geometry":{"type":"Point","coordinates":[11.48519,47.99638]},"properties":{"id":"way/48061973","name":"Laufwasserkraftwerk Mühltal","fuel":"hydro","source":"hydro","method":"run-of-the-river","capacityMW":11.2,"operator":"Uniper Kraftwerke","start":"1924"}},{"type":"Feature","geometry":{"type":"Point","coordinates":[9.22941,48.78399]},"properties":{"id":"way/48151568","name":"Heizkraftwerk Stuttgart-Gaisburg","fuel":"gas","source":"gas","method":"combustion","capacityMW":30,"operator":"EnBW Energie Baden-Württemberg AG"}},{"type":"Feature","geometry":{"type":"Point","coordinates":[13.43137,52.56154]},"properties":{"id":"way/48216941","name":"Heizwerk Prenzlauer Promenade","fuel":"other","operator":"Vattenfall Europe AG"}},{"type":"Feature","geometry":{"type":"Point","coordinates":[9.64941,51.41777]},"properties":{"id":"way/48387598","name":"Laufwasserkraftwerk","fuel":"hydro","source":"hydro","method":"run-of-the-river","capacityMW":0.22,"operator":"Wasserkraftwerk GmbH Kürschner"}},{"type":"Feature","geometry":{"type":"Point","coordinates":[9.20239,48.97007]},"properties":{"id":"way/48558683","name":"Kraftwerk Pleidelsheim","fuel":"hydro","source":"hydro","method":"run-of-the-river","capacityMW":4.4,"operator":"Süwag Energie AG"}},{"type":"Feature","geometry":{"type":"Point","coordinates":[9.22432,48.83763]},"properties":{"id":"way/48654849","name":"Wasserkraftwerk Hofen","fuel":"hydro","source":"hydro","method":"run-of-the-river","capacityMW":3.4,"operator":"EnBW Energie Baden-Württemberg AG","start":"1935"}},{"type":"Feature","geometry":{"type":"Point","coordinates":[8.72647,53.12399]},"properties":{"id":"way/48868828","name":"Kraftwerk Hafen","fuel":"waste","source":"waste;coal","method":"combustion","capacityMW":336,"operator":"swb AG","start":"1957"}},{"type":"Feature","geometry":{"type":"Point","coordinates":[7.10299,50.70077]},"properties":{"id":"way/49305176","name":"Unnamed site","fuel":"other","operator":"Universitätsklinikum Bonn"}},{"type":"Feature","geometry":{"type":"Point","coordinates":[7.30346,52.48286]},"properties":{"id":"way/49339874","name":"Erdgaskraftwerk Emsland","fuel":"gas","source":"gas","method":"combustion","capacityMW":1826,"operator":"RWE"}},{"type":"Feature","geometry":{"type":"Point","coordinates":[13.23811,52.53026]},"properties":{"id":"way/49572120","name":"Müllverbrennungsanlage Ruhleben","fuel":"waste","source":"waste","method":"combustion","operator":"Berliner Stadtreinigungsbetriebe"}},{"type":"Feature","geometry":{"type":"Point","coordinates":[12.24288,48.94309]},"properties":{"id":"way/49602186","name":"Unnamed site","fuel":"bioenergy","source":"biomass","method":"anaerobic_digestion","capacityMW":0.625}},{"type":"Feature","geometry":{"type":"Point","coordinates":[9.98943,54.08241]},"properties":{"id":"way/49816052","name":"Stadtwerke Neumünster","fuel":"other"}},{"type":"Feature","geometry":{"type":"Point","coordinates":[9.92687,49.79342]},"properties":{"id":"way/50061843","name":"Untere Mainmühle","fuel":"hydro","source":"hydro","method":"run-of-the-river","capacityMW":0.91,"operator":"E.ON Wasserkraft"}},{"type":"Feature","geometry":{"type":"Point","coordinates":[14.39354,52.20391]},"properties":{"id":"way/50320951","name":"Solarpark Mixdorf","fuel":"solar","source":"solar","method":"photovoltaic","capacityMW":24.1,"operator":"WIRSOL SOLAR AG"}},{"type":"Feature","geometry":{"type":"Point","coordinates":[6.45191,50.62865]},"properties":{"id":"way/51106104","name":"Kraftwerk Heimbach","fuel":"hydro","source":"hydro","method":"run-of-the-river","capacityMW":16,"operator":"RWE Generation"}},{"type":"Feature","geometry":{"type":"Point","coordinates":[6.44457,50.63786]},"properties":{"id":"way/51107024","name":"Kraftwerk Schwammenauel","fuel":"hydro","source":"hydro","method":"run-of-the-river","capacityMW":14,"operator":"RWE Generation"}},{"type":"Feature","geometry":{"type":"Point","coordinates":[11.43402,49.50834]},"properties":{"id":"way/51144741","name":"Unnamed site","fuel":"hydro","source":"hydro","method":"run-of-the-river"}},{"type":"Feature","geometry":{"type":"Point","coordinates":[11.52554,48.5543]},"properties":{"id":"way/51543729","name":"Unnamed site","fuel":"hydro","source":"hydro","method":"run-of-the-river"}},{"type":"Feature","geometry":{"type":"Point","coordinates":[9.98865,49.24345]},"properties":{"id":"way/51703322","name":"Unnamed site","fuel":"bioenergy","source":"biomass","method":"combustion"}},{"type":"Feature","geometry":{"type":"Point","coordinates":[13.37429,52.53229]},"properties":{"id":"way/51804909","name":"Heizkraftwerk Scharnhorststraße","fuel":"gas","source":"gas","method":"combustion","capacityMW":0.6,"operator":"Berliner Energie und Wärme","start":"1979"}},{"type":"Feature","geometry":{"type":"Point","coordinates":[10.96429,48.27986]},"properties":{"id":"way/51822187","name":"Unnamed site","fuel":"solar","source":"solar","method":"photovoltaic","capacityMW":1.781}},{"type":"Feature","geometry":{"type":"Point","coordinates":[10.90727,51.73913]},"properties":{"id":"way/51890970","name":"Pumpspeicherwerk Wendefurth","fuel":"pumped","source":"hydro","method":"water-pumped-storage","capacityMW":80,"operator":"Vattenfall"}},{"type":"Feature","geometry":{"type":"Point","coordinates":[9.42104,48.90428]},"properties":{"id":"way/51899403","name":"Solarpark Nellmersbach","fuel":"solar","source":"solar","method":"photovoltaic"}},{"type":"Feature","geometry":{"type":"Point","coordinates":[10.83617,48.6193]},"properties":{"id":"way/52249355","name":"Unnamed site","fuel":"solar","source":"solar","method":"photovoltaic"}},{"type":"Feature","geometry":{"type":"Point","coordinates":[10.83702,48.61051]},"properties":{"id":"way/52249356","name":"Unnamed site","fuel":"solar","source":"solar","method":"photovoltaic"}},{"type":"Feature","geometry":{"type":"Point","coordinates":[10.84336,48.58828]},"properties":{"id":"way/52252203","name":"Solarpark Nordendorf","fuel":"solar","source":"solar","method":"photovoltaic","capacityMW":7.46,"operator":"HEP - Solar Nordendorf GmbH ＆ Co. KG"}},{"type":"Feature","geometry":{"type":"Point","coordinates":[10.83944,48.61812]},"properties":{"id":"way/52252204","name":"Unnamed site","fuel":"solar","source":"solar","method":"photovoltaic"}},{"type":"Feature","geometry":{"type":"Point","coordinates":[10.83678,48.29317]},"properties":{"id":"way/52460524","name":"Kraftwerk Inningen","fuel":"hydro","source":"hydro","method":"run-of-the-river","capacityMW":2.82,"operator":"LEW Wasserkraft"}},{"type":"Feature","geometry":{"type":"Point","coordinates":[7.28838,51.84661]},"properties":{"id":"way/52520998","name":"Solarfeld Dülmen","fuel":"solar","source":"solar","method":"photovoltaic"}},{"type":"Feature","geometry":{"type":"Point","coordinates":[12.91917,50.80206]},"properties":{"id":"way/52718203","name":"Photovoltaikanlage Hermann-Pöge-Straße","fuel":"solar","source":"solar","method":"photovoltaic","capacityMW":0.46873000000000004,"operator":"eins energie in sachsen GmbH & Co. KG"}},{"type":"Feature","geometry":{"type":"Point","coordinates":[10.49364,53.30546]},"properties":{"id":"way/52768423","name":"Unnamed site","fuel":"bioenergy","source":"biomass","method":"anaerobic_digestion"}},{"type":"Feature","geometry":{"type":"Point","coordinates":[8.15061,48.78078]},"properties":{"id":"way/52832883","name":"Unnamed site","fuel":"solar","source":"solar","method":"photovoltaic","capacityMW":1.4}},{"type":"Feature","geometry":{"type":"Point","coordinates":[7.83986,51.47925]},"properties":{"id":"way/52995519","name":"Laufwasserkraftwerk Wickede","fuel":"hydro","source":"hydro","method":"run-of-the-river"}},{"type":"Feature","geometry":{"type":"Point","coordinates":[10.89601,48.93808]},"properties":{"id":"way/53146014","name":"Mattenmühle","fuel":"hydro","source":"hydro","method":"run-of-the-river"}},{"type":"Feature","geometry":{"type":"Point","coordinates":[10.89832,48.93921]},"properties":{"id":"way/53152729","name":"Schürmühle","fuel":"hydro","source":"hydro","method":"run-of-the-river"}},{"type":"Feature","geometry":{"type":"Point","coordinates":[10.93547,48.40102]},"properties":{"id":"way/53378021","name":"Gasturbinen-Heizkraftwerk","fuel":"other","operator":"Stadtwerke Augsburg Energie"}},{"type":"Feature","geometry":{"type":"Point","coordinates":[13.60202,52.56265]},"properties":{"id":"way/53386819","name":"Solarpark Eiche","fuel":"solar","source":"solar","method":"photovoltaic","capacityMW":26.5,"operator":"SYBAC Solar Berlin GmbH","start":"2011/04"}},{"type":"Feature","geometry":{"type":"Point","coordinates":[9.20931,48.52424]},"properties":{"id":"way/53562835","name":"BHKW Orschel-Hagen","fuel":"other"}},{"type":"Feature","geometry":{"type":"Point","coordinates":[12.80734,48.18451]},"properties":{"id":"way/53575733","name":"Unnamed site","fuel":"bioenergy","source":"biomass","method":"anaerobic_digestion"}},{"type":"Feature","geometry":{"type":"Point","coordinates":[10.57199,48.31]},"properties":{"id":"way/53627072","name":"Unnamed site","fuel":"hydro","source":"hydro","method":"run-of-the-river"}},{"type":"Feature","geometry":{"type":"Point","coordinates":[10.82127,49.35535]},"properties":{"id":"way/54059971","name":"Unnamed site","fuel":"solar","source":"solar","method":"photovoltaic"}},{"type":"Feature","geometry":{"type":"Point","coordinates":[13.37387,50.90896]},"properties":{"id":"way/54265546","name":"Unnamed site","fuel":"solar","source":"solar","method":"photovoltaic"}},{"type":"Feature","geometry":{"type":"Point","coordinates":[6.88091,49.24383]},"properties":{"id":"relation/5760681","name":"Solarpark","fuel":"solar","source":"solar","method":"photovoltaic","capacityMW":3.94,"operator":"Neustromland"}},{"type":"Feature","geometry":{"type":"Point","coordinates":[9.44883,53.96679]},"properties":{"id":"way/55015415","name":"Gasturbinenkraftwerk Itzehoe","fuel":"oil","source":"oil","method":"combustion","capacityMW":87,"operator":"Uniper Kraftwerke"}},{"type":"Feature","geometry":{"type":"Point","coordinates":[10.7341,49.34285]},"properties":{"id":"way/55097671","name":"Unnamed site","fuel":"solar","source":"solar","method":"photovoltaic"}},{"type":"Feature","geometry":{"type":"Point","coordinates":[10.41541,47.66755]},"properties":{"id":"way/422968864","name":"PV-Anlage","fuel":"solar","source":"solar","method":"photovoltaic","capacityMW":0.797,"operator":"L＆H Ökostrom GbR"}},{"type":"Feature","geometry":{"type":"Point","coordinates":[9.02533,54.72409]},"properties":{"id":"way/55360237","name":"Unnamed site","fuel":"bioenergy","source":"biomass","method":"anaerobic_digestion"}},{"type":"Feature","geometry":{"type":"Point","coordinates":[14.62211,50.88699]},"properties":{"id":"way/55362247","name":"Unnamed site","fuel":"other"}},{"type":"Feature","geometry":{"type":"Point","coordinates":[11.31533,49.53501]},"properties":{"id":"way/55363779","name":"Unnamed site","fuel":"solar","source":"solar","method":"photovoltaic","capacityMW":1,"operator":"Neunkirchen am Sand"}},{"type":"Feature","geometry":{"type":"Point","coordinates":[12.28733,51.61884]},"properties":{"id":"way/55444147","name":"Unnamed site","fuel":"solar","source":"solar","method":"photovoltaic","capacityMW":5.3,"operator":"Q-Cells"}},{"type":"Feature","geometry":{"type":"Point","coordinates":[11.01625,49.83514]},"properties":{"id":"way/55504650","name":"Solarpark Friesen","fuel":"solar","source":"solar","method":"photovoltaic","capacityMW":8.5}},{"type":"Feature","geometry":{"type":"Point","coordinates":[12.26772,53.38232]},"properties":{"id":"way/55701402","name":"Solarpark Ganzlin","fuel":"solar","source":"solar","method":"photovoltaic","capacityMW":75,"start":"2020-06-01"}},{"type":"Feature","geometry":{"type":"Point","coordinates":[10.27346,49.46012]},"properties":{"id":"way/56181881","name":"Unnamed site","fuel":"solar","source":"solar","method":"photovoltaic"}},{"type":"Feature","geometry":{"type":"Point","coordinates":[10.43393,47.83031]},"properties":{"id":"way/56212553","name":"Unnamed site","fuel":"solar","source":"solar","method":"photovoltaic"}},{"type":"Feature","geometry":{"type":"Point","coordinates":[12.61773,51.14874]},"properties":{"id":"way/56223637","name":"PVA Bad Lausick I","fuel":"solar","source":"solar","method":"photovoltaic","capacityMW":1.4,"operator":"Bürgersolarkraftwerke Bad Lausick GmbH","start":"05.04.2012"}},{"type":"Feature","geometry":{"type":"Point","coordinates":[11.87,47.87396]},"properties":{"id":"way/56322288","name":"Pumpspeicherkraftwerk Leitzach","fuel":"pumped","source":"hydro","method":"water-pumped-storage","capacityMW":98.8,"operator":"Stadtwerke München GmbH"}},{"type":"Feature","geometry":{"type":"Point","coordinates":[10.8337,49.3596]},"properties":{"id":"way/56453423","name":"Unnamed site","fuel":"solar","source":"solar","method":"photovoltaic"}},{"type":"Feature","geometry":{"type":"Point","coordinates":[12.60955,51.10932]},"properties":{"id":"way/56681173","name":"BGA Prießnitz BHKW","fuel":"bioenergy","source":"biomass","method":"anaerobic_digestion","capacityMW":1.267,"operator":"Prießnitzer Agrar GmbH","start":"21.12.2007"}},{"type":"Feature","geometry":{"type":"Point","coordinates":[12.24367,51.11278]},"properties":{"id":"way/56890307","name":"Biogasanlage Kleinprießigk","fuel":"bioenergy","source":"biomass","method":"anaerobic_digestion","capacityMW":1.114,"operator":"Landtechnisches Zentrum Auligk GmbH","start":"14.05.2008"}},{"type":"Feature","geometry":{"type":"Point","coordinates":[12.25863,51.12457]},"properties":{"id":"way/56953428","name":"Satelliten BHKW des Landtechnischen Zentrums Auligk GmbH","fuel":"bioenergy","source":"biogas","method":"combustion","capacityMW":0.365,"operator":"Auligk Agrar GmbH","start":"20.12.2011"}},{"type":"Feature","geometry":{"type":"Point","coordinates":[11.598,50.89637]},"properties":{"id":"way/57908176","name":"Saalekraftwerk Jena - Burgau","fuel":"hydro","source":"hydro","method":"run-of-the-river","capacityMW":1.3}},{"type":"Feature","geometry":{"type":"Point","coordinates":[14.35601,51.5344]},"properties":{"id":"way/58421134","name":"Kraftwerk Schwarze Pumpe","fuel":"coal","source":"coal","method":"combustion","capacityMW":1600,"operator":"LEAG - Lausitz Energie Kraftwerke AG"}},{"type":"Feature","geometry":{"type":"Point","coordinates":[6.38664,50.91535]},"properties":{"id":"way/58428350","name":"Solarthermisches Versuchskraftwerk Jülich","fuel":"solar","source":"solar","method":"thermal","capacityMW":1.5,"operator":"Deutsches Zentrum für Luft- und Raumfahrt"}},{"type":"Feature","geometry":{"type":"Point","coordinates":[7.45193,51.40037]},"properties":{"id":"way/59048524","name":"Laufwasserkraftwerk Hengstey","fuel":"hydro","source":"hydro","method":"run-of-the-river","capacityMW":3.3,"operator":"RWE Generation"}},{"type":"Feature","geometry":{"type":"Point","coordinates":[8.35393,51.80745]},"properties":{"id":"way/59502560","name":"Unnamed site","fuel":"bioenergy","source":"biomass","method":"anaerobic_digestion","capacityMW":4,"operator":"Hansmeier"}},{"type":"Feature","geometry":{"type":"Point","coordinates":[9.87071,49.68396]},"properties":{"id":"way/59580670","name":"Solarpark Moos 1","fuel":"solar","source":"solar","method":"photovoltaic","capacityMW":15.82,"operator":"Phoenix Solar AG"}},{"type":"Feature","geometry":{"type":"Point","coordinates":[8.48609,51.34375]},"properties":{"id":"way/59633890","name":"Wasserkraftwerk Steinhelle 1","fuel":"hydro","source":"hydro","method":"run-of-the-river","capacityMW":2.25,"operator":"RWE"}},{"type":"Feature","geometry":{"type":"Point","coordinates":[8.53475,49.47777]},"properties":{"id":"way/59701027","name":"Wasserkraftwerk Feudenheim","fuel":"hydro","source":"hydro","method":"run-of-the-river","capacityMW":5}},{"type":"Feature","geometry":{"type":"Point","coordinates":[9.08295,52.48204]},"properties":{"id":"way/60038972","name":"Wasserkraftwerk Schlüsselburg","fuel":"hydro","source":"hydro","method":"run-of-the-river","capacityMW":5,"operator":"Statkraft"}},{"type":"Feature","geometry":{"type":"Point","coordinates":[12.55675,48.89723]},"properties":{"id":"way/60121839","name":"Kraftwerk Straubing","fuel":"hydro","source":"hydro","method":"run-of-the-river","capacityMW":21.5,"operator":"Uniper Kraftwerke"}},{"type":"Feature","geometry":{"type":"Point","coordinates":[7.72736,48.40407]},"properties":{"id":"way/60139700","name":"Centrale hydroélectrique de Gerstheim","fuel":"hydro","source":"hydro","method":"run-of-the-river","capacityMW":140,"operator":"Électricité de France"}},{"type":"Feature","geometry":{"type":"Point","coordinates":[12.07784,49.0281]},"properties":{"id":"way/60196427","name":"Laufwasserkraftwerk Regensburg","fuel":"hydro","source":"hydro","method":"run-of-the-river","capacityMW":7.2,"operator":"Uniper Kraftwerke","start":"1977"}},{"type":"Feature","geometry":{"type":"Point","coordinates":[10.36027,53.4329]},"properties":{"id":"way/60709185","name":"Heizkraftwerk Hafencity","fuel":"gas","source":"gas","method":"combustion","operator":"Stadtwerke Geesthacht"}},{"type":"Feature","geometry":{"type":"Point","coordinates":[9.99874,50.89127]},"properties":{"id":"way/60910519","name":"EEW Standort Heringen","fuel":"waste","source":"waste","method":"combustion","operator":"EEW Energy from Waste GmbH","start":"2009"}},{"type":"Feature","geometry":{"type":"Point","coordinates":[11.02093,48.73589]},"properties":{"id":"way/60966541","name":"Kraftwerk Bertoldsheim","fuel":"hydro","source":"hydro","method":"run-of-the-river","capacityMW":18.9,"operator":"Uniper Kraftwerke","start":"1967"}},{"type":"Feature","geometry":{"type":"Point","coordinates":[8.85427,54.814]},"properties":{"id":"way/60982780","name":"Unnamed site","fuel":"solar","source":"solar","method":"photovoltaic"}},{"type":"Feature","geometry":{"type":"Point","coordinates":[13.21501,52.62776]},"properties":{"id":"way/61154759","name":"Biomasse Heizkraftwerk","fuel":"bioenergy","source":"biomass","method":"combustion"}},{"type":"Feature","geometry":{"type":"Point","coordinates":[7.03482,49.33972]},"properties":{"id":"way/61215376","name":"Solarkraftwerk Göttelborn","fuel":"solar","source":"solar","method":"photovoltaic","capacityMW":8.3,"operator":"greentech"}},{"type":"Feature","geometry":{"type":"Point","coordinates":[14.39742,51.14172]},"properties":{"id":"way/61904415","name":"Unnamed site","fuel":"hydro","source":"hydro","method":"run-of-the-river"}},{"type":"Feature","geometry":{"type":"Point","coordinates":[9.96496,48.37415]},"properties":{"id":"way/61940676","name":"Donaukraftwerk Wiblingen","fuel":"hydro","source":"hydro","capacityMW":1.25}},{"type":"Feature","geometry":{"type":"Point","coordinates":[11.32517,48.2054]},"properties":{"id":"way/62117967","name":"Wasserkraftwerk Olching I","fuel":"hydro","source":"hydro","method":"run-of-the-river","capacityMW":0.63,"operator":"Amper-Kraftwerke-Olching","start":"1884"}},{"type":"Feature","geometry":{"type":"Point","coordinates":[9.95518,48.36399]},"properties":{"id":"way/63107387","name":"Müllheizkraftwerk Ulm-Donautal","fuel":"waste","source":"waste","method":"combustion","capacityMW":8.2,"start":"1997"}},{"type":"Feature","geometry":{"type":"Point","coordinates":[11.60121,48.77813]},"properties":{"id":"way/63528480","name":"Laufwasserkraftwerk Vohburg","fuel":"hydro","source":"hydro","method":"run-of-the-river","capacityMW":23.3,"operator":"Uniper Kraftwerke"}},{"type":"Feature","geometry":{"type":"Point","coordinates":[12.78953,48.26104]},"properties":{"id":"way/64096392","name":"Laufwasserkraftwerk Perach","fuel":"hydro","source":"hydro","method":"run-of-the-river","capacityMW":19.4,"operator":"Verbund"}},{"type":"Feature","geometry":{"type":"Point","coordinates":[9.70958,51.4082]},"properties":{"id":"way/64270658","name":"Laufwasserkraftwerk Letzter Heller","fuel":"hydro","source":"hydro","method":"run-of-the-river","capacityMW":2.6}},{"type":"Feature","geometry":{"type":"Point","coordinates":[11.35171,48.28803]},"properties":{"id":"way/64294324","name":"Biogasanlage Strasser","fuel":"bioenergy","source":"biomass","method":"anaerobic_digestion"}},{"type":"Feature","geometry":{"type":"Point","coordinates":[9.26291,48.65338]},"properties":{"id":"way/64468263","name":"Unnamed site","fuel":"bioenergy","source":"biogas"}},{"type":"Feature","geometry":{"type":"Point","coordinates":[10.34862,54.19631]},"properties":{"id":"way/65265718","name":"Unnamed site","fuel":"bioenergy","source":"biomass"}},{"type":"Feature","geometry":{"type":"Point","coordinates":[6.63738,51.38017]},"properties":{"id":"way/65355156","name":"Müll und Klärschlamm Verbrennungsanlage Krefeld","fuel":"waste","source":"waste","method":"combustion"}},{"type":"Feature","geometry":{"type":"Point","coordinates":[10.00362,50.88745]},"properties":{"id":"way/66390781","name":"Werramühle","fuel":"hydro","source":"hydro","method":"run-of-the-river","capacityMW":0.185,"operator":"RENERTEC GmbH","start":"1927-08-20"}},{"type":"Feature","geometry":{"type":"Point","coordinates":[10.46921,48.12258]},"properties":{"id":"way/66607439","name":"Unnamed site","fuel":"solar","source":"solar","method":"photovoltaic"}},{"type":"Feature","geometry":{"type":"Point","coordinates":[12.43819,51.15727]},"properties":{"id":"way/66672190","name":"Bullenmastanlage (BGH Kahnsdorf)","fuel":"bioenergy","source":"biomass","method":"anaerobic_digestion","capacityMW":0.6,"operator":"Rose Kälber GmbH","start":"28.12.2010"}},{"type":"Feature","geometry":{"type":"Point","coordinates":[10.29676,48.75757]},"properties":{"id":"way/67407703","name":"Unnamed site","fuel":"other"}},{"type":"Feature","geometry":{"type":"Point","coordinates":[10.30953,48.8037]},"properties":{"id":"way/67410124","name":"Kettenäcker","fuel":"solar","source":"solar","method":"photovoltaic"}},{"type":"Feature","geometry":{"type":"Point","coordinates":[7.01175,50.0039]},"properties":{"id":"way/67624926","name":"Unnamed site","fuel":"solar","source":"solar","method":"photovoltaic"}},{"type":"Feature","geometry":{"type":"Point","coordinates":[9.54118,50.55308]},"properties":{"id":"way/67826907","name":"Biogaspark Großenlüder","fuel":"bioenergy","source":"biomass","method":"anaerobic_digestion","operator":"Biothan GmbH"}},{"type":"Feature","geometry":{"type":"Point","coordinates":[13.05828,50.67368]},"properties":{"id":"way/69045518","name":"Wasserkraftwerk Hopfgarten","fuel":"hydro","source":"hydro","method":"run-of-the-river"}},{"type":"Feature","geometry":{"type":"Point","coordinates":[11.65955,48.10166]},"properties":{"id":"way/69583243","name":"Heizwerk Perlach","fuel":"gas","source":"gas","method":"combustion","operator":"SWM - Stadtwerke München"}},{"type":"Feature","geometry":{"type":"Point","coordinates":[13.3966,50.92935]},"properties":{"id":"way/69995995","name":"PV Ziegelscheune","fuel":"solar","source":"solar","method":"photovoltaic","capacityMW":8.2,"start":"2021"}},{"type":"Feature","geometry":{"type":"Point","coordinates":[10.7726,51.8445]},"properties":{"id":"way/70174792","name":"Blockheizkraftwerk Harzblick","fuel":"gas","source":"gas","method":"combustion","operator":"Stadtwerke Wernigerode"}},{"type":"Feature","geometry":{"type":"Point","coordinates":[10.39368,53.41911]},"properties":{"id":"way/70603360","name":"Pumpspeicherkraftwerk Geesthacht","fuel":"pumped","source":"hydro","method":"water-pumped-storage","capacityMW":120,"operator":"Vattenfall GmbH","start":"1958-02-14"}},{"type":"Feature","geometry":{"type":"Point","coordinates":[11.09229,51.8969]},"properties":{"id":"way/71144487","name":"Solarpark Asperg Zweite I+II","fuel":"solar","source":"solar","method":"photovoltaic","capacityMW":3.795,"operator":"Asperg Zweite Solar GmbH"}},{"type":"Feature","geometry":{"type":"Point","coordinates":[9.06847,48.06489]},"properties":{"id":"way/71209395","name":"Solarpark Kreenheinstetten","fuel":"solar","source":"solar","method":"photovoltaic","capacityMW":2.1,"operator":"EnBW"}},{"type":"Feature","geometry":{"type":"Point","coordinates":[10.51633,52.2778]},"properties":{"id":"way/238025902","name":"Heizkraftwerk Mitte","fuel":"gas","source":"gas;coal;oil","method":"combustion","capacityMW":137,"operator":"BS Energy","start":"1928"}},{"type":"Feature","geometry":{"type":"Point","coordinates":[12.85485,51.32983]},"properties":{"id":"way/73592953","name":"B Kraftwerk + Miet BHKW","fuel":"bioenergy","source":"biomass","method":"anaerobic_digestion","capacityMW":0.34,"start":"30.12.2013"}},{"type":"Feature","geometry":{"type":"Point","coordinates":[9.15288,52.96269]},"properties":{"id":"way/74048110","name":"Wasserkraftwerk Langwedel","fuel":"hydro","source":"hydro","method":"run-of-the-river","capacityMW":7.2,"operator":"Statkraft","start":"1958"}},{"type":"Feature","geometry":{"type":"Point","coordinates":[8.05425,51.49046]},"properties":{"id":"way/74064185","name":"Möhne Hauptkraftwerk","fuel":"hydro","source":"hydro","method":"water-storage","capacityMW":7,"operator":"Lister- und Lennekraftwerke GmbH"}},{"type":"Feature","geometry":{"type":"Point","coordinates":[8.06971,52.06229]},"properties":{"id":"way/74072968","name":"Unnamed site","fuel":"bioenergy","source":"biomass","method":"anaerobic_digestion"}},{"type":"Feature","geometry":{"type":"Point","coordinates":[10.91551,50.86893]},"properties":{"id":"way/74875379","name":"Solarkraftwerk Rehestädt","fuel":"solar","source":"solar","method":"photovoltaic","capacityMW":0.444,"start":"2008-06"}},{"type":"Feature","geometry":{"type":"Point","coordinates":[11.34916,49.37168]},"properties":{"id":"way/75042441","name":"Wasserkraftwerk Prethalmühle","fuel":"hydro","source":"hydro","method":"run-of-the-river"}},{"type":"Feature","geometry":{"type":"Point","coordinates":[11.66708,48.25715]},"properties":{"id":"way/75111191","name":"Geothermieheizwerk Garching","fuel":"other","source":"geothermal;gas","capacityMW":0.55,"operator":"Energie-Wende-Garching GmbH & Co. KG","start":"2011"}},{"type":"Feature","geometry":{"type":"Point","coordinates":[11.5289,48.29767]},"properties":{"id":"way/75116624","name":"E-Werk 2","fuel":"hydro","source":"hydro","method":"run-of-the-river","capacityMW":0.05,"operator":"E-Werke Haniel","start":"1950"}},{"type":"Feature","geometry":{"type":"Point","coordinates":[12.12251,50.12742]},"properties":{"id":"way/75475252","name":"Unnamed site","fuel":"hydro","source":"hydro"}},{"type":"Feature","geometry":{"type":"Point","coordinates":[9.98963,53.68645]},"properties":{"id":"way/75589386","name":"Heizwerk Lütjenmoor","fuel":"gas","source":"gas","method":"combustion","operator":"Stadtwerke Norderstedt"}},{"type":"Feature","geometry":{"type":"Point","coordinates":[12.56682,48.81369]},"properties":{"id":"way/76027060","name":"Unnamed site","fuel":"solar","source":"solar","method":"photovoltaic","operator":"Bio-Energie Sagstetter & Maurer"}},{"type":"Feature","geometry":{"type":"Point","coordinates":[10.86538,48.54674]},"properties":{"id":"way/76246150","name":"Kraftwerk Meitingen","fuel":"hydro","source":"hydro","method":"run-of-the-river","capacityMW":11.3,"operator":"Lechwerke","start":"1922"}},{"type":"Feature","geometry":{"type":"Point","coordinates":[6.94715,51.21684]},"properties":{"id":"way/76767596","name":"Blockheizkraftwerk am Klinkerweg","fuel":"gas","source":"gas","method":"combustion","capacityMW":3.5,"operator":"RWE"}},{"type":"Feature","geometry":{"type":"Point","coordinates":[10.32805,48.01631]},"properties":{"id":"way/77042631","name":"Solarpark im Lohe","fuel":"solar","source":"solar","method":"photovoltaic"}},{"type":"Feature","geometry":{"type":"Point","coordinates":[12.62482,50.98742]},"properties":{"id":"way/77185074","name":"BGA Meusdorf","fuel":"bioenergy","source":"biomass","method":"anaerobic_digestion","capacityMW":1.8,"operator":"Meusdorfer Biogas GmbH"}},{"type":"Feature","geometry":{"type":"Point","coordinates":[11.31014,48.21514]},"properties":{"id":"way/77381236","name":"Unnamed site","fuel":"solar","source":"solar","method":"photovoltaic"}},{"type":"Feature","geometry":{"type":"Point","coordinates":[8.762,50.1293]},"properties":{"id":"way/77512927","name":"Biomasse Kraftwerk Fechenheim","fuel":"bioenergy","source":"biomass"}},{"type":"Feature","geometry":{"type":"Point","coordinates":[12.21877,48.58297]},"properties":{"id":"way/77694915","name":"Wasserkraftwerk Altheim","fuel":"hydro","source":"hydro","method":"run-of-the-river","capacityMW":17.8,"operator":"Uniper Kraftwerke"}},{"type":"Feature","geometry":{"type":"Point","coordinates":[10.1069,48.25633]},"properties":{"id":"way/77838467","name":"Solarpark Bellenberg","fuel":"solar","source":"solar","method":"photovoltaic"}},{"type":"Feature","geometry":{"type":"Point","coordinates":[14.11653,51.44717]},"properties":{"id":"way/77888957","name":"Unnamed site","fuel":"solar","source":"solar","method":"photovoltaic"}},{"type":"Feature","geometry":{"type":"Point","coordinates":[9.63878,51.02201]},"properties":{"id":"way/78068910","name":"Solarpark \"Auf den Schächten\"","fuel":"solar","source":"solar","method":"photovoltaic","capacityMW":0.3185,"operator":"KDS Solarpark Mittleres Fuldatal GmbH & Co.KG"}},{"type":"Feature","geometry":{"type":"Point","coordinates":[9.67749,51.03899]},"properties":{"id":"way/78224377","name":"Unnamed site","fuel":"bioenergy","source":"biomass","method":"anaerobic_digestion","capacityMW":0.5,"operator":"BIO Power Alheim"}},{"type":"Feature","geometry":{"type":"Point","coordinates":[9.68923,51.02956]},"properties":{"id":"way/78330117","name":"Unnamed site","fuel":"solar","source":"solar","capacityMW":0.152}},{"type":"Feature","geometry":{"type":"Point","coordinates":[9.13293,51.14741]},"properties":{"id":"way/78400631","name":"Unnamed site","fuel":"solar","source":"solar"}},{"type":"Feature","geometry":{"type":"Point","coordinates":[9.13504,51.14791]},"properties":{"id":"way/78425050","name":"Unnamed site","fuel":"solar","source":"solar"}},{"type":"Feature","geometry":{"type":"Point","coordinates":[12.7982,51.3398]},"properties":{"id":"way/78442904","name":"BGA Mühlbach","fuel":"bioenergy","source":"biomass","method":"anaerobic_digestion","capacityMW":0.075,"start":"19.10.2018"}},{"type":"Feature","geometry":{"type":"Point","coordinates":[6.01493,50.84552]},"properties":{"id":"way/78460273","name":"Zonnepark Kerkrade","fuel":"solar","source":"solar","method":"photovoltaic","capacityMW":14.8,"operator":"RWE","start":"21-04-2021"}},{"type":"Feature","geometry":{"type":"Point","coordinates":[7.60313,51.96702]},"properties":{"id":"way/79685025","name":"Heizkraftwerk der Universität Münster","fuel":"other","operator":"Universität Münster"}},{"type":"Feature","geometry":{"type":"Point","coordinates":[10.26639,52.37817]},"properties":{"id":"way/79691058","name":"Biogasanlage Edemissen","fuel":"bioenergy","source":"biomass","method":"anaerobic_digestion"}},{"type":"Feature","geometry":{"type":"Point","coordinates":[8.02164,53.05438]},"properties":{"id":"way/80298227","name":"Unnamed site","fuel":"bioenergy","source":"biomass","method":"anaerobic_digestion"}},{"type":"Feature","geometry":{"type":"Point","coordinates":[13.40148,52.48311]},"properties":{"id":"way/80728606","name":"Unnamed site","fuel":"other"}},{"type":"Feature","geometry":{"type":"Point","coordinates":[11.57944,48.35917]},"properties":{"id":"way/81085209","name":"Unnamed site","fuel":"other"}},{"type":"Feature","geometry":{"type":"Point","coordinates":[11.31498,50.04842]},"properties":{"id":"way/81235921","name":"Unnamed site","fuel":"solar","source":"solar","method":"photovoltaic","capacityMW":4.99,"operator":"Eurosol Bavaria"}},{"type":"Feature","geometry":{"type":"Point","coordinates":[9.97217,53.59105]},"properties":{"id":"way/81267301","name":"W16 Heizwerk Eppendorf UKE","fuel":"other","operator":"Vattenfall"}},{"type":"Feature","geometry":{"type":"Point","coordinates":[9.15459,51.12041]},"properties":{"id":"way/81390253","name":"Unnamed site","fuel":"solar","source":"solar","method":"photovoltaic"}},{"type":"Feature","geometry":{"type":"Point","coordinates":[10.9638,48.28994]},"properties":{"id":"way/81751046","name":"Unnamed site","fuel":"solar","source":"solar","method":"photovoltaic"}},{"type":"Feature","geometry":{"type":"Point","coordinates":[11.37513,50.08776]},"properties":{"id":"way/82254458","name":"Unnamed site","fuel":"solar","source":"solar"}},{"type":"Feature","geometry":{"type":"Point","coordinates":[7.37477,52.44512]},"properties":{"id":"way/82488950","name":"Unnamed site","fuel":"bioenergy","source":"biomass"}},{"type":"Feature","geometry":{"type":"Point","coordinates":[7.66249,50.47072]},"properties":{"id":"way/83113873","name":"Unnamed site","fuel":"solar","source":"solar","method":"photovoltaic","capacityMW":0.37464,"operator":"Reusch Energieanlagen UG"}},{"type":"Feature","geometry":{"type":"Point","coordinates":[9.97767,53.86527]},"properties":{"id":"way/83173964","name":"EnergieHof Schmalfeld","fuel":"bioenergy","source":"biomass"}},{"type":"Feature","geometry":{"type":"Point","coordinates":[12.19871,47.64141]},"properties":{"id":"way/83231884","name":"Wasserkraftwerk Oberaudorf-Ebbs","fuel":"hydro","source":"hydro","method":"run-of-the-river","capacityMW":59,"operator":"Österreichisch-Bayerische Kraftwerke AG"}},{"type":"Feature","geometry":{"type":"Point","coordinates":[8.13303,47.58597]},"properties":{"id":"way/83348196","name":"Rheinkraftwerk Albbruck-Dogern","fuel":"hydro","source":"hydro","method":"run-of-the-river","capacityMW":79.5,"operator":"RADAG"}},{"type":"Feature","geometry":{"type":"Point","coordinates":[11.13199,48.33357]},"properties":{"id":"way/83675181","name":"Unnamed site","fuel":"bioenergy","source":"biomass","method":"anaerobic_digestion"}},{"type":"Feature","geometry":{"type":"Point","coordinates":[7.2519,51.41391]},"properties":{"id":"way/83818512","name":"Wasserkraftwerk Kemnader See","fuel":"hydro","source":"hydro","method":"run-of-the-river","capacityMW":0.75,"operator":"Ruhrverband","start":"2011-10"}},{"type":"Feature","geometry":{"type":"Point","coordinates":[10.67148,53.85727]},"properties":{"id":"way/83871962","name":"56","fuel":"other"}},{"type":"Feature","geometry":{"type":"Point","coordinates":[11.89628,52.5847]},"properties":{"id":"way/84668792","name":"Unnamed site","fuel":"solar","source":"solar","method":"photovoltaic","capacityMW":1.8,"operator":"CS Solarpark Stendal Germany GmbH","start":"2013"}},{"type":"Feature","geometry":{"type":"Point","coordinates":[6.62967,49.8284]},"properties":{"id":"way/84760383","name":"PV Butz BA1","fuel":"solar","source":"solar","method":"photovoltaic","capacityMW":0.7392000000000001,"start":"2017-10-06"}},{"type":"Feature","geometry":{"type":"Point","coordinates":[10.84337,51.85224]},"properties":{"id":"way/84838855","name":"Unnamed site","fuel":"bioenergy","source":"biomass","method":"anaerobic_digestion"}},{"type":"Feature","geometry":{"type":"Point","coordinates":[12.28128,49.55226]},"properties":{"id":"way/84976923","name":"Pumpspeicherkraftwerk Tanzmühle","fuel":"pumped","source":"hydro","method":"water-pumped-storage","capacityMW":38,"operator":"EDF SUEZ"}},{"type":"Feature","geometry":{"type":"Point","coordinates":[9.32007,49.7543]},"properties":{"id":"way/85023712","name":"Wasserkraftwerk Freudenberg","fuel":"hydro","source":"hydro","method":"run-of-the-river","capacityMW":4.3,"operator":"Uniper Kraftwerke"}},{"type":"Feature","geometry":{"type":"Point","coordinates":[12.13452,47.74465]},"properties":{"id":"way/85054742","name":"Laufwasserkraftwerk Nußdorf","fuel":"hydro","source":"hydro","method":"run-of-the-river","capacityMW":48,"operator":"Österreichisch-Bayerische Kraftwerke AG"}},{"type":"Feature","geometry":{"type":"Point","coordinates":[13.68597,54.14648]},"properties":{"id":"way/85572355","name":"Unnamed site","fuel":"solar","source":"solar"}},{"type":"Feature","geometry":{"type":"Point","coordinates":[12.26262,51.21955]},"properties":{"id":"way/85664791","name":"BHKW 1 (alt) +Flex BHKW 2G +ORC-Anlage 2G","fuel":"bioenergy","source":"biomass","method":"anaerobic_digestion","capacityMW":1.187,"operator":"Agrargenossenschaft Großdalzig e.G.","start":"28.12.2011"}},{"type":"Feature","geometry":{"type":"Point","coordinates":[10.16949,48.00169]},"properties":{"id":"way/85674357","name":"e-con","fuel":"other"}},{"type":"Feature","geometry":{"type":"Point","coordinates":[11.9731,51.35751]},"properties":{"id":"way/85835608","name":"Heizkraftwerk Merseburg West","fuel":"other"}},{"type":"Feature","geometry":{"type":"Point","coordinates":[9.62039,52.35738]},"properties":{"id":"way/85849893","name":"Biogas Anlage Lenthe","fuel":"bioenergy","source":"biomass","method":"anaerobic_digestion"}},{"type":"Feature","geometry":{"type":"Point","coordinates":[10.17163,53.81732]},"properties":{"id":"way/86814433","name":"Biogasanlage Itzstedt","fuel":"bioenergy","source":"biomass","method":"anaerobic_digestion","operator":"Itzstedt C4 Energie"}},{"type":"Feature","geometry":{"type":"Point","coordinates":[7.92867,51.67421]},"properties":{"id":"way/86959302","name":"GuD-Kraftwerk Hamm-Uentrop","fuel":"gas","source":"gas","method":"combustion","capacityMW":850,"operator":"Trianel Gaskraftwerk Hamm GmbH & Co. KG"}},{"type":"Feature","geometry":{"type":"Point","coordinates":[10.32249,47.70763]},"properties":{"id":"way/87261687","name":"Iller-Kraftwerk Drahtzug","fuel":"hydro","source":"hydro","method":"run-of-the-river"}},{"type":"Feature","geometry":{"type":"Point","coordinates":[10.31855,47.69819]},"properties":{"id":"way/87261690","name":"Wasserkraftwerk Felsenwehr","fuel":"hydro","source":"hydro","method":"run-of-the-river","capacityMW":2.925,"operator":"Allgäuer Überlandwerk","start":"1851"}},{"type":"Feature","geometry":{"type":"Point","coordinates":[11.83482,52.60647]},"properties":{"id":"way/87315870","name":"Heizkraftwerk Schillerstraße","fuel":"gas","source":"gas","method":"combustion","capacityMW":13.2,"operator":"Stadtwerke Stendal"}},{"type":"Feature","geometry":{"type":"Point","coordinates":[14.64021,52.17373]},"properties":{"id":"way/87422984","name":"Industrieheizkraftwerk Eisenhüttenstadt","fuel":"waste","source":"waste","method":"combustion","capacityMW":32,"operator":"ProPower GmbH"}},{"type":"Feature","geometry":{"type":"Point","coordinates":[12.77823,51.3823]},"properties":{"id":"way/87531743","name":"Solarkraftwerk Lüptitz","fuel":"solar","source":"solar","method":"photovoltaic","capacityMW":1.553,"operator":"SKW Solarkraftwerk Lüptitz GmbH","start":"2010-06-24"}},{"type":"Feature","geometry":{"type":"Point","coordinates":[12.82695,51.35655]},"properties":{"id":"way/87744198","name":"BhkW 1+2","fuel":"bioenergy","source":"biomass","method":"anaerobic_digestion","capacityMW":0.53,"operator":"Biogasanlage Trebelshain Neuber GbR"}},{"type":"Feature","geometry":{"type":"Point","coordinates":[12.79705,51.36293]},"properties":{"id":"way/87744244","name":"Solarpark Körlitz","fuel":"solar","source":"solar","method":"photovoltaic","capacityMW":2,"operator":"Jonas&Redmann Solarpark 1 GmbH ＆ Co.KG","start":"29.06.2012"}},{"type":"Feature","geometry":{"type":"Point","coordinates":[11.39668,53.57812]},"properties":{"id":"way/87798839","name":"Heizkraftwerk Schwerin Süd","fuel":"gas","source":"gas","method":"combustion","capacityMW":54.2,"operator":"Stadtwerke Schwerin"}},{"type":"Feature","geometry":{"type":"Point","coordinates":[12.68476,51.0589]},"properties":{"id":"way/87931151","name":"BHKW Geithain","fuel":"gas","source":"gas","method":"combustion","capacityMW":2,"operator":"Iqony Energies GmbH","start":"18.12.2013"}},{"type":"Feature","geometry":{"type":"Point","coordinates":[10.3224,47.71182]},"properties":{"id":"way/87980300","name":"Unnamed site","fuel":"hydro","source":"hydro","method":"run-of-the-river"}},{"type":"Feature","geometry":{"type":"Point","coordinates":[10.14133,48.70084]},"properties":{"id":"way/88119862","name":"Blockheizkraftwerk Mittelrain","fuel":"gas","source":"gas","method":"combustion","operator":"Stadtwerke Heidenheim"}},{"type":"Feature","geometry":{"type":"Point","coordinates":[10.33743,50.31944]},"properties":{"id":"way/88274331","name":"Unnamed site","fuel":"solar","source":"solar","method":"photovoltaic"}},{"type":"Feature","geometry":{"type":"Point","coordinates":[8.94854,47.7423]},"properties":{"id":"way/88357723","name":"Solarpark Hundertjauchert","fuel":"solar","source":"solar","method":"photovoltaic","capacityMW":1,"start":"2010"}},{"type":"Feature","geometry":{"type":"Point","coordinates":[10.81733,52.76457]},"properties":{"id":"way/88387097","name":"Unnamed site","fuel":"other"}},{"type":"Feature","geometry":{"type":"Point","coordinates":[9.00488,47.76844]},"properties":{"id":"way/88489267","name":"Heizzentrale Möggingen","fuel":"bioenergy","source":"biomass;biogas","capacityMW":0.316,"operator":"Stadtwerke Radolfzell","start":"2010"}},{"type":"Feature","geometry":{"type":"Point","coordinates":[11.28166,48.19692]},