{"type":"FeatureCollection","features":[{"type":"Feature","geometry":{"type":"Point","coordinates":[12.48171,55.60251]},"properties":{"id":"way/25134192","name":"Avedøreværket","fuel":"bioenergy","source":"biomass","method":"combustion","capacityMW":648,"operator":"Ørsted","start":"1990","osmType":"way"}},{"type":"Feature","geometry":{"type":"Point","coordinates":[10.15757,56.22849]},"properties":{"id":"way/47133215","name":"AffaldsCentret","fuel":"bioenergy","source":"biomass","method":null,"capacityMW":null,"operator":null,"start":null,"osmType":"way"}},{"type":"Feature","geometry":{"type":"Point","coordinates":[10.04909,56.45921]},"properties":{"id":"way/56304151","name":"Verdo","fuel":"other","source":null,"method":null,"capacityMW":null,"operator":null,"start":null,"osmType":"way"}},{"type":"Feature","geometry":{"type":"Point","coordinates":[9.6135,55.51184]},"properties":{"id":"way/58507311","name":"Skærbækværket","fuel":"gas","source":"gas;biomass","method":"combustion","capacityMW":392,"operator":"Ørsted","start":null,"osmType":"way"}},{"type":"Feature","geometry":{"type":"Point","coordinates":[10.40918,55.42914]},"properties":{"id":"way/93418698","name":"Fynsværket","fuel":"gas","source":"gas;biomass;waste","method":"combustion","capacityMW":311,"operator":"Fjernvarme Fyn","start":"1953","osmType":"way"}},{"type":"Feature","geometry":{"type":"Point","coordinates":[10.34543,56.24971]},"properties":{"id":"way/93624836","name":"Studstrupværket","fuel":"bioenergy","source":"biomass;oil;coal","method":"combustion","capacityMW":700,"operator":"Ørested","start":"1968","osmType":"way"}},{"type":"Feature","geometry":{"type":"Point","coordinates":[9.09008,56.89159]},"properties":{"id":"way/96410274","name":"Livø Kraftværk","fuel":"oil","source":"oil","method":"combustion","capacityMW":0.108,"operator":null,"start":null,"osmType":"way"}},{"type":"Feature","geometry":{"type":"Point","coordinates":[10.04126,57.07487]},"properties":{"id":"way/98212653","name":"Nordjyllandsværket","fuel":"coal","source":"coal","method":"combustion","capacityMW":383,"operator":"Aalborg Kommune","start":"1967","osmType":"way"}},{"type":"Feature","geometry":{"type":"Point","coordinates":[8.50848,55.46181]},"properties":{"id":"way/98711353","name":"Unnamed site","fuel":"other","source":null,"method":null,"capacityMW":null,"operator":"Energnist A/S","start":null,"osmType":"way"}},{"type":"Feature","geometry":{"type":"Point","coordinates":[9.60236,56.35408]},"properties":{"id":"way/99389015","name":"Tangeværket","fuel":"hydro","source":"hydro","method":"water-storage","capacityMW":3.3,"operator":"Gudenaacentralen AN/S","start":"1920","osmType":"way"}},{"type":"Feature","geometry":{"type":"Point","coordinates":[9.17294,55.46885]},"properties":{"id":"way/99857155","name":"Vejen Varmeværk","fuel":"bioenergy","source":"biomass","method":"combustion","capacityMW":null,"operator":"Vejen Varmeværk","start":null,"osmType":"way"}},{"type":"Feature","geometry":{"type":"Point","coordinates":[9.85698,55.85233]},"properties":{"id":"way/100807030","name":"Horsens Kraftvarmeværk","fuel":"waste","source":"waste","method":"combustion","capacityMW":35,"operator":null,"start":null,"osmType":"way"}},{"type":"Feature","geometry":{"type":"Point","coordinates":[10.11441,56.48795]},"properties":{"id":"way/102475625","name":"Gimming Solcellepark","fuel":"solar","source":"solar","method":"photovoltaic","capacityMW":18,"operator":"Google og Better Energy","start":"2020-05-15","osmType":"way"}},{"type":"Feature","geometry":{"type":"Point","coordinates":[12.62244,55.68636]},"properties":{"id":"way/105082474","name":"Geotermiske varmepumper","fuel":"other","source":"geothermal;steam","method":null,"capacityMW":null,"operator":"HOFOR","start":null,"osmType":"way"}},{"type":"Feature","geometry":{"type":"Point","coordinates":[9.42422,55.50258]},"properties":{"id":"way/105970471","name":"Harteværket","fuel":"hydro","source":"hydro","method":"run-of-the-river","capacityMW":1,"operator":"Fonden Harteværket","start":"1920","osmType":"way"}},{"type":"Feature","geometry":{"type":"Point","coordinates":[9.30631,55.4262]},"properties":{"id":"way/115710228","name":"Unnamed site","fuel":"solar","source":"solar","method":"photovoltaic","capacityMW":null,"operator":null,"start":null,"osmType":"way"}},{"type":"Feature","geometry":{"type":"Point","coordinates":[8.63851,56.35188]},"properties":{"id":"way/117481899","name":"Holstebro Vandkraftværk","fuel":"hydro","source":"hydro","method":"water-storage","capacityMW":0.9,"operator":null,"start":"1942","osmType":"way"}},{"type":"Feature","geometry":{"type":"Point","coordinates":[8.57691,55.4639]},"properties":{"id":"way/122949675","name":"Tjæreborg Varmeværk","fuel":"oil","source":"oil","method":"combustion","capacityMW":null,"operator":"DIN Forsyning","start":"1965","osmType":"way"}},{"type":"Feature","geometry":{"type":"Point","coordinates":[10.03165,57.45385]},"properties":{"id":"relation/7660716","name":"Unnamed site","fuel":"other","source":null,"method":null,"capacityMW":null,"operator":null,"start":null,"osmType":"relation"}},{"type":"Feature","geometry":{"type":"Point","coordinates":[11.88333,54.99559]},"properties":{"id":"way/131443951","name":"Masnedø Kraftvarmeværk","fuel":"oil","source":"oil;biomass","method":"combustion","capacityMW":80,"operator":"Vordingborg Forsyning","start":"1975","osmType":"way"}},{"type":"Feature","geometry":{"type":"Point","coordinates":[11.88244,55.81261]},"properties":{"id":"way/133097659","name":"Kyndbyværket","fuel":"oil","source":"oil","method":"combustion","capacityMW":664,"operator":"Ørsted","start":null,"osmType":"way"}},{"type":"Feature","geometry":{"type":"Point","coordinates":[9.76081,57.28324]},"properties":{"id":"way/136618654","name":"Vester Hjermitslev Biogasanlæg","fuel":"bioenergy","source":"biomass","method":"anaerobic_digestion","capacityMW":null,"operator":null,"start":null,"osmType":"way"}},{"type":"Feature","geometry":{"type":"Point","coordinates":[9.00778,56.12058]},"properties":{"id":"way/144552919","name":"Herningværket","fuel":"bioenergy","source":"biomass;gas","method":"combustion","capacityMW":88.1,"operator":"Ørsted","start":"1982","osmType":"way"}},{"type":"Feature","geometry":{"type":"Point","coordinates":[9.38735,55.23294]},"properties":{"id":"way/153369572","name":"Christiansdal Vandkraftværk","fuel":"hydro","source":"hydro","method":"water-storage","capacityMW":0.287,"operator":"Tørning Mølle","start":"1911","osmType":"way"}},{"type":"Feature","geometry":{"type":"Point","coordinates":[11.71347,54.54736]},"properties":{"id":"relation/1029955","name":"Nysted Havmøllepark (Rødsand 1)","fuel":"wind_offshore","source":"wind","method":"wind_turbine","capacityMW":161,"operator":"Ørsted","start":"2003-06-16","osmType":"relation"}},{"type":"Feature","geometry":{"type":"Point","coordinates":[11.53816,54.55481]},"properties":{"id":"relation/16316139","name":"Rødsand II Havmøllepark","fuel":"wind_offshore","source":"wind","method":"wind_turbine","capacityMW":207,"operator":"E.ON","start":null,"osmType":"relation"}},{"type":"Feature","geometry":{"type":"Point","coordinates":[7.84245,55.4954]},"properties":{"id":"way/158197470","name":"Horns Rev 1","fuel":"wind_offshore","source":"wind","method":"wind_turbine","capacityMW":160,"operator":"Vattenfall","start":null,"osmType":"way"}},{"type":"Feature","geometry":{"type":"Point","coordinates":[12.52276,55.78451]},"properties":{"id":"way/162992735","name":"DTU Kraftvarmeværk","fuel":"gas","source":"gas;electricity","method":"combustion","capacityMW":38.5,"operator":"Danske Commodities","start":"1986","osmType":"way"}},{"type":"Feature","geometry":{"type":"Point","coordinates":[10.48699,57.48863]},"properties":{"id":"way/166160734","name":"Strandby Varmeværk Solfanger","fuel":"solar","source":"solar","method":"thermal","capacityMW":null,"operator":null,"start":"2008","osmType":"way"}},{"type":"Feature","geometry":{"type":"Point","coordinates":[9.89141,56.85893]},"properties":{"id":"way/192326474","name":"Skørping Varmeværk","fuel":"solar","source":"solar;biomass;oil","method":"thermal;photovoltaic;combustion","capacityMW":0.2142,"operator":null,"start":null,"osmType":"way"}},{"type":"Feature","geometry":{"type":"Point","coordinates":[10.35449,55.96851]},"properties":{"id":"way/197341631","name":"Tunø Knob Vindmøllepark","fuel":"wind_offshore","source":"wind","method":"wind_turbine","capacityMW":5,"operator":null,"start":"1995-05-29","osmType":"way"}},{"type":"Feature","geometry":{"type":"Point","coordinates":[11.19424,56.63125]},"properties":{"id":"way/197341634","name":"Anholt Havmøllepark","fuel":"wind_offshore","source":"wind","method":"wind_turbine","capacityMW":400,"operator":"Ørsted;PensionDanmark;AIP","start":"2013","osmType":"way"}},{"type":"Feature","geometry":{"type":"Point","coordinates":[12.55602,55.6572]},"properties":{"id":"way/199713878","name":"H.C. Ørstedsværket","fuel":"gas","source":"gas","method":"combustion","capacityMW":65.2,"operator":"Ørsted","start":"1920","osmType":"way"}},{"type":"Feature","geometry":{"type":"Point","coordinates":[12.42225,55.70682]},"properties":{"id":"way/218433146","name":"Unnamed site","fuel":"waste","source":"waste","method":null,"capacityMW":null,"operator":null,"start":null,"osmType":"way"}},{"type":"Feature","geometry":{"type":"Point","coordinates":[9.78179,54.93025]},"properties":{"id":"way/222317873","name":"Sønderborg Kraftvarme","fuel":"waste","source":"waste;gas","method":"combustion","capacityMW":58,"operator":"Sønderborg Varme A/S","start":"1996","osmType":"way"}},{"type":"Feature","geometry":{"type":"Point","coordinates":[12.51635,55.75714]},"properties":{"id":"way/226952964","name":"Ørsted","fuel":"other","source":null,"method":null,"capacityMW":null,"operator":"Ørsted","start":null,"osmType":"way"}},{"type":"Feature","geometry":{"type":"Point","coordinates":[9.93319,57.2504]},"properties":{"id":"way/242714596","name":"GFE Krogenskær","fuel":"bioenergy","source":"biomass","method":"anaerobic_digestion","capacityMW":null,"operator":null,"start":null,"osmType":"way"}},{"type":"Feature","geometry":{"type":"Point","coordinates":[9.55811,56.20097]},"properties":{"id":"way/243379589","name":"Silkeborg Kraftvarmeværk","fuel":"gas","source":"gas","method":"combustion","capacityMW":108,"operator":"Silkeborg Forsyning A/S","start":"1995","osmType":"way"}},{"type":"Feature","geometry":{"type":"Point","coordinates":[10.55928,55.95375]},"properties":{"id":"way/244414443","name":"Nordby-Mårup Solvarme","fuel":"solar","source":"solar","method":"thermal","capacityMW":null,"operator":"Grøn Varme Samsø A/S","start":"2002-05-01","osmType":"way"}},{"type":"Feature","geometry":{"type":"Point","coordinates":[9.27797,54.94663]},"properties":{"id":"way/251748510","name":"Unnamed site","fuel":"solar","source":"solar","method":"photovoltaic","capacityMW":14.5,"operator":null,"start":"2022-12-30","osmType":"way"}},{"type":"Feature","geometry":{"type":"Point","coordinates":[14.97155,55.16397]},"properties":{"id":"way/253586774","name":"Østerlars Halmvarmeværk","fuel":"bioenergy","source":"biomass;electricity","method":"combustion","capacityMW":null,"operator":"Bornholms Varme A/S","start":"2013","osmType":"way"}},{"type":"Feature","geometry":{"type":"Point","coordinates":[12.62628,55.68711]},"properties":{"id":"way/253752788","name":"Amagerværket","fuel":"bioenergy","source":"biomass","method":"combustion","capacityMW":218,"operator":"HOFOR","start":"1971","osmType":"way"}},{"type":"Feature","geometry":{"type":"Point","coordinates":[9.98977,55.25812]},"properties":{"id":"way/258362986","name":"Ebberup Solcellepark","fuel":"solar","source":"solar","method":"photovoltaic","capacityMW":44.1,"operator":"Better Energy A/S","start":null,"osmType":"way"}},{"type":"Feature","geometry":{"type":"Point","coordinates":[12.55808,56.02001]},"properties":{"id":"way/259275547","name":"Helsingør Kraftvarmeværk","fuel":"bioenergy","source":"biomass;gas","method":"combustion","capacityMW":71.7,"operator":"Forsyning Helsingør","start":"1993","osmType":"way"}},{"type":"Feature","geometry":{"type":"Point","coordinates":[8.70343,56.96361]},"properties":{"id":"way/268896495","name":"Thisted varmeforsyning","fuel":"other","source":null,"method":null,"capacityMW":null,"operator":null,"start":null,"osmType":"way"}},{"type":"Feature","geometry":{"type":"Point","coordinates":[9.86867,54.92467]},"properties":{"id":"way/275792697","name":"Solparken Vollerup","fuel":"solar","source":"solar","method":null,"capacityMW":null,"operator":"Sønderborg Fjernvarme","start":"2009-04-04","osmType":"way"}},{"type":"Feature","geometry":{"type":"Point","coordinates":[8.52904,55.91344]},"properties":{"id":"way/276138926","name":"Unnamed site","fuel":"solar","source":"solar","method":null,"capacityMW":null,"operator":null,"start":null,"osmType":"way"}},{"type":"Feature","geometry":{"type":"Point","coordinates":[10.60276,55.05469]},"properties":{"id":"way/293286276","name":"Elværk","fuel":"other","source":null,"method":null,"capacityMW":null,"operator":null,"start":null,"osmType":"way"}},{"type":"Feature","geometry":{"type":"Point","coordinates":[12.58797,55.71327]},"properties":{"id":"way/294098477","name":"Svanemølleværket","fuel":"gas","source":"gas","method":"combustion","capacityMW":81,"operator":"Ørsted;Energinet","start":null,"osmType":"way"}},{"type":"Feature","geometry":{"type":"Point","coordinates":[8.12847,56.37129]},"properties":{"id":"way/311103110","name":"Thorsminde Varmeværk","fuel":"other","source":null,"method":null,"capacityMW":null,"operator":null,"start":null,"osmType":"way"}},{"type":"Feature","geometry":{"type":"Point","coordinates":[11.08553,55.66249]},"properties":{"id":"way/326024684","name":"Asnæsværket","fuel":"bioenergy","source":"biomass","method":null,"capacityMW":25,"operator":"Ørsted","start":null,"osmType":"way"}},{"type":"Feature","geometry":{"type":"Point","coordinates":[12.03028,55.96302]},"properties":{"id":"way/328669729","name":"Unnamed site","fuel":"solar","source":"solar","method":"photovoltaic","capacityMW":null,"operator":"Halsnæs Forsyning","start":null,"osmType":"way"}},{"type":"Feature","geometry":{"type":"Point","coordinates":[10.18683,57.53887]},"properties":{"id":"way/363426747","name":"Bindslev Gamle Elværk","fuel":"hydro","source":"hydro","method":"run-of-the-river","capacityMW":0.065,"operator":"Den Selvejende Institution Bindslev Gl. Elværk","start":"1918","osmType":"way"}},{"type":"Feature","geometry":{"type":"Point","coordinates":[11.92294,54.71768]},"properties":{"id":"way/366821318","name":"Sydfalster Varmeværk","fuel":"solar","source":"solar","method":"thermal","capacityMW":null,"operator":null,"start":"2011","osmType":"way"}},{"type":"Feature","geometry":{"type":"Point","coordinates":[10.25234,57.07857]},"properties":{"id":"way/370733311","name":"Ulsted Varmeværk - Solvarmeanlæg","fuel":"other","source":null,"method":null,"capacityMW":null,"operator":"Ulsted Varmeværk A.m.b.a.","start":"2013","osmType":"way"}},{"type":"Feature","geometry":{"type":"Point","coordinates":[10.25264,57.16244]},"properties":{"id":"way/375866612","name":"Unnamed site","fuel":"solar","source":"solar","method":"thermal","capacityMW":null,"operator":"Dronninglund Fjernvarme","start":"2014","osmType":"way"}},{"type":"Feature","geometry":{"type":"Point","coordinates":[12.3265,55.59753]},"properties":{"id":"way/386056376","name":"Greve Fjernvarme AMBA","fuel":"other","source":null,"method":null,"capacityMW":null,"operator":null,"start":null,"osmType":"way"}},{"type":"Feature","geometry":{"type":"Point","coordinates":[9.27831,55.70665]},"properties":{"id":"way/386571480","name":"Gødding Mølle","fuel":"hydro","source":"hydro","method":"water-storage","capacityMW":0.02,"operator":"A/S Gødding Mølle Skovbrug","start":"1983-12-06","osmType":"way"}},{"type":"Feature","geometry":{"type":"Point","coordinates":[11.07226,55.6492]},"properties":{"id":"way/388481209","name":"Asnæs Solcellepark","fuel":"solar","source":"solar","method":"photovoltaic","capacityMW":43.2,"operator":null,"start":"2015-12-14","osmType":"way"}},{"type":"Feature","geometry":{"type":"Point","coordinates":[11.50398,55.52573]},"properties":{"id":"way/391416494","name":"Unnamed site","fuel":"solar","source":"solar","method":"photovoltaic","capacityMW":null,"operator":null,"start":null,"osmType":"way"}},{"type":"Feature","geometry":{"type":"Point","coordinates":[8.43025,55.84405]},"properties":{"id":"way/392543101","name":"Nature Energy Hemmet","fuel":"bioenergy","source":"biomass","method":"anaerobic_digestion","capacityMW":null,"operator":null,"start":null,"osmType":"way"}},{"type":"Feature","geometry":{"type":"Point","coordinates":[11.30343,54.70807]},"properties":{"id":"way/396513965","name":"Unnamed site","fuel":"solar","source":"solar","method":"photovoltaic","capacityMW":null,"operator":null,"start":null,"osmType":"way"}},{"type":"Feature","geometry":{"type":"Point","coordinates":[9.9428,56.04947]},"properties":{"id":"way/406133439","name":"Unnamed site","fuel":"other","source":null,"method":null,"capacityMW":null,"operator":"Skanderborg-Hørning Fjernvarme","start":null,"osmType":"way"}},{"type":"Feature","geometry":{"type":"Point","coordinates":[10.12485,55.52876]},"properties":{"id":"way/428274093","name":"Nature Energy Nordfyn","fuel":"bioenergy","source":"biomass","method":"anaerobic_digestion","capacityMW":null,"operator":null,"start":null,"osmType":"way"}},{"type":"Feature","geometry":{"type":"Point","coordinates":[12.61996,55.68458]},"properties":{"id":"way/429610236","name":"Amager Bakke","fuel":"waste","source":"waste","method":"combustion","capacityMW":63,"operator":null,"start":null,"osmType":"way"}},{"type":"Feature","geometry":{"type":"Point","coordinates":[10.34098,55.32865]},"properties":{"id":"way/452068294","name":"Fangel Bioenergi","fuel":"bioenergy","source":"biogas","method":"combustion;anaerobic_digestion","capacityMW":8.3,"operator":"Fangel Bioenergi ApS","start":"1989","osmType":"way"}},{"type":"Feature","geometry":{"type":"Point","coordinates":[8.97639,54.96732]},"properties":{"id":"way/452443556","name":"Tønder Biogas","fuel":"bioenergy","source":"biomass","method":null,"capacityMW":null,"operator":null,"start":null,"osmType":"way"}},{"type":"Feature","geometry":{"type":"Point","coordinates":[9.26993,54.94718]},"properties":{"id":"way/453336661","name":"Solpark Tinglev","fuel":"solar","source":"solar","method":"photovoltaic","capacityMW":19.2,"operator":null,"start":"2015-12-11","osmType":"way"}},{"type":"Feature","geometry":{"type":"Point","coordinates":[10.07581,55.25692]},"properties":{"id":"way/456119910","name":"Flemløse Biogas","fuel":"bioenergy","source":"biomass","method":"anaerobic_digestion","capacityMW":null,"operator":"Driftsfællesskabet Stougaard","start":null,"osmType":"way"}},{"type":"Feature","geometry":{"type":"Point","coordinates":[8.59485,55.9684]},"properties":{"id":"way/463107419","name":"Vestjysk Biogas","fuel":"bioenergy","source":"biomass","method":"anaerobic_digestion","capacityMW":null,"operator":null,"start":"2017","osmType":"way"}},{"type":"Feature","geometry":{"type":"Point","coordinates":[7.65143,55.70197]},"properties":{"id":"way/465828521","name":"Horns Rev 3","fuel":"wind_offshore","source":"wind","method":"wind_turbine","capacityMW":406.7,"operator":"Vattenfall","start":null,"osmType":"way"}},{"type":"Feature","geometry":{"type":"Point","coordinates":[9.2019,55.70066]},"properties":{"id":"way/465831946","name":"Vandel Solcellepark","fuel":"solar","source":"solar","method":"photovoltaic","capacityMW":111,"operator":null,"start":"2021-10-11","osmType":"way"}},{"type":"Feature","geometry":{"type":"Point","coordinates":[9.41437,56.47406]},"properties":{"id":"way/471130234","name":"Viborg Kraftvarmeværk","fuel":"gas","source":"gas","method":"combustion","capacityMW":57,"operator":"Energi Viborg","start":"1996","osmType":"way"}},{"type":"Feature","geometry":{"type":"Point","coordinates":[8.35525,56.09635]},"properties":{"id":"way/474127556","name":"Unnamed site","fuel":"solar","source":"solar","method":"photovoltaic","capacityMW":null,"operator":"Nørhede - Hjortmose Solenergi I/S","start":null,"osmType":"way"}},{"type":"Feature","geometry":{"type":"Point","coordinates":[8.36919,56.09188]},"properties":{"id":"way/474127558","name":"Nørhede - Hjortmose Solenergi I/S","fuel":"solar","source":"solar","method":"photovoltaic","capacityMW":15.2,"operator":null,"start":null,"osmType":"way"}},{"type":"Feature","geometry":{"type":"Point","coordinates":[10.3535,55.25406]},"properties":{"id":"way/475165490","name":"Nature Energy Midtfyn","fuel":"bioenergy","source":"biomass","method":"anaerobic_digestion","capacityMW":null,"operator":null,"start":null,"osmType":"way"}},{"type":"Feature","geometry":{"type":"Point","coordinates":[8.59236,55.51927]},"properties":{"id":"way/479616737","name":"Nature Energy Korskro","fuel":"bioenergy","source":"biomass","method":"anaerobic_digestion","capacityMW":null,"operator":null,"start":null,"osmType":"way"}},{"type":"Feature","geometry":{"type":"Point","coordinates":[9.29296,55.98023]},"properties":{"id":"way/483267984","name":"Ejstrupholm Varmeværk og Vandværk","fuel":"other","source":null,"method":null,"capacityMW":null,"operator":null,"start":null,"osmType":"way"}},{"type":"Feature","geometry":{"type":"Point","coordinates":[9.98183,57.36508]},"properties":{"id":"way/490628050","name":"Unnamed site","fuel":"bioenergy","source":"biomass","method":null,"capacityMW":null,"operator":null,"start":null,"osmType":"way"}},{"type":"Feature","geometry":{"type":"Point","coordinates":[10.5162,55.17498]},"properties":{"id":"way/495157863","name":"Kværndrup Fjernvarme Solvarmeanlæg","fuel":"solar","source":"solar","method":"thermal","capacityMW":null,"operator":"Kværndrup Fjernvarme a.m.b.a.","start":"2016","osmType":"way"}},{"type":"Feature","geometry":{"type":"Point","coordinates":[11.12079,54.89602]},"properties":{"id":"way/543464075","name":"Grøn Verden Solcellepark","fuel":"solar","source":"solar","method":"photovoltaic","capacityMW":4.8,"operator":"Sydsol ApS","start":"2015","osmType":"way"}},{"type":"Feature","geometry":{"type":"Point","coordinates":[11.20835,54.91328]},"properties":{"id":"relation/17495311","name":"Solpark Horslunde","fuel":"solar","source":"solar","method":"photovoltaic","capacityMW":22.8,"operator":"MC-GROUP ApS","start":null,"osmType":"relation"}},{"type":"Feature","geometry":{"type":"Point","coordinates":[9.38033,55.07279]},"properties":{"id":"way/543968115","name":"Aabenraa Fjernvarme","fuel":"bioenergy","source":"biomass","method":null,"capacityMW":null,"operator":null,"start":null,"osmType":"way"}},{"type":"Feature","geometry":{"type":"Point","coordinates":[11.93545,54.57733]},"properties":{"id":"way/545501735","name":"Unnamed site","fuel":"solar","source":"solar","method":"thermal","capacityMW":null,"operator":null,"start":null,"osmType":"way"}},{"type":"Feature","geometry":{"type":"Point","coordinates":[9.74292,55.96791]},"properties":{"id":"way/555480061","name":"Østbirk Varmeværk a.m.b.a.","fuel":"other","source":null,"method":null,"capacityMW":null,"operator":null,"start":null,"osmType":"way"}},{"type":"Feature","geometry":{"type":"Point","coordinates":[8.91348,55.52975]},"properties":{"id":"way/555852802","name":"Nature Energy Holsted","fuel":"bioenergy","source":"biomass","method":"anaerobic_digestion","capacityMW":null,"operator":null,"start":null,"osmType":"way"}},{"type":"Feature","geometry":{"type":"Point","coordinates":[10.78029,56.35296]},"properties":{"id":"way/564743443","name":"Unnamed site","fuel":"solar","source":"solar","method":"photovoltaic","capacityMW":null,"operator":null,"start":null,"osmType":"way"}},{"type":"Feature","geometry":{"type":"Point","coordinates":[10.25027,57.07868]},"properties":{"id":"way/565837933","name":"Ulsted Varmeværk - Halmkedel","fuel":"other","source":null,"method":"biomass","capacityMW":null,"operator":"Ulsted Varmeværk A.m.b.a.","start":"2013","osmType":"way"}},{"type":"Feature","geometry":{"type":"Point","coordinates":[11.87937,55.9629]},"properties":{"id":"way/566860209","name":"Hundested Varmeværk","fuel":"solar","source":"solar","method":"photovoltaic","capacityMW":null,"operator":null,"start":null,"osmType":"way"}},{"type":"Feature","geometry":{"type":"Point","coordinates":[10.19574,57.47994]},"properties":{"id":"way/583286147","name":"Unnamed site","fuel":"other","source":null,"method":null,"capacityMW":null,"operator":"Sindal Varmeforsyning","start":null,"osmType":"way"}},{"type":"Feature","geometry":{"type":"Point","coordinates":[10.57397,56.35186]},"properties":{"id":"way/584639662","name":"Kolind Fjernvarme","fuel":"bioenergy","source":"biomass","method":"combustion","capacityMW":null,"operator":null,"start":null,"osmType":"way"}},{"type":"Feature","geometry":{"type":"Point","coordinates":[11.87423,54.76124]},"properties":{"id":"way/614429226","name":"Nordic Sugar Nykøbing Kraftværk","fuel":"gas","source":"gas","method":"combustion","capacityMW":18,"operator":"Nordic Sugar A/S","start":"1960","osmType":"way"}},{"type":"Feature","geometry":{"type":"Point","coordinates":[11.88414,54.77986]},"properties":{"id":"way/615807448","name":"REFA","fuel":"bioenergy","source":"biogas","method":null,"capacityMW":null,"operator":null,"start":null,"osmType":"way"}},{"type":"Feature","geometry":{"type":"Point","coordinates":[8.21592,56.38525]},"properties":{"id":"way/616569113","name":"Nees Solcellepark","fuel":"solar","source":"solar","method":"photovoltaic","capacityMW":39.8,"operator":null,"start":"2017-12-01","osmType":"way"}},{"type":"Feature","geometry":{"type":"Point","coordinates":[11.72886,55.20749]},"properties":{"id":"way/627044833","name":"Regulerkraftanlæg Næstved","fuel":"oil","source":"oil","method":"combustion","capacityMW":36,"operator":"Energi Fyn Produktion A/S","start":"2007-11-19","osmType":"way"}},{"type":"Feature","geometry":{"type":"Point","coordinates":[11.66957,55.92505]},"properties":{"id":"way/630276190","name":"Nykøbing Sjælland Varmeværk","fuel":"other","source":null,"method":null,"capacityMW":null,"operator":null,"start":null,"osmType":"way"}},{"type":"Feature","geometry":{"type":"Point","coordinates":[9.86037,54.92791]},"properties":{"id":"way/636974323","name":"Vollerup Solpark","fuel":"solar","source":"solar","method":"photovoltaic","capacityMW":25,"operator":"Nordic Solar","start":"2018-12-01","osmType":"way"}},{"type":"Feature","geometry":{"type":"Point","coordinates":[9.94347,56.05076]},"properties":{"id":"way/648525077","name":"Unnamed site","fuel":"waste","source":"waste","method":"combustion","capacityMW":null,"operator":"Skanderborg-Hørning Fjernvarme","start":null,"osmType":"way"}},{"type":"Feature","geometry":{"type":"Point","coordinates":[9.94355,56.05194]},"properties":{"id":"way/648525078","name":"Kredsløb Energianlæg Skanderborg","fuel":"waste","source":"waste","method":"combustion","capacityMW":null,"operator":null,"start":null,"osmType":"way"}},{"type":"Feature","geometry":{"type":"Point","coordinates":[10.33741,55.33094]},"properties":{"id":"way/653891796","name":"Regulerkraftanlæg Kratholm","fuel":"oil","source":"oil","method":"combustion","capacityMW":16,"operator":"Energi Fyn Produktion A/S","start":"2006-09-22","osmType":"way"}},{"type":"Feature","geometry":{"type":"Point","coordinates":[11.28772,54.71973]},"properties":{"id":"way/656784749","name":"Unnamed site","fuel":"solar","source":"solar","method":"photovoltaic","capacityMW":null,"operator":"European Energy A/S","start":null,"osmType":"way"}},{"type":"Feature","geometry":{"type":"Point","coordinates":[8.63661,56.06116]},"properties":{"id":"way/662835849","name":"Nature Energy Videbæk","fuel":"bioenergy","source":"biomass","method":"anaerobic_digestion","capacityMW":null,"operator":null,"start":null,"osmType":"way"}},{"type":"Feature","geometry":{"type":"Point","coordinates":[14.8884,55.06416]},"properties":{"id":"relation/19169719","name":"Bodelyngsvejen Solcellepark","fuel":"solar","source":"solar","method":"photovoltaic","capacityMW":6.8,"operator":null,"start":"2018-05-14","osmType":"relation"}},{"type":"Feature","geometry":{"type":"Point","coordinates":[12.12126,55.64069]},"properties":{"id":"way/672301969","name":"ARGO Affaldsenergi (Energitårnet)","fuel":"waste","source":"waste","method":"combustion","capacityMW":35,"operator":"ARGO I/S","start":null,"osmType":"way"}},{"type":"Feature","geometry":{"type":"Point","coordinates":[8.30437,55.62846]},"properties":{"id":"way/675375533","name":"Unnamed site","fuel":"solar","source":"solar","method":"photovoltaic","capacityMW":null,"operator":null,"start":null,"osmType":"way"}},{"type":"Feature","geometry":{"type":"Point","coordinates":[12.07842,55.36104]},"properties":{"id":"way/676923641","name":"Turebylille Solcellepark","fuel":"solar","source":"solar","method":"photovoltaic","capacityMW":5,"operator":null,"start":null,"osmType":"way"}},{"type":"Feature","geometry":{"type":"Point","coordinates":[8.3966,55.8041]},"properties":{"id":"way/682097264","name":"Nature Energy Sønder Vium","fuel":"bioenergy","source":"biomass","method":"anaerobic_digestion","capacityMW":null,"operator":"Nature Energy","start":"2016","osmType":"way"}},{"type":"Feature","geometry":{"type":"Point","coordinates":[11.28296,55.50474]},"properties":{"id":"way/697303176","name":"Høng solvarmeanlæg","fuel":"solar","source":"solar","method":"thermal","capacityMW":null,"operator":"Høng Varmeværk A M B A","start":"2019-05-01","osmType":"way"}},{"type":"Feature","geometry":{"type":"Point","coordinates":[15.06962,55.045]},"properties":{"id":"way/706791343","name":"Gadegårdsvejen Solcellepark","fuel":"solar","source":"solar","method":"photovoltaic","capacityMW":6.8,"operator":null,"start":"2018-05-22","osmType":"way"}},{"type":"Feature","geometry":{"type":"Point","coordinates":[9.94606,57.55694]},"properties":{"id":"way/717861665","name":"Solcelleanlæg Pelsdyrparken","fuel":"solar","source":"solar","method":"photovoltaic","capacityMW":5,"operator":null,"start":"2018-03-01","osmType":"way"}},{"type":"Feature","geometry":{"type":"Point","coordinates":[8.30373,56.42089]},"properties":{"id":"way/721952493","name":"Bækmarksbro Varmeværk","fuel":"bioenergy","source":"biomass","method":"combustion","capacityMW":null,"operator":null,"start":null,"osmType":"way"}},{"type":"Feature","geometry":{"type":"Point","coordinates":[9.185,55.94475]},"properties":{"id":"way/738595503","name":"Nature Energy Månsson","fuel":"bioenergy","source":"biomass","method":"anaerobic_digestion","capacityMW":null,"operator":null,"start":"2017","osmType":"way"}},{"type":"Feature","geometry":{"type":"Point","coordinates":[8.45639,55.50177]},"properties":{"id":"way/766393167","name":"Gjesing Varmeværk","fuel":"oil","source":"oil","method":"combustion","capacityMW":null,"operator":"DINforsyning","start":"1963","osmType":"way"}},{"type":"Feature","geometry":{"type":"Point","coordinates":[11.24777,54.9358]},"properties":{"id":"way/768162553","name":"Unnamed site","fuel":"solar","source":"solar","method":"photovoltaic","capacityMW":null,"operator":null,"start":null,"osmType":"way"}},{"type":"Feature","geometry":{"type":"Point","coordinates":[10.38029,55.44478]},"properties":{"id":"way/771983726","name":"Unnamed site","fuel":"solar","source":"solar","method":null,"capacityMW":null,"operator":null,"start":null,"osmType":"way"}},{"type":"Feature","geometry":{"type":"Point","coordinates":[9.6871,55.73647]},"properties":{"id":"way/776609949","name":"Unnamed site","fuel":"solar","source":"solar","method":"photovoltaic","capacityMW":null,"operator":null,"start":null,"osmType":"way"}},{"type":"Feature","geometry":{"type":"Point","coordinates":[10.03328,56.94952]},"properties":{"id":"way/784237220","name":"Nature Energy Vaarst","fuel":"bioenergy","source":"biomass","method":"anaerobic_digestion","capacityMW":null,"operator":null,"start":null,"osmType":"way"}},{"type":"Feature","geometry":{"type":"Point","coordinates":[10.43537,55.35755]},"properties":{"id":"way/799775209","name":"Solcellepark OUH","fuel":"solar","source":"solar","method":"photovoltaic","capacityMW":3.8,"operator":null,"start":"2020-07-03","osmType":"way"}},{"type":"Feature","geometry":{"type":"Point","coordinates":[8.80336,55.477]},"properties":{"id":"way/824375836","name":"Gørding Varmeværk","fuel":"solar","source":"solar;biomass","method":null,"capacityMW":null,"operator":null,"start":null,"osmType":"way"}},{"type":"Feature","geometry":{"type":"Point","coordinates":[9.87279,54.93346]},"properties":{"id":"way/840316191","name":"Nature Energy Glansager","fuel":"bioenergy","source":"biomass","method":"anaerobic_digestion","capacityMW":null,"operator":null,"start":"2020-08-01","osmType":"way"}},{"type":"Feature","geometry":{"type":"Point","coordinates":[8.51036,55.45274]},"properties":{"id":"way/844321104","name":"Måde Vindtestcenter","fuel":"wind_offshore","source":"wind","method":"wind_turbine","capacityMW":34,"operator":"European Energy","start":null,"osmType":"way"}},{"type":"Feature","geometry":{"type":"Point","coordinates":[11.90205,55.16447]},"properties":{"id":"way/849722251","name":"Better Energy Næstved","fuel":"solar","source":"solar","method":"photovoltaic","capacityMW":51,"operator":"Better Energy","start":null,"osmType":"way"}},{"type":"Feature","geometry":{"type":"Point","coordinates":[12.10431,55.69606]},"properties":{"id":"way/851991132","name":"Unnamed site","fuel":"solar","source":"solar","method":"photovoltaic","capacityMW":null,"operator":null,"start":null,"osmType":"way"}},{"type":"Feature","geometry":{"type":"Point","coordinates":[11.96883,55.33398]},"properties":{"id":"way/854425093","name":"Haslev Kraftvarmeværk","fuel":"bioenergy","source":"biomass","method":null,"capacityMW":5,"operator":null,"start":null,"osmType":"way"}},{"type":"Feature","geometry":{"type":"Point","coordinates":[12.10427,55.69419]},"properties":{"id":"way/855387560","name":"Risø spids- og reservelastcentral","fuel":"gas","source":"gas","method":"combustion","capacityMW":null,"operator":"Vestegnens Kraftvarmeselskab I/S","start":"2017","osmType":"way"}},{"type":"Feature","geometry":{"type":"Point","coordinates":[12.81939,55.01024]},"properties":{"id":"way/865474843","name":"Kriegers Flak A","fuel":"wind_offshore","source":"wind","method":"wind_turbine","capacityMW":192,"operator":"Vattenfall","start":"2021","osmType":"way"}},{"type":"Feature","geometry":{"type":"Point","coordinates":[12.98155,55.04224]},"properties":{"id":"way/865474844","name":"Kriegers Flak B","fuel":"wind_offshore","source":"wind","method":"wind_turbine","capacityMW":413,"operator":"Vattenfall","start":"2021","osmType":"way"}},{"type":"Feature","geometry":{"type":"Point","coordinates":[10.22602,55.25077]},"properties":{"id":"way/871669868","name":"Nørre Broby Varmeværk","fuel":"gas","source":"gas","method":"combustion","capacityMW":1.615,"operator":"Fjernvarme Fyn Produktion A/S","start":"1907","osmType":"way"}},{"type":"Feature","geometry":{"type":"Point","coordinates":[10.5088,56.3908]},"properties":{"id":"way/872834469","name":"Unnamed site","fuel":"bioenergy","source":"biogas","method":null,"capacityMW":null,"operator":null,"start":null,"osmType":"way"}},{"type":"Feature","geometry":{"type":"Point","coordinates":[9.81846,56.88802]},"properties":{"id":"way/874134280","name":"Støvring Kraftvarmeværk","fuel":"gas","source":"gas;electricity","method":"combustion","capacityMW":9.12,"operator":"Støvring Kraftvarmeværk a.m.b.a.","start":"1961","osmType":"way"}},{"type":"Feature","geometry":{"type":"Point","coordinates":[10.28557,56.52735]},"properties":{"id":"way/886641411","name":"Karevej Solcellepark","fuel":"solar","source":"solar","method":"photovoltaic","capacityMW":24.6,"operator":null,"start":"2020-08-24","osmType":"way"}},{"type":"Feature","geometry":{"type":"Point","coordinates":[8.68173,57.07768]},"properties":{"id":"relation/12136366","name":"Solar Park Hanstholmvej","fuel":"solar","source":"solar","method":"photovoltaic","capacityMW":42,"operator":"European Energy","start":null,"osmType":"relation"}},{"type":"Feature","geometry":{"type":"Point","coordinates":[11.13507,55.35244]},"properties":{"id":"way/900376511","name":"Unnamed site","fuel":"solar","source":"solar","method":"thermal","capacityMW":null,"operator":null,"start":null,"osmType":"way"}},{"type":"Feature","geometry":{"type":"Point","coordinates":[11.65054,55.91733]},"properties":{"id":"relation/9741602","name":"Unnamed site","fuel":"solar","source":"solar","method":"thermal","capacityMW":null,"operator":null,"start":null,"osmType":"relation"}},{"type":"Feature","geometry":{"type":"Point","coordinates":[9.39806,55.69129]},"properties":{"id":"way/914343685","name":"Unnamed site","fuel":"solar","source":"solar","method":"photovoltaic","capacityMW":null,"operator":null,"start":null,"osmType":"way"}},{"type":"Feature","geometry":{"type":"Point","coordinates":[10.155,56.56546]},"properties":{"id":"relation/19131048","name":"Stouby Solcellepark","fuel":"solar","source":"solar","method":"photovoltaic","capacityMW":68.8,"operator":null,"start":"2024-03-11","osmType":"relation"}},{"type":"Feature","geometry":{"type":"Point","coordinates":[9.85514,55.48261]},"properties":{"id":"way/918158070","name":"Solcellepark Nørre Aaby","fuel":"solar","source":"solar","method":"photovoltaic","capacityMW":21.388,"operator":"Better Energy A/S","start":"2022","osmType":"way"}},{"type":"Feature","geometry":{"type":"Point","coordinates":[10.90845,56.41926]},"properties":{"id":"way/919200993","name":"Grenaa Varmeværk","fuel":"bioenergy","source":"biomass;solar","method":"combustion;photovoltaic;thermal","capacityMW":7.2,"operator":"Grenaa Varmeværk a.m.b.a.","start":"1964-05-10","osmType":"way"}},{"type":"Feature","geometry":{"type":"Point","coordinates":[11.4444,55.42807]},"properties":{"id":"way/921404632","name":"Slagelse Solcellepark","fuel":"solar","source":"solar","method":"photovoltaic","capacityMW":20.9,"operator":"Better Energy","start":"2020-05-01","osmType":"way"}},{"type":"Feature","geometry":{"type":"Point","coordinates":[9.85051,56.51992]},"properties":{"id":"way/922698403","name":"Rejstrup Solcellepark","fuel":"solar","source":"solar","method":"photovoltaic","capacityMW":24.6,"operator":"Better Energy","start":"2020-05-01","osmType":"way"}},{"type":"Feature","geometry":{"type":"Point","coordinates":[12.0308,55.96238]},"properties":{"id":"way/922877796","name":"Unnamed site","fuel":"solar","source":"solar","method":"photovoltaic","capacityMW":null,"operator":null,"start":null,"osmType":"way"}},{"type":"Feature","geometry":{"type":"Point","coordinates":[8.93508,56.7188]},"properties":{"id":"way/926812319","name":"Harre Solcellepark","fuel":"solar","source":"solar","method":"photovoltaic","capacityMW":37.6,"operator":"European Energy","start":"2020-11-04","osmType":"way"}},{"type":"Feature","geometry":{"type":"Point","coordinates":[9.51832,54.93909]},"properties":{"id":"way/934670855","name":"Nature Energy Kværs","fuel":"bioenergy","source":"biomass","method":"anaerobic_digestion","capacityMW":null,"operator":null,"start":"2023-01-23","osmType":"way"}},{"type":"Feature","geometry":{"type":"Point","coordinates":[10.12276,55.22408]},"properties":{"id":"way/945273539","name":"Haarby Kraftvarmeværk","fuel":"gas","source":"gas","method":"combustion","capacityMW":1.819,"operator":"Glamsbjerg-Haarby Varmeværk a.m.b.a.","start":"1985","osmType":"way"}},{"type":"Feature","geometry":{"type":"Point","coordinates":[10.14074,56.28416]},"properties":{"id":"way/953739151","name":"Shell Biogas","fuel":"bioenergy","source":"biomass","method":"anaerobic_digestion","capacityMW":null,"operator":null,"start":null,"osmType":"way"}},{"type":"Feature","geometry":{"type":"Point","coordinates":[9.70048,55.97693]},"properties":{"id":"way/965225674","name":"Vestbirk Vandkraftværk","fuel":"hydro","source":"hydro","method":"water-storage","capacityMW":1,"operator":"Naturstyrelsen","start":"1924-12-02","osmType":"way"}},{"type":"Feature","geometry":{"type":"Point","coordinates":[8.31891,55.85087]},"properties":{"id":"way/972666109","name":"Holmen Solpark","fuel":"solar","source":"solar","method":"photovoltaic","capacityMW":15.8,"operator":"Vores Sol Ejendomsselskab","start":"2020-12-19","osmType":"way"}},{"type":"Feature","geometry":{"type":"Point","coordinates":[10.12221,56.88292]},"properties":{"id":"way/981595004","name":"Kongerslev Fjernvarmeværk","fuel":"other","source":null,"method":null,"capacityMW":null,"operator":null,"start":null,"osmType":"way"}},{"type":"Feature","geometry":{"type":"Point","coordinates":[8.50432,55.69669]},"properties":{"id":"relation/19119543","name":"Mejls Solcellepark","fuel":"solar","source":"solar","method":"photovoltaic","capacityMW":49.8,"operator":"Better Energy Mejls P/S","start":"2022-01-12","osmType":"relation"}},{"type":"Feature","geometry":{"type":"Point","coordinates":[10.40017,55.06928]},"properties":{"id":"way/984688168","name":"Rødkilde Solceller","fuel":"solar","source":"solar","method":"photovoltaic","capacityMW":2,"operator":"Rødkilde Gods","start":null,"osmType":"way"}},{"type":"Feature","geometry":{"type":"Point","coordinates":[10.41493,55.07528]},"properties":{"id":"way/984688172","name":"Unnamed site","fuel":"solar","source":"solar","method":"photovoltaic","capacityMW":0.4,"operator":"Rødkilde Gods","start":"2013","osmType":"way"}},{"type":"Feature","geometry":{"type":"Point","coordinates":[10.23474,55.10834]},"properties":{"id":"way/990822359","name":"Faaborg Varmeværk","fuel":"gas","source":"gas;electricity","method":"combustion","capacityMW":null,"operator":"FFV Energi & Miljø A/S","start":"2020-12-14","osmType":"way"}},{"type":"Feature","geometry":{"type":"Point","coordinates":[10.12801,55.38728]},"properties":{"id":"way/990854612","name":"Vissenbjerg Varmeværk","fuel":"gas","source":"gas;biomass","method":"combustion","capacityMW":3.06,"operator":"Fjernvarme Fyn Produktion A/S","start":"1966","osmType":"way"}},{"type":"Feature","geometry":{"type":"Point","coordinates":[10.58462,55.30928]},"properties":{"id":"way/990871703","name":"Ferritslev Varmeværk","fuel":"gas","source":"gas","method":"combustion","capacityMW":0.9,"operator":"Fjernvarme Fyn Produktion A/S","start":"1966","osmType":"way"}},{"type":"Feature","geometry":{"type":"Point","coordinates":[9.9154,55.25687]},"properties":{"id":"way/999511751","name":"Unnamed site","fuel":"solar","source":"solar","method":"photovoltaic","capacityMW":5.407,"operator":"Assens Fjernvarme","start":null,"osmType":"way"}},{"type":"Feature","geometry":{"type":"Point","coordinates":[9.35048,56.92949]},"properties":{"id":"way/1003060412","name":"Unnamed site","fuel":"solar","source":"solar","method":"thermal","capacityMW":null,"operator":null,"start":null,"osmType":"way"}},{"type":"Feature","geometry":{"type":"Point","coordinates":[8.31447,56.36672]},"properties":{"id":"way/1004922448","name":"Kikkenborg Solcellepark","fuel":"solar","source":"solar","method":"photovoltaic","capacityMW":16,"operator":null,"start":"2019-12-19","osmType":"way"}},{"type":"Feature","geometry":{"type":"Point","coordinates":[8.30233,56.53546]},"properties":{"id":"way/1006479596","name":"Lemvig Varmeværk","fuel":"bioenergy","source":"biomass","method":null,"capacityMW":null,"operator":null,"start":null,"osmType":"way"}},{"type":"Feature","geometry":{"type":"Point","coordinates":[8.67974,56.75432]},"properties":{"id":"way/1019437174","name":"Næssundvej Solcellepark","fuel":"solar","source":"solar","method":"photovoltaic","capacityMW":25.7,"operator":null,"start":"2019-12-19","osmType":"way"}},{"type":"Feature","geometry":{"type":"Point","coordinates":[9.01319,55.49701]},"properties":{"id":"way/1020150081","name":"Unnamed site","fuel":"solar","source":"solar","method":"photovoltaic","capacityMW":null,"operator":null,"start":null,"osmType":"way"}},{"type":"Feature","geometry":{"type":"Point","coordinates":[10.41945,57.61038]},"properties":{"id":"way/1051816300","name":"Ålbæk Solcellepark","fuel":"solar","source":"solar","method":"photovoltaic","capacityMW":17.3,"operator":"Frederikshavn Forsyning A/S","start":"2021-12-22","osmType":"way"}},{"type":"Feature","geometry":{"type":"Point","coordinates":[10.49579,55.25182]},"properties":{"id":"way/1057518415","name":"Midtfyns Energi Solvarmeanlæg","fuel":"solar","source":"solar","method":"thermal","capacityMW":null,"operator":"Midtfyns Fjernvarme A.m.b.A","start":"2019-08-25","osmType":"way"}},{"type":"Feature","geometry":{"type":"Point","coordinates":[10.40689,55.08126]},"properties":{"id":"way/1072287269","name":"Solcelleparken Louisegård","fuel":"solar","source":"solar","method":"photovoltaic","capacityMW":8.14,"operator":"Solar Park Rødkilde 1 P/S","start":"2021-11-01","osmType":"way"}},{"type":"Feature","geometry":{"type":"Point","coordinates":[9.22271,56.53357]},"properties":{"id":"relation/19131021","name":"Kvosted Solcellepark","fuel":"solar","source":"solar","method":"photovoltaic","capacityMW":79.8,"operator":null,"start":"2022-12-16","osmType":"relation"}},{"type":"Feature","geometry":{"type":"Point","coordinates":[9.82469,55.01247]},"properties":{"id":"way/1081803916","name":"Solpark Stevning","fuel":"solar","source":"solar","method":"photovoltaic","capacityMW":27,"operator":"Better Energy Stevning P/S","start":"2022-11-24","osmType":"way"}},{"type":"Feature","geometry":{"type":"Point","coordinates":[12.48927,55.86704]},"properties":{"id":"way/1084618269","name":"Unnamed site","fuel":"solar","source":"solar","method":"photovoltaic","capacityMW":null,"operator":null,"start":null,"osmType":"way"}},{"type":"Feature","geometry":{"type":"Point","coordinates":[9.37075,55.26735]},"properties":{"id":"way/1087017749","name":"Unnamed site","fuel":"solar","source":"solar","method":"photovoltaic","capacityMW":null,"operator":null,"start":null,"osmType":"way"}},{"type":"Feature","geometry":{"type":"Point","coordinates":[9.38062,55.6984]},"properties":{"id":"way/1092130948","name":"Bredsten Sol","fuel":"solar","source":"solar","method":"thermal;photovoltaic","capacityMW":0.05,"operator":"Bredsten-Balle Kraftvarmeværk A.m.b.a.","start":"2016","osmType":"way"}},{"type":"Feature","geometry":{"type":"Point","coordinates":[11.30251,54.70447]},"properties":{"id":"relation/17495310","name":"Rødby Fjord Solpark","fuel":"solar","source":"solar","method":null,"capacityMW":71,"operator":"Encavis","start":null,"osmType":"relation"}},{"type":"Feature","geometry":{"type":"Point","coordinates":[8.55839,55.96298]},"properties":{"id":"way/1106269867","name":"Unnamed site","fuel":"solar","source":"solar","method":"photovoltaic","capacityMW":null,"operator":null,"start":null,"osmType":"way"}},{"type":"Feature","geometry":{"type":"Point","coordinates":[9.65412,55.48317]},"properties":{"id":"way/1125866324","name":"Unnamed site","fuel":"hydro","source":"hydro","method":null,"capacityMW":null,"operator":null,"start":null,"osmType":"way"}},{"type":"Feature","geometry":{"type":"Point","coordinates":[9.32145,54.93873]},"properties":{"id":"relation/15081466","name":"Unnamed site","fuel":"solar","source":"solar","method":"photovoltaic","capacityMW":null,"operator":null,"start":null,"osmType":"relation"}},{"type":"Feature","geometry":{"type":"Point","coordinates":[9.33528,54.94136]},"properties":{"id":"way/1126689926","name":"Unnamed site","fuel":"solar","source":"solar","method":"photovoltaic","capacityMW":null,"operator":null,"start":null,"osmType":"way"}},{"type":"Feature","geometry":{"type":"Point","coordinates":[12.22023,55.32555]},"properties":{"id":"way/1133561628","name":"Tryggevælde Solar Park","fuel":"solar","source":"solar","method":"photovoltaic","capacityMW":41,"operator":null,"start":null,"osmType":"way"}},{"type":"Feature","geometry":{"type":"Point","coordinates":[11.8311,55.09214]},"properties":{"id":"way/1147427245","name":"Nature Energy Køng","fuel":"bioenergy","source":"biomass","method":"anaerobic_digestion","capacityMW":null,"operator":null,"start":null,"osmType":"way"}},{"type":"Feature","geometry":{"type":"Point","coordinates":[8.50531,55.45632]},"properties":{"id":"way/1152698907","name":"Vindtestcenter Måde PTX","fuel":"other","source":"electricity","method":"electrolysis","capacityMW":null,"operator":"European Energy","start":"2024-10-28","osmType":"way"}},{"type":"Feature","geometry":{"type":"Point","coordinates":[12.59905,55.65967]},"properties":{"id":"way/1164848513","name":"Sundholm Varmecentral","fuel":"gas","source":"gas;oil","method":"combustion","capacityMW":null,"operator":"HOFOR","start":null,"osmType":"way"}},{"type":"Feature","geometry":{"type":"Point","coordinates":[11.61185,54.7949]},"properties":{"id":"relation/19349875","name":"Maribo-Sakskøbing Kraftvarmeværk","fuel":"bioenergy","source":"biomass","method":null,"capacityMW":9,"operator":"REFA","start":null,"osmType":"relation"}},{"type":"Feature","geometry":{"type":"Point","coordinates":[11.89138,55.05035]},"properties":{"id":"relation/19130938","name":"Barmosen Solcellepark","fuel":"solar","source":"solar","method":"photovoltaic","capacityMW":84,"operator":null,"start":"2022-06-14","osmType":"relation"}},{"type":"Feature","geometry":{"type":"Point","coordinates":[12.31821,55.84001]},"properties":{"id":"way/1177768242","name":"Unnamed site","fuel":"solar","source":"solar","method":"photovoltaic","capacityMW":null,"operator":null,"start":null,"osmType":"way"}},{"type":"Feature","geometry":{"type":"Point","coordinates":[12.10208,55.26066]},"properties":{"id":"way/1183400836","name":"Royal Unibrew Solcellepark","fuel":"solar","source":"solar","method":"photovoltaic","capacityMW":10,"operator":"Royal Unibrew","start":null,"osmType":"way"}},{"type":"Feature","geometry":{"type":"Point","coordinates":[10.45182,55.33879]},"properties":{"id":"relation/18997754","name":"Højby Solcellepark","fuel":"solar","source":"solar","method":"photovoltaic","capacityMW":24.95,"operator":"GreenGo Energy Group A/S","start":"2023-08-16","osmType":"relation"}},{"type":"Feature","geometry":{"type":"Point","coordinates":[9.99545,54.91281]},"properties":{"id":"way/1184650819","name":"Lysabild Solpark","fuel":"solar","source":"solar","method":"photovoltaic","capacityMW":33,"operator":"Nordic Solar","start":null,"osmType":"way"}},{"type":"Feature","geometry":{"type":"Point","coordinates":[8.98222,56.63565]},"properties":{"id":"way/1185218207","name":"GreenLab Solcellepark","fuel":"solar","source":"solar","method":"photovoltaic","capacityMW":30.8,"operator":null,"start":"2024-03-25","osmType":"way"}},{"type":"Feature","geometry":{"type":"Point","coordinates":[8.99231,56.56819]},"properties":{"id":"way/1188874909","name":"Unnamed site","fuel":"other","source":null,"method":null,"capacityMW":null,"operator":"Skive Fjernvarme a.m.b.a","start":"2024-06-21","osmType":"way"}},{"type":"Feature","geometry":{"type":"Point","coordinates":[9.90664,56.2223]},"properties":{"id":"relation/19131063","name":"Voldby Solcellepark","fuel":"solar","source":"solar","method":"photovoltaic","capacityMW":44.4,"operator":null,"start":"2022-12-14","osmType":"relation"}},{"type":"Feature","geometry":{"type":"Point","coordinates":[12.01113,55.33308]},"properties":{"id":"way/1189561809","name":"Solpark Freerslev","fuel":"solar","source":"solar","method":"photovoltaic","capacityMW":80,"operator":null,"start":null,"osmType":"way"}},{"type":"Feature","geometry":{"type":"Point","coordinates":[8.91875,56.10409]},"properties":{"id":"way/1190765970","name":"Herning Bioenergi - Studsgaard","fuel":"bioenergy","source":"biomass","method":"anaerobic_digestion","capacityMW":null,"operator":null,"start":null,"osmType":"way"}},{"type":"Feature","geometry":{"type":"Point","coordinates":[10.11709,56.72653]},"properties":{"id":"way/1193510071","name":"Unnamed site","fuel":"other","source":null,"method":null,"capacityMW":null,"operator":null,"start":null,"osmType":"way"}},{"type":"Feature","geometry":{"type":"Point","coordinates":[8.32033,55.67253]},"properties":{"id":"way/1206661542","name":"Unnamed site","fuel":"solar","source":"solar","method":"photovoltaic","capacityMW":null,"operator":null,"start":null,"osmType":"way"}},{"type":"Feature","geometry":{"type":"Point","coordinates":[9.20053,55.50048]},"properties":{"id":"way/1206809987","name":"Unnamed site","fuel":"solar","source":"solar","method":"photovoltaic","capacityMW":null,"operator":null,"start":null,"osmType":"way"}},{"type":"Feature","geometry":{"type":"Point","coordinates":[10.3361,55.35437]},"properties":{"id":"way/1212966434","name":"Dyrup Varmecentral","fuel":"oil","source":"oil;gas","method":"combustion","capacityMW":null,"operator":"Fjernvarme Fyn Distribution A/S","start":"1969","osmType":"way"}},{"type":"Feature","geometry":{"type":"Point","coordinates":[9.1062,57.08965]},"properties":{"id":"relation/19123711","name":"Vust Holme Solcellepark","fuel":"solar","source":"solar","method":"photovoltaic","capacityMW":23.5,"operator":null,"start":"2022-12-13","osmType":"relation"}},{"type":"Feature","geometry":{"type":"Point","coordinates":[8.66202,55.86595]},"properties":{"id":"relation/19130973","name":"Vindingvej Solcellepark","fuel":"solar","source":"solar","method":"photovoltaic","capacityMW":38.4,"operator":null,"start":"2022-10-28","osmType":"relation"}},{"type":"Feature","geometry":{"type":"Point","coordinates":[8.7339,56.20359]},"properties":{"id":"way/1214750683","name":"Vildbjerg Vest Solcellepark","fuel":"solar","source":"solar","method":"photovoltaic","capacityMW":16.8,"operator":null,"start":"2022-12-15","osmType":"way"}},{"type":"Feature","geometry":{"type":"Point","coordinates":[8.3281,55.8505]},"properties":{"id":"relation/19119596","name":"Holmen Solcellepark II","fuel":"solar","source":"solar","method":"photovoltaic","capacityMW":42.8,"operator":null,"start":"2022-12-23","osmType":"relation"}},{"type":"Feature","geometry":{"type":"Point","coordinates":[8.17614,56.43955]},"properties":{"id":"relation/19130992","name":"Solcellepark Høvsøre","fuel":"solar","source":"solar","method":"photovoltaic","capacityMW":32.3,"operator":"Jysk Energi","start":"2022-12-03","osmType":"relation"}},{"type":"Feature","geometry":{"type":"Point","coordinates":[10.64568,55.08918]},"properties":{"id":"relation/19008809","name":"Solcellepark Svendborg Øst","fuel":"solar","source":"solar","method":"photovoltaic","capacityMW":23.94,"operator":"Better Energy A/S","start":"2022","osmType":"relation"}},{"type":"Feature","geometry":{"type":"Point","coordinates":[11.42317,55.29476]},"properties":{"id":"way/1217261985","name":"Hashøj Kraftvarmeforsyning","fuel":"other","source":null,"method":null,"capacityMW":null,"operator":null,"start":null,"osmType":"way"}},{"type":"Feature","geometry":{"type":"Point","coordinates":[10.46143,56.30697]},"properties":{"id":"way/1226763022","name":"Rønde Fjernvarmeværk","fuel":"bioenergy","source":"biomass","method":null,"capacityMW":null,"operator":"Rønde Fjernvarme a.m.b.a","start":null,"osmType":"way"}},{"type":"Feature","geometry":{"type":"Point","coordinates":[9.32306,54.94059]},"properties":{"id":"relation/19074346","name":"Bjerndrup Solpark","fuel":"solar","source":"solar","method":"photovoltaic","capacityMW":56.07,"operator":"Better Energy Bjerndrup P/S","start":"2022-10-04","osmType":"relation"}},{"type":"Feature","geometry":{"type":"Point","coordinates":[9.31084,54.93983]},"properties":{"id":"way/1238837387","name":"Unnamed site","fuel":"solar","source":"solar","method":"photovoltaic","capacityMW":null,"operator":null,"start":null,"osmType":"way"}},{"type":"Feature","geometry":{"type":"Point","coordinates":[11.34678,55.4167]},"properties":{"id":"way/1244727440","name":"Slagelse Kraftvarmeværk","fuel":"other","source":null,"method":null,"capacityMW":null,"operator":"SK Varme A/S","start":null,"osmType":"way"}},{"type":"Feature","geometry":{"type":"Point","coordinates":[11.16265,55.32663]},"properties":{"id":"relation/17130281","name":"SK-Varme - Nordbrinken","fuel":"other","source":null,"method":null,"capacityMW":null,"operator":null,"start":null,"osmType":"relation"}},{"type":"Feature","geometry":{"type":"Point","coordinates":[12.59021,55.60441]},"properties":{"id":"way/1245778711","name":"Unnamed site","fuel":"other","source":null,"method":null,"capacityMW":null,"operator":null,"start":null,"osmType":"way"}},{"type":"Feature","geometry":{"type":"Point","coordinates":[9.35155,56.16956]},"properties":{"id":"way/1263271364","name":"Engesvang-Moselund Kraftvarmeværk","fuel":"other","source":null,"method":null,"capacityMW":null,"operator":"Energi Ikast Varme","start":null,"osmType":"way"}},{"type":"Feature","geometry":{"type":"Point","coordinates":[11.27269,54.72661]},"properties":{"id":"relation/17493658","name":"Unnamed site","fuel":"solar","source":"solar","method":"photovoltaic","capacityMW":70,"operator":"Better Energy Hoby P/S","start":null,"osmType":"relation"}},{"type":"Feature","geometry":{"type":"Point","coordinates":[11.13644,55.35042]},"properties":{"id":"way/1274483760","name":"Unnamed site","fuel":"solar","source":"solar","method":"thermal","capacityMW":null,"operator":null,"start":null,"osmType":"way"}},{"type":"Feature","geometry":{"type":"Point","coordinates":[8.62412,55.80642]},"properties":{"id":"way/1280419009","name":"Unnamed site","fuel":"solar","source":"solar","method":"photovoltaic","capacityMW":null,"operator":null,"start":null,"osmType":"way"}},{"type":"Feature","geometry":{"type":"Point","coordinates":[8.79189,55.80303]},"properties":{"id":"way/1281085561","name":"Urup Solcellepark","fuel":"solar","source":"solar","method":"photovoltaic","capacityMW":50.2,"operator":"Lynggaard ApS","start":"2024-12-02","osmType":"way"}},{"type":"Feature","geometry":{"type":"Point","coordinates":[8.88373,55.52931]},"properties":{"id":"way/1283924983","name":"Holsted Solar Park","fuel":"solar","source":"solar","method":"photovoltaic","capacityMW":140.9,"operator":null,"start":"2024-12-18","osmType":"way"}},{"type":"Feature","geometry":{"type":"Point","coordinates":[8.74572,56.27087]},"properties":{"id":"way/1287385296","name":"St. Soels Energipark","fuel":"solar","source":"solar","method":"photovoltaic","capacityMW":18.9,"operator":null,"start":"2022-03-15","osmType":"way"}},{"type":"Feature","geometry":{"type":"Point","coordinates":[10.2439,55.92355]},"properties":{"id":"way/1292910617","name":"Boulstrup-Hou Kraftvarmeværk","fuel":"gas","source":"gas","method":"combustion","capacityMW":2.26,"operator":"Boulstrup-Hou Kraftvarmeværk a.m.b.a.","start":"1997","osmType":"way"}},{"type":"Feature","geometry":{"type":"Point","coordinates":[10.38168,57.29976]},"properties":{"id":"relation/19133847","name":"Badskær Solcellepark","fuel":"solar","source":"solar","method":"photovoltaic","capacityMW":55.5,"operator":"Better Energy Badskær P/S","start":"2023-06-13","osmType":"relation"}},{"type":"Feature","geometry":{"type":"Point","coordinates":[9.54273,55.67044]},"properties":{"id":"way/1301619640","name":"Unnamed site","fuel":"solar","source":"solar","method":"photovoltaic","capacityMW":null,"operator":null,"start":null,"osmType":"way"}},{"type":"Feature","geometry":{"type":"Point","coordinates":[9.54201,55.66955]},"properties":{"id":"way/1301619641","name":"Unnamed site","fuel":"solar","source":"solar","method":"photovoltaic","capacityMW":null,"operator":null,"start":null,"osmType":"way"}},{"type":"Feature","geometry":{"type":"Point","coordinates":[9.13752,55.71647]},"properties":{"id":"way/1305951371","name":"Unnamed site","fuel":"solar","source":"solar","method":"photovoltaic","capacityMW":null,"operator":null,"start":null,"osmType":"way"}},{"type":"Feature","geometry":{"type":"Point","coordinates":[14.72442,55.17074]},"properties":{"id":"way/1306175474","name":"Unnamed site","fuel":"storage","source":"battery","method":null,"capacityMW":30,"operator":"EWII Energi","start":null,"osmType":"way"}},{"type":"Feature","geometry":{"type":"Point","coordinates":[8.12965,56.00364]},"properties":{"id":"relation/18001786","name":"Hvide Sande Fjernvarme - Solvarmeanlæg","fuel":"solar","source":"solar","method":"thermal","capacityMW":null,"operator":null,"start":"2014","osmType":"relation"}},{"type":"Feature","geometry":{"type":"Point","coordinates":[8.5254,55.91088]},"properties":{"id":"way/1313169438","name":"Tarm varmeværk","fuel":"solar","source":"solar","method":"thermal","capacityMW":null,"operator":null,"start":null,"osmType":"way"}},{"type":"Feature","geometry":{"type":"Point","coordinates":[14.72482,55.11987]},"properties":{"id":"way/1321626793","name":"Unnamed site","fuel":"solar","source":"solar","method":"photovoltaic","capacityMW":null,"operator":null,"start":null,"osmType":"way"}},{"type":"Feature","geometry":{"type":"Point","coordinates":[10.00148,56.40511]},"properties":{"id":"way/1327905101","name":"Unnamed site","fuel":"solar","source":"solar","method":"photovoltaic","capacityMW":null,"operator":null,"start":null,"osmType":"way"}},{"type":"Feature","geometry":{"type":"Point","coordinates":[9.47801,56.69957]},"properties":{"id":"way/1339911480","name":"Unnamed site","fuel":"solar","source":"solar","method":"photovoltaic","capacityMW":null,"operator":null,"start":null,"osmType":"way"}},{"type":"Feature","geometry":{"type":"Point","coordinates":[9.16118,56.50336]},"properties":{"id":"relation/19131024","name":"Stoholm Solcellepark","fuel":"solar","source":"solar","method":"photovoltaic","capacityMW":54.3,"operator":null,"start":"2022-12-11","osmType":"relation"}},{"type":"Feature","geometry":{"type":"Point","coordinates":[10.55076,55.96664]},"properties":{"id":"way/1358375742","name":"Unnamed site","fuel":"solar","source":"solar","method":"photovoltaic","capacityMW":null,"operator":null,"start":null,"osmType":"way"}},{"type":"Feature","geometry":{"type":"Point","coordinates":[10.55053,55.96401]},"properties":{"id":"way/1358519632","name":"Unnamed site","fuel":"solar","source":"solar","method":null,"capacityMW":null,"operator":null,"start":null,"osmType":"way"}},{"type":"Feature","geometry":{"type":"Point","coordinates":[10.55052,55.96398]},"properties":{"id":"way/1358519633","name":"Unnamed site","fuel":"solar","source":"solar","method":null,"capacityMW":null,"operator":null,"start":null,"osmType":"way"}},{"type":"Feature","geometry":{"type":"Point","coordinates":[10.55053,55.96395]},"properties":{"id":"way/1358519634","name":"Unnamed site","fuel":"solar","source":"solar","method":null,"capacityMW":null,"operator":null,"start":null,"osmType":"way"}},{"type":"Feature","geometry":{"type":"Point","coordinates":[9.9433,56.04952]},"properties":{"id":"way/1368995181","name":"Unnamed site","fuel":"other","source":null,"method":null,"capacityMW":null,"operator":"Skanderborg-Hørning Fjernvarme","start":null,"osmType":"way"}},{"type":"Feature","geometry":{"type":"Point","coordinates":[10.62748,55.09085]},"properties":{"id":"way/1378051246","name":"Unnamed site","fuel":"solar","source":"solar","method":"photovoltaic","capacityMW":0.4,"operator":null,"start":"2013","osmType":"way"}},{"type":"Feature","geometry":{"type":"Point","coordinates":[10.33781,55.49861]},"properties":{"id":"way/1385646296","name":"Kronborg Solceller","fuel":"solar","source":"solar","method":"photovoltaic","capacityMW":3.8,"operator":null,"start":"2022-12-12","osmType":"way"}},{"type":"Feature","geometry":{"type":"Point","coordinates":[10.28903,57.1634]},"properties":{"id":"way/1385655834","name":"Dronninglund Kraftvarmeværk","fuel":"gas","source":"gas","method":"combustion","capacityMW":3.5,"operator":null,"start":"1990","osmType":"way"}},{"type":"Feature","geometry":{"type":"Point","coordinates":[10.93652,57.26858]},"properties":{"id":"way/1385849945","name":"Læsø Solcellepark","fuel":"solar","source":"solar","method":"photovoltaic","capacityMW":6.7,"operator":null,"start":"2018-05-28","osmType":"way"}},{"type":"Feature","geometry":{"type":"Point","coordinates":[9.45931,56.87616]},"properties":{"id":"way/1385969291","name":"Navnsø Solcellepark","fuel":"solar","source":"solar","method":"photovoltaic","capacityMW":33.1,"operator":null,"start":"2021-12-02","osmType":"way"}},{"type":"Feature","geometry":{"type":"Point","coordinates":[8.78678,56.21082]},"properties":{"id":"way/1386627029","name":"Romvigvej Solcellepark","fuel":"solar","source":"solar","method":"photovoltaic","capacityMW":36.7,"operator":null,"start":"2025-01-29","osmType":"way"}},{"type":"Feature","geometry":{"type":"Point","coordinates":[9.71335,56.27038]},"properties":{"id":"relation/19131100","name":"Solcellepark Fårvang","fuel":"solar","source":"solar","method":"photovoltaic","capacityMW":12,"operator":"Better Energy","start":"2016-12-01","osmType":"relation"}},{"type":"Feature","geometry":{"type":"Point","coordinates":[10.40017,57.17905]},"properties":{"id":"way/1386982113","name":"Skelgårdsvej Solcellepark","fuel":"solar","source":"solar","method":"photovoltaic","capacityMW":25,"operator":null,"start":"2022-03-16","osmType":"way"}},{"type":"Feature","geometry":{"type":"Point","coordinates":[10.19634,56.78116]},"properties":{"id":"way/1386985620","name":"Solcellepark Vedum Kær","fuel":"solar","source":"solar","method":"photovoltaic","capacityMW":15,"operator":"K/S Veddum Kær Sol","start":"2022-04-11","osmType":"way"}},{"type":"Feature","geometry":{"type":"Point","coordinates":[14.81196,55.1774]},"properties":{"id":"way/1387082550","name":"Klemensker Halmvarmeværk","fuel":"bioenergy","source":"biomass;oil","method":"combustion","capacityMW":null,"operator":null,"start":"1986","osmType":"way"}},{"type":"Feature","geometry":{"type":"Point","coordinates":[12.31093,55.90745]},"properties":{"id":"way/1387085287","name":"Hillerød Kraftvarmeværk","fuel":"gas","source":"gas","method":"combustion","capacityMW":77,"operator":"Hillerød Forsyning","start":"1991","osmType":"way"}},{"type":"Feature","geometry":{"type":"Point","coordinates":[8.80687,56.27134]},"properties":{"id":"relation/19135584","name":"Aulum Kraftvarmeværk","fuel":"gas","source":"gas;solar","method":"combustion;thermal","capacityMW":5.1,"operator":"Aulum Fjernvarme a.m.b.a.","start":null,"osmType":"relation"}},{"type":"Feature","geometry":{"type":"Point","coordinates":[9.2372,55.02249]},"properties":{"id":"relation/19109694","name":"Kassø Solcellepark","fuel":"solar","source":"solar","method":"photovoltaic","capacityMW":238,"operator":null,"start":"2022-05-23","osmType":"relation"}},{"type":"Feature","geometry":{"type":"Point","coordinates":[10.33825,55.33045]},"properties":{"id":"way/1387892406","name":"Bellinge Varmecentral","fuel":"oil","source":"oil","method":"combustion","capacityMW":null,"operator":"Fjernvarme Fyn","start":"1986","osmType":"way"}},{"type":"Feature","geometry":{"type":"Point","coordinates":[10.40104,55.5136]},"properties":{"id":"way/1387895689","name":"Otterup Varmecentral","fuel":"gas","source":"gas;oil","method":"combustion","capacityMW":null,"operator":"Fjernvarme Fyn","start":"1964","osmType":"way"}},{"type":"Feature","geometry":{"type":"Point","coordinates":[10.81285,55.30404]},"properties":{"id":"way/1388543095","name":"Varmecentral Fladet","fuel":"bioenergy","source":"biomass;gas","method":"combustion","capacityMW":null,"operator":"NFS Varme A/S","start":"1975","osmType":"way"}},{"type":"Feature","geometry":{"type":"Point","coordinates":[9.38053,55.70303]},"properties":{"id":"way/1388645341","name":"Bredsten-Balle Kraftvarmeværk","fuel":"gas","source":"gas","method":"combustion","capacityMW":2.79,"operator":"Bredsten-Balle Kraftvarmeværk A.m.b.a.","start":"1965","osmType":"way"}},{"type":"Feature","geometry":{"type":"Point","coordinates":[10.25012,55.09499]},"properties":{"id":"way/1388875807","name":"Faaborg Kraftvarmeværk","fuel":"gas","source":"gas","method":"combustion","capacityMW":7.5,"operator":"FFV Energi & Miljø A/S","start":"1995","osmType":"way"}},{"type":"Feature","geometry":{"type":"Point","coordinates":[10.10441,55.27691]},"properties":{"id":"way/1388878895","name":"Glamsbjerg Kraftvarmeværk","fuel":"gas","source":"gas","method":"combustion","capacityMW":3.7,"operator":"Glamsbjerg-Haarby Varmeværk a.m.b.a.","start":"1961","osmType":"way"}},{"type":"Feature","geometry":{"type":"Point","coordinates":[8.49283,56.3767]},"properties":{"id":"relation/12662783","name":"Gedmose Solcellepark","fuel":"solar","source":"solar","method":"photovoltaic","capacityMW":207,"operator":"Better Energy","start":"2021","osmType":"relation"}},{"type":"Feature","geometry":{"type":"Point","coordinates":[8.31803,56.76319]},"properties":{"id":"way/1390024373","name":"Vestervig Fjernvarme","fuel":"other","source":null,"method":null,"capacityMW":null,"operator":null,"start":null,"osmType":"way"}},{"type":"Feature","geometry":{"type":"Point","coordinates":[10.37896,57.19782]},"properties":{"id":"way/1390212973","name":"Agersted Varmeværk","fuel":"gas","source":"gas","method":"combustion","capacityMW":1.41,"operator":null,"start":"1960","osmType":"way"}},{"type":"Feature","geometry":{"type":"Point","coordinates":[9.31044,55.61411]},"properties":{"id":"way/1390215134","name":"Egtved Varmeværk Søndergade","fuel":"gas","source":"gas","method":"combustion","capacityMW":3.73,"operator":"Egtved Varmeværk a.m.b.a.","start":"1959","osmType":"way"}},{"type":"Feature","geometry":{"type":"Point","coordinates":[9.2783,56.14467]},"properties":{"id":"way/1390219265","name":"Bording Kraftvarmeværk","fuel":"gas","source":"gas","method":"combustion","capacityMW":4.16,"operator":"Energi Ikast Varme A/S","start":"1962","osmType":"way"}},{"type":"Feature","geometry":{"type":"Point","coordinates":[8.28925,55.62193]},"properties":{"id":"way/1390225322","name":"Oksbøl Varmeværk","fuel":"gas","source":"gas;solar","method":"combustion","capacityMW":5.5,"operator":"Andelsselskabet Oksbøl Varmeværk","start":"1994","osmType":"way"}},{"type":"Feature","geometry":{"type":"Point","coordinates":[11.41049,55.65876]},"properties":{"id":"relation/19185655","name":"Jyderup Varmeværk","fuel":"gas","source":"gas;solar","method":"combustion;thermal","capacityMW":5.5,"operator":"FORS Varme Holbæk A/S","start":"1963","osmType":"relation"}},{"type":"Feature","geometry":{"type":"Point","coordinates":[10.23852,57.34095]},"properties":{"id":"way/1390462032","name":"Østervrå Varmeværk","fuel":"gas","source":"gas;electricity","method":"combustion","capacityMW":3.05,"operator":"Østervrå Varmeværk a.m.b.a.","start":"1965","osmType":"way"}},{"type":"Feature","geometry":{"type":"Point","coordinates":[9.91191,55.2561]},"properties":{"id":"way/1390478069","name":"Regulerkraftanlæg Assens","fuel":"oil","source":"oil","method":"combustion","capacityMW":16,"operator":"Energi Fyn Produktion A/S","start":"2007","osmType":"way"}},{"type":"Feature","geometry":{"type":"Point","coordinates":[10.36697,55.38656]},"properties":{"id":"way/1390481563","name":"Nød- og reguler-kraftanlæg OUH","fuel":"oil","source":"oil","method":"combustion","capacityMW":16,"operator":"Energi Fyn Produktion A/S","start":"2009-06-26","osmType":"way"}},{"type":"Feature","geometry":{"type":"Point","coordinates":[12.06142,55.8439]},"properties":{"id":"way/1390487619","name":"Frederikssund Kraftvarmeværk","fuel":"gas","source":"gas","method":"combustion","capacityMW":10.8,"operator":"E.ON Danmark","start":"1964","osmType":"way"}},{"type":"Feature","geometry":{"type":"Point","coordinates":[8.86108,54.9518]},"properties":{"id":"way/1390492268","name":"Regulerkraftværk Tønder","fuel":"oil","source":"oil","method":"combustion","capacityMW":20.4,"operator":"Skou Hansen I/S","start":"2007-10-12","osmType":"way"}},{"type":"Feature","geometry":{"type":"Point","coordinates":[9.15097,55.95886]},"properties":{"id":"way/1390544209","name":"Dørslund Vandkraftværk","fuel":"hydro","source":"hydro","method":"water-storage","capacityMW":0.15,"operator":"Midtjyllands Elektricitetsforsynings Selskab a.m.b.a.","start":"1922","osmType":"way"}},{"type":"Feature","geometry":{"type":"Point","coordinates":[9.75283,56.09168]},"properties":{"id":"way/1390548029","name":"Ry Mølle Vandkraftværk","fuel":"hydro","source":"hydro","method":"water-storage","capacityMW":0.12,"operator":"Ry Mølle A/S","start":"1917","osmType":"way"}},{"type":"Feature","geometry":{"type":"Point","coordinates":[8.28022,56.0923]},"properties":{"id":"relation/19187735","name":"Rindumværket","fuel":"gas","source":"gas;solar;electricity","method":"combustion;thermal","capacityMW":8.73,"operator":"Ringkøbing Fjernvarme a.m.b.a.","start":"1980","osmType":"relation"}},{"type":"Feature","geometry":{"type":"Point","coordinates":[11.72898,55.20859]},"properties":{"id":"way/1391616018","name":"AffaldPlus Affaldsenergi","fuel":"waste","source":"waste","method":"combustion","capacityMW":13,"operator":"I/S AffaldPlus","start":"1982","osmType":"way"}},{"type":"Feature","geometry":{"type":"Point","coordinates":[10.50067,55.3451]},"properties":{"id":"relation/19119512","name":"Fraugde Solcellepark","fuel":"solar","source":"solar","method":"photovoltaic","capacityMW":60,"operator":"Better Energy Fraugde P/S","start":"2024-09-17","osmType":"relation"}},{"type":"Feature","geometry":{"type":"Point","coordinates":[8.1932,56.50894]},"properties":{"id":"relation/19556095","name":"Skovgaard Energy Solcellepark","fuel":"solar","source":"solar","method":"photovoltaic","capacityMW":39,"operator":null,"start":"2022-12-22","osmType":"relation"}},{"type":"Feature","geometry":{"type":"Point","coordinates":[7.63918,56.30612]},"properties":{"id":"way/1434829493","name":"Thor Offshore Wind Farm","fuel":"wind_offshore","source":"wind","method":"wind_turbine","capacityMW":1000,"operator":"RWE","start":null,"osmType":"way"}},{"type":"Feature","geometry":{"type":"Point","coordinates":[10.1994,57.45819]},"properties":{"id":"way/1441569927","name":"Unnamed site","fuel":"solar","source":"solar","method":"photovoltaic","capacityMW":0.01,"operator":null,"start":null,"osmType":"way"}},{"type":"Feature","geometry":{"type":"Point","coordinates":[12.10969,55.24675]},"properties":{"id":"way/1443095187","name":"Unnamed site","fuel":"gas","source":"gas","method":"combustion","capacityMW":null,"operator":null,"start":null,"osmType":"way"}},{"type":"Feature","geometry":{"type":"Point","coordinates":[10.34474,56.46954]},"properties":{"id":"way/1443428975","name":"Unnamed site","fuel":"other","source":"geothermal","method":null,"capacityMW":null,"operator":null,"start":null,"osmType":"way"}},{"type":"Feature","geometry":{"type":"Point","coordinates":[12.09255,55.36406]},"properties":{"id":"way/1444857360","name":"Unnamed site","fuel":"solar","source":"solar","method":null,"capacityMW":null,"operator":null,"start":null,"osmType":"way"}},{"type":"Feature","geometry":{"type":"Point","coordinates":[12.0515,55.64292]},"properties":{"id":"way/1445777401","name":"Unnamed site","fuel":"solar","source":"solar","method":"photovoltaic","capacityMW":0.18,"operator":"Roskilde kommune","start":"2014","osmType":"way"}},{"type":"Feature","geometry":{"type":"Point","coordinates":[9.92649,56.03599]},"properties":{"id":"way/1456209652","name":"Skanderborg-Hørning Fjernvarme","fuel":"other","source":null,"method":null,"capacityMW":null,"operator":"Skanderborg-Hørning Fjernvarme","start":null,"osmType":"way"}},{"type":"Feature","geometry":{"type":"Point","coordinates":[9.78117,55.76486]},"properties":{"id":"way/1458466806","name":"Unnamed site","fuel":"solar","source":"solar","method":null,"capacityMW":null,"operator":null,"start":null,"osmType":"way"}},{"type":"Feature","geometry":{"type":"Point","coordinates":[12.29173,55.7202]},"properties":{"id":"way/1459435160","name":"Unnamed site","fuel":"solar","source":"solar","method":"photovoltaic","capacityMW":null,"operator":null,"start":null,"osmType":"way"}},{"type":"Feature","geometry":{"type":"Point","coordinates":[10.48218,57.45809]},"properties":{"id":"way/1466485204","name":"Frederikshavn Affaldskraftvarmeværk","fuel":"waste","source":"waste","method":"combustion","capacityMW":2.5,"operator":"Frederikshavn Forsyning A/S","start":null,"osmType":"way"}},{"type":"Feature","geometry":{"type":"Point","coordinates":[12.63248,55.6191]},"properties":{"id":"way/1472505080","name":"Unnamed site","fuel":"storage","source":"battery","method":null,"capacityMW":0.9,"operator":null,"start":"2024","osmType":"way"}},{"type":"Feature","geometry":{"type":"Point","coordinates":[8.63561,56.35748]},"properties":{"id":"way/1484065689","name":"Unnamed site","fuel":"other","source":null,"method":null,"capacityMW":null,"operator":null,"start":null,"osmType":"way"}},{"type":"Feature","geometry":{"type":"Point","coordinates":[9.11813,55.73341]},"properties":{"id":"way/1485312694","name":"Unnamed site","fuel":"other","source":null,"method":null,"capacityMW":null,"operator":null,"start":null,"osmType":"way"}},{"type":"Feature","geometry":{"type":"Point","coordinates":[9.10071,55.72349]},"properties":{"id":"way/1485440070","name":"Unnamed site","fuel":"other","source":null,"method":null,"capacityMW":null,"operator":null,"start":null,"osmType":"way"}},{"type":"Feature","geometry":{"type":"Point","coordinates":[8.58278,56.37561]},"properties":{"id":"way/1485615893","name":"Unnamed site","fuel":"other","source":null,"method":null,"capacityMW":null,"operator":null,"start":null,"osmType":"way"}},{"type":"Feature","geometry":{"type":"Point","coordinates":[11.31697,54.83855]},"properties":{"id":"way/1507693966","name":"Unnamed site","fuel":"bioenergy","source":"biomass","method":"anaerobic_digestion","capacityMW":null,"operator":"Shell Biogas","start":null,"osmType":"way"}},{"type":"Feature","geometry":{"type":"Point","coordinates":[11.95437,55.04308]},"properties":{"id":"way/1512670784","name":"Unnamed site","fuel":"solar","source":"solar","method":"photovoltaic","capacityMW":null,"operator":null,"start":null,"osmType":"way"}},{"type":"Feature","geometry":{"type":"Point","coordinates":[9.73115,56.26792]},"properties":{"id":"way/1529358697","name":"Fårvang Varmeværk","fuel":"other","source":null,"method":"combustion","capacityMW":null,"operator":"Hammel Fjernvarme","start":null,"osmType":"way"}},{"type":"Feature","geometry":{"type":"Point","coordinates":[9.90598,56.15224]},"properties":{"id":"way/1530959805","name":"Galten Varmeværk","fuel":"other","source":null,"method":null,"capacityMW":null,"operator":null,"start":null,"osmType":"way"}},{"type":"Feature","geometry":{"type":"Point","coordinates":[9.99989,57.01437]},"properties":{"id":"relation/21052015","name":"Unnamed site","fuel":"solar","source":"solar","method":"photovoltaic","capacityMW":null,"operator":null,"start":null,"osmType":"relation"}},{"type":"Feature","geometry":{"type":"Point","coordinates":[9.60632,54.9317]},"properties":{"id":"way/1535306135","name":"Central Sønderborg Landevej","fuel":"bioenergy","source":"biomass","method":"combustion","capacityMW":null,"operator":"Sønderborg Varme","start":null,"osmType":"way"}},{"type":"Feature","geometry":{"type":"Point","coordinates":[10.12185,55.26599]},"properties":{"id":"way/1537375323","name":"Glamsbejg-Haarby Varmeværk","fuel":"other","source":null,"method":null,"capacityMW":null,"operator":null,"start":null,"osmType":"way"}},{"type":"Feature","geometry":{"type":"Point","coordinates":[8.9568,55.38281]},"properties":{"id":"relation/21102064","name":"Linkogas","fuel":"bioenergy","source":"biomass","method":null,"capacityMW":null,"operator":null,"start":null,"osmType":"relation"}},{"type":"Feature","geometry":{"type":"Point","coordinates":[7.59018,55.6024]},"properties":{"id":"way/158197465","name":"Horns Rev 2","fuel":"wind_offshore","source":"wind","method":"wind_turbine","capacityMW":209,"operator":"Ørsted","start":null,"osmType":"way"}},{"type":"Feature","geometry":{"type":"Point","coordinates":[8.42398,55.853]},"properties":{"id":"relation/9310126","name":"Lønborg Hede Vindmøllepark","fuel":"wind_onshore","source":"wind","method":"wind_turbine","capacityMW":68.325,"operator":null,"start":"2011-12-20","osmType":"relation"}},{"type":"Feature","geometry":{"type":"Point","coordinates":[8.02569,56.59289]},"properties":{"id":"relation/18001309","name":"Vesterhav Nord","fuel":"wind_offshore","source":"wind","method":"wind_turbine","capacityMW":176.4,"operator":"Vattenfall","start":"2024-02-18","osmType":"relation"}},{"type":"Feature","geometry":{"type":"Point","coordinates":[7.95348,56.07868]},"properties":{"id":"relation/18002222","name":"Vesterhav Syd","fuel":"wind_offshore","source":"wind","method":"wind_turbine","capacityMW":168,"operator":"Vattenfall","start":"2023-11-09","osmType":"relation"}},{"type":"Feature","geometry":{"type":"Point","coordinates":[8.66978,55.0374]},"properties":{"id":"relation/19073410","name":"Rejsby Hede Vindmøllepark","fuel":"wind_onshore","source":"wind","method":"wind_turbine","capacityMW":24,"operator":null,"start":"1995-05-02","osmType":"relation"}},{"type":"Feature","geometry":{"type":"Point","coordinates":[8.268,55.80622]},"properties":{"id":"relation/19074707","name":"Sdr. Bork Vind","fuel":"wind_onshore","source":"wind","method":"wind_turbine","capacityMW":31,"operator":null,"start":"2022-12-15","osmType":"relation"}},{"type":"Feature","geometry":{"type":"Point","coordinates":[8.32714,55.85503]},"properties":{"id":"relation/19075698","name":"Holmen Vindmøllepark","fuel":"wind_onshore","source":"wind","method":"wind_turbine","capacityMW":39.6,"operator":null,"start":"2010-12-20","osmType":"relation"}},{"type":"Feature","geometry":{"type":"Point","coordinates":[8.433,55.8089]},"properties":{"id":"relation/19075713","name":"Lyne-Sdr. Vium Vindmøllepark","fuel":"wind_onshore","source":"wind","method":"wind_turbine","capacityMW":9,"operator":null,"start":"2000-12-20","osmType":"relation"}},{"type":"Feature","geometry":{"type":"Point","coordinates":[8.37403,56.00134]},"properties":{"id":"relation/19075772","name":"Gestenge Vindmøllepark","fuel":"wind_onshore","source":"wind","method":"wind_turbine","capacityMW":6.525,"operator":null,"start":null,"osmType":"relation"}},{"type":"Feature","geometry":{"type":"Point","coordinates":[8.55329,55.81782]},"properties":{"id":"relation/19080091","name":"Tarp Hede Vindmøllepark","fuel":"wind_onshore","source":"wind","method":"wind_turbine","capacityMW":6.6,"operator":null,"start":"1998-12-17","osmType":"relation"}},{"type":"Feature","geometry":{"type":"Point","coordinates":[8.5901,55.89268]},"properties":{"id":"relation/19080116","name":"Bindesbøl Vindmøllepark","fuel":"wind_onshore","source":"wind","method":"wind_turbine","capacityMW":24,"operator":null,"start":"2010-12-15","osmType":"relation"}},{"type":"Feature","geometry":{"type":"Point","coordinates":[8.36742,55.86826]},"properties":{"id":"relation/19080288","name":"Langkjær Bjerge Vindmøller","fuel":"wind_onshore","source":"wind","method":"wind_turbine","capacityMW":2.5,"operator":null,"start":"1995-10-09","osmType":"relation"}},{"type":"Feature","geometry":{"type":"Point","coordinates":[8.5281,55.82594]},"properties":{"id":"relation/19080297","name":"Ravnkjær Vindmøller","fuel":"wind_onshore","source":"wind","method":"wind_turbine","capacityMW":1.98,"operator":null,"start":"1998-06-18","osmType":"relation"}},{"type":"Feature","geometry":{"type":"Point","coordinates":[8.36956,56.09702]},"properties":{"id":"relation/19085243","name":"Nørhede-Hjortmose Vindmøllepark","fuel":"wind_onshore","source":"wind","method":"wind_turbine","capacityMW":72.6,"operator":null,"start":"2013-10-31","osmType":"relation"}},{"type":"Feature","geometry":{"type":"Point","coordinates":[8.35184,56.04679]},"properties":{"id":"relation/19085303","name":"Lemkær Vindmøllepark","fuel":"wind_onshore","source":"wind","method":"wind_turbine","capacityMW":33.825,"operator":null,"start":"2011-12-22","osmType":"relation"}},{"type":"Feature","geometry":{"type":"Point","coordinates":[8.23636,56.11952]},"properties":{"id":"relation/19085358","name":"Rindum Enge Vindmøllepark","fuel":"wind_onshore","source":"wind","method":"wind_turbine","capacityMW":30,"operator":null,"start":"2010-06-22","osmType":"relation"}},{"type":"Feature","geometry":{"type":"Point","coordinates":[8.3175,56.02584]},"properties":{"id":"relation/19085368","name":"Velling Mærsk Forsøgsmøller","fuel":"wind_onshore","source":"wind","method":"wind_turbine","capacityMW":11.2,"operator":null,"start":"2020-12-17","osmType":"relation"}},{"type":"Feature","geometry":{"type":"Point","coordinates":[8.11227,56.00448]},"properties":{"id":"relation/19085377","name":"Hvide Sande Nordhavn Vindmøller","fuel":"wind_offshore","source":"wind","method":"wind_turbine","capacityMW":9.225,"operator":null,"start":"2011-12-20","osmType":"relation"}},{"type":"Feature","geometry":{"type":"Point","coordinates":[8.37365,56.12714]},"properties":{"id":"relation/19085395","name":"Lyngsmose Vindmøller","fuel":"wind_onshore","source":"wind","method":"wind_turbine","capacityMW":6.9,"operator":null,"start":"2008-03-04","osmType":"relation"}},{"type":"Feature","geometry":{"type":"Point","coordinates":[8.48496,56.07878]},"properties":{"id":"relation/19085420","name":"Rudmose Vindmøller","fuel":"wind_onshore","source":"wind","method":"wind_turbine","capacityMW":7.2,"operator":null,"start":"2009-07-07","osmType":"relation"}},{"type":"Feature","geometry":{"type":"Point","coordinates":[8.54455,56.07658]},"properties":{"id":"relation/19085439","name":"Fuglehøj Vindmøller","fuel":"wind_onshore","source":"wind","method":"wind_turbine","capacityMW":1.98,"operator":null,"start":"1999-08-30","osmType":"relation"}},{"type":"Feature","geometry":{"type":"Point","coordinates":[8.48169,56.13394]},"properties":{"id":"relation/19085490","name":"Langagergårde Vindmøller","fuel":"wind_onshore","source":"wind","method":"wind_turbine","capacityMW":1.98,"operator":null,"start":"1997-11-03","osmType":"relation"}},{"type":"Feature","geometry":{"type":"Point","coordinates":[8.57484,56.15417]},"properties":{"id":"relation/19085500","name":"Fjaldene Vindmøllepark","fuel":"wind_onshore","source":"wind","method":"wind_turbine","capacityMW":9,"operator":null,"start":"1994-12-21","osmType":"relation"}},{"type":"Feature","geometry":{"type":"Point","coordinates":[8.27047,56.18433]},"properties":{"id":"relation/19085510","name":"Tim Vindmøllepark","fuel":"wind_onshore","source":"wind","method":"wind_turbine","capacityMW":36,"operator":null,"start":"2013-06-09","osmType":"relation"}},{"type":"Feature","geometry":{"type":"Point","coordinates":[8.24118,56.226]},"properties":{"id":"relation/19085641","name":"Vedersø Kær Vindmøllepark","fuel":"wind_onshore","source":"wind","method":"wind_turbine","capacityMW":15,"operator":null,"start":"2002-12-12","osmType":"relation"}},{"type":"Feature","geometry":{"type":"Point","coordinates":[8.62127,56.11308]},"properties":{"id":"relation/19085720","name":"Videbæk Mose Vindmøller","fuel":"wind_onshore","source":"wind","method":"wind_turbine","capacityMW":12,"operator":null,"start":"2013-09-30","osmType":"relation"}},{"type":"Feature","geometry":{"type":"Point","coordinates":[8.67762,56.13146]},"properties":{"id":"relation/19085744","name":"Vester Barde Vindmøller","fuel":"wind_onshore","source":"wind","method":"wind_turbine","capacityMW":15,"operator":null,"start":"2011-03-03","osmType":"relation"}},{"type":"Feature","geometry":{"type":"Point","coordinates":[8.62891,56.1437]},"properties":{"id":"relation/19085779","name":"Abildå Vindmøller","fuel":"wind_onshore","source":"wind","method":"wind_turbine","capacityMW":12.3,"operator":null,"start":"2013-09-23","osmType":"relation"}},{"type":"Feature","geometry":{"type":"Point","coordinates":[8.36738,56.37254]},"properties":{"id":"relation/19085807","name":"Vemb Vindmøllepark","fuel":"wind_onshore","source":"wind","method":"wind_turbine","capacityMW":41.4,"operator":null,"start":"2015-12-16","osmType":"relation"}},{"type":"Feature","geometry":{"type":"Point","coordinates":[8.30332,56.29563]},"properties":{"id":"relation/19085855","name":"Ulfborg Vindmøller","fuel":"wind_onshore","source":"wind","method":"wind_turbine","capacityMW":10.8,"operator":null,"start":"2010-08-22","osmType":"relation"}},{"type":"Feature","geometry":{"type":"Point","coordinates":[8.46161,56.31964]},"properties":{"id":"relation/19085860","name":"Idom Vindmøller","fuel":"wind_onshore","source":"wind","method":"wind_turbine","capacityMW":13.8,"operator":null,"start":"2018-02-09","osmType":"relation"}},{"type":"Feature","geometry":{"type":"Point","coordinates":[8.40346,56.38351]},"properties":{"id":"relation/19085870","name":"Bur Vindmøllepark","fuel":"wind_onshore","source":"wind","method":"wind_turbine","capacityMW":9,"operator":null,"start":"1997-03-31","osmType":"relation"}},{"type":"Feature","geometry":{"type":"Point","coordinates":[8.31747,56.37065]},"properties":{"id":"relation/19085888","name":"Kikkenborg Vindmøller","fuel":"wind_onshore","source":"wind","method":"wind_turbine","capacityMW":16.5,"operator":null,"start":"2013-12-06","osmType":"relation"}},{"type":"Feature","geometry":{"type":"Point","coordinates":[8.24506,56.67096]},"properties":{"id":"relation/19085939","name":"Nissum Bredning Havvindmøller","fuel":"wind_offshore","source":"wind","method":"wind_turbine","capacityMW":28,"operator":"I/S Nissum Bredning Vind","start":"2018-02-16","osmType":"relation"}},{"type":"Feature","geometry":{"type":"Point","coordinates":[8.62635,57.12341]},"properties":{"id":"relation/19091637","name":"Hanstholm Havn Vindmøller","fuel":"wind_offshore","source":"wind","method":"wind_turbine","capacityMW":10.8,"operator":"Momentum Energy Jutlandia Development K/S","start":"2017-12-28","osmType":"relation"}},{"type":"Feature","geometry":{"type":"Point","coordinates":[8.65351,57.1069]},"properties":{"id":"relation/19091655","name":"Hjertebjerg Vindmøller","fuel":"wind_onshore","source":"wind","method":"wind_turbine","capacityMW":4.8,"operator":"Thisted Kommune","start":"1998-10-31","osmType":"relation"}},{"type":"Feature","geometry":{"type":"Point","coordinates":[8.22149,56.66191]},"properties":{"id":"relation/19093166","name":"Rønland Vindmøllepark","fuel":"wind_offshore","source":"wind","method":"wind_turbine","capacityMW":30.2,"operator":"Thyborøn-Harboøre Vindmøllelaug I/S","start":"2002-12-22","osmType":"relation"}},{"type":"Feature","geometry":{"type":"Point","coordinates":[8.37494,56.73026]},"properties":{"id":"relation/19093188","name":"Gettrup Vindmøller","fuel":"wind_onshore","source":"wind","method":"wind_turbine","capacityMW":12,"operator":null,"start":"2008-02-25","osmType":"relation"}},{"type":"Feature","geometry":{"type":"Point","coordinates":[8.47671,56.67102]},"properties":{"id":"relation/19093208","name":"Lyngs Vindmøller","fuel":"wind_onshore","source":"wind","method":"wind_turbine","capacityMW":15,"operator":null,"start":"2020-11-05","osmType":"relation"}},{"type":"Feature","geometry":{"type":"Point","coordinates":[8.6574,56.76115]},"properties":{"id":"relation/19093228","name":"Sdr. Herreds Plantage Vindmøller","fuel":"wind_onshore","source":"wind","method":"wind_turbine","capacityMW":18,"operator":null,"start":"2014-11-17","osmType":"relation"}},{"type":"Feature","geometry":{"type":"Point","coordinates":[8.36624,56.80818]},"properties":{"id":"relation/19093325","name":"Horsfelt Vindmøllepark","fuel":"wind_onshore","source":"wind","method":"wind_turbine","capacityMW":6.15,"operator":null,"start":"1996-11-05","osmType":"relation"}},{"type":"Feature","geometry":{"type":"Point","coordinates":[8.39053,55.45986]},"properties":{"id":"relation/19102019","name":"Fanø Vindmøller","fuel":"wind_onshore","source":"wind","method":"wind_turbine","capacityMW":1.98,"operator":null,"start":"2002-10-15","osmType":"relation"}},{"type":"Feature","geometry":{"type":"Point","coordinates":[8.6243,55.60196]},"properties":{"id":"relation/19102581","name":"Ulvemose-Bækhede Vindmøllepark","fuel":"wind_onshore","source":"wind","method":"wind_turbine","capacityMW":34.5,"operator":null,"start":"2016-08-15","osmType":"relation"}},{"type":"Feature","geometry":{"type":"Point","coordinates":[8.64539,55.61909]},"properties":{"id":"relation/19102582","name":"Næsbjerg Øst Vindmøllepark","fuel":"wind_onshore","source":"wind","method":"wind_turbine","capacityMW":8.1,"operator":null,"start":"2002-12-11","osmType":"relation"}},{"type":"Feature","geometry":{"type":"Point","coordinates":[8.39249,55.6812]},"properties":{"id":"relation/19102663","name":"Søvig Bæk Vindmøllepark","fuel":"wind_onshore","source":"wind","method":"wind_turbine","capacityMW":12.2,"operator":null,"start":"2000-10-18","osmType":"relation"}},{"type":"Feature","geometry":{"type":"Point","coordinates":[8.36433,55.65621]},"properties":{"id":"relation/19102664","name":"Kærup Vindmøller","fuel":"wind_onshore","source":"wind","method":"wind_turbine","capacityMW":0.75,"operator":null,"start":"1992-01-13","osmType":"relation"}},{"type":"Feature","geometry":{"type":"Point","coordinates":[8.32255,55.64212]},"properties":{"id":"relation/19102665","name":"Tinghøjene Vindmøller","fuel":"wind_onshore","source":"wind","method":"wind_turbine","capacityMW":3.3,"operator":null,"start":"2001-10-25","osmType":"relation"}},{"type":"Feature","geometry":{"type":"Point","coordinates":[8.46907,55.75958]},"properties":{"id":"relation/19104092","name":"Kvong Vindmøller","fuel":"wind_onshore","source":"wind","method":"wind_turbine","capacityMW":3,"operator":null,"start":"1996-12-19","osmType":"relation"}},{"type":"Feature","geometry":{"type":"Point","coordinates":[8.55849,55.96153]},"properties":{"id":"relation/19108196","name":"Arnborgvej Vindmøller","fuel":"wind_onshore","source":"wind","method":"wind_turbine","capacityMW":9,"operator":null,"start":"25-09-2009","osmType":"relation"}},{"type":"Feature","geometry":{"type":"Point","coordinates":[8.58067,56.02042]},"properties":{"id":"relation/19108407","name":"Faster-Astrup Vindmøller","fuel":"wind_onshore","source":"wind","method":"wind_turbine","capacityMW":6,"operator":null,"start":"2015-07-04","osmType":"relation"}},{"type":"Feature","geometry":{"type":"Point","coordinates":[8.66869,56.01407]},"properties":{"id":"relation/19108511","name":"Ejstrup Vindmøller","fuel":"wind_onshore","source":"wind","method":"wind_turbine","capacityMW":9,"operator":null,"start":"2013-08-12","osmType":"relation"}},{"type":"Feature","geometry":{"type":"Point","coordinates":[8.69593,56.16883]},"properties":{"id":"relation/19108769","name":"Smækbjergvej Vindmøllegruppe","fuel":"wind_onshore","source":"wind","method":"wind_turbine","capacityMW":4,"operator":null,"start":"1999-11-25","osmType":"relation"}},{"type":"Feature","geometry":{"type":"Point","coordinates":[8.67084,56.15142]},"properties":{"id":"relation/19108772","name":"Gårdbækvej Vindmøllegruppe","fuel":"wind_onshore","source":"wind","method":"wind_turbine","capacityMW":3,"operator":null,"start":"2000-07-20","osmType":"relation"}},{"type":"Feature","geometry":{"type":"Point","coordinates":[8.66932,56.9972]},"properties":{"id":"relation/19172882","name":"Klitmøllervej Vindmøller","fuel":"wind_onshore","source":"wind","method":"wind_turbine","capacityMW":0.675,"operator":null,"start":"1994-12-22","osmType":"relation"}},{"type":"Feature","geometry":{"type":"Point","coordinates":[8.62879,56.77288]},"properties":{"id":"relation/19172883","name":"Rakkeby Vindmøller","fuel":"wind_onshore","source":"wind","method":"wind_turbine","capacityMW":5.25,"operator":null,"start":"2003-12-17","osmType":"relation"}},{"type":"Feature","geometry":{"type":"Point","coordinates":[8.6445,56.78215]},"properties":{"id":"relation/19172884","name":"Outrup Vindmøller","fuel":"wind_onshore","source":"wind","method":"wind_turbine","capacityMW":1.32,"operator":null,"start":"1997-07-07","osmType":"relation"}},{"type":"Feature","geometry":{"type":"Point","coordinates":[8.40228,56.78224]},"properties":{"id":"relation/19172885","name":"Vestergård Vindmøllepark","fuel":"wind_onshore","source":"wind","method":"wind_turbine","capacityMW":4.35,"operator":null,"start":"1995-11-29","osmType":"relation"}},{"type":"Feature","geometry":{"type":"Point","coordinates":[8.47151,56.84334]},"properties":{"id":"relation/19172886","name":"Gisselbæk Vindmøller","fuel":"wind_onshore","source":"wind","method":"wind_turbine","capacityMW":5.25,"operator":null,"start":"2002-12-12","osmType":"relation"}},{"type":"Feature","geometry":{"type":"Point","coordinates":[8.34668,56.82739]},"properties":{"id":"relation/19172887","name":"Spajlsgårde Vindmøller","fuel":"wind_onshore","source":"wind","method":"wind_turbine","capacityMW":3,"operator":null,"start":"2002-12-19","osmType":"relation"}},{"type":"Feature","geometry":{"type":"Point","coordinates":[8.51943,56.86345]},"properties":{"id":"relation/19172888","name":"Harring Vindmøller","fuel":"wind_onshore","source":"wind","method":"wind_turbine","capacityMW":2.55,"operator":null,"start":"2002-12-17","osmType":"relation"}},{"type":"Feature","geometry":{"type":"Point","coordinates":[8.54594,56.84477]},"properties":{"id":"relation/19172889","name":"Tøttrup Vindmøller","fuel":"wind_onshore","source":"wind","method":"wind_turbine","capacityMW":3.5,"operator":null,"start":"2005-04-06","osmType":"relation"}},{"type":"Feature","geometry":{"type":"Point","coordinates":[8.47065,56.87563]},"properties":{"id":"relation/19172890","name":"Hørsted Vindmøller","fuel":"wind_onshore","source":"wind","method":"wind_turbine","capacityMW":2.4,"operator":null,"start":"1997-05-21","osmType":"relation"}},{"type":"Feature","geometry":{"type":"Point","coordinates":[8.49489,56.9133]},"properties":{"id":"relation/19172891","name":"Røde Anes Vej Vindmøller","fuel":"wind_onshore","source":"wind","method":"wind_turbine","capacityMW":2.4,"operator":null,"start":"1996-06-05","osmType":"relation"}},{"type":"Feature","geometry":{"type":"Point","coordinates":[8.62351,56.45965]},"properties":{"id":"relation/19172892","name":"Quistrup Vindmøller","fuel":"wind_onshore","source":"wind","method":"wind_turbine","capacityMW":9,"operator":null,"start":"2012-05-21","osmType":"relation"}},{"type":"Feature","geometry":{"type":"Point","coordinates":[8.60794,56.425]},"properties":{"id":"relation/19172893","name":"Ausumgaard Vindmøller","fuel":"wind_onshore","source":"wind","method":"wind_turbine","capacityMW":12.3,"operator":null,"start":"2012-09-05","osmType":"relation"}},{"type":"Feature","geometry":{"type":"Point","coordinates":[8.61804,56.4087]},"properties":{"id":"relation/19172894","name":"Sir Østergårdvej Vindmøllepark","fuel":"wind_onshore","source":"wind","method":"wind_turbine","capacityMW":6.6,"operator":null,"start":"2000-10-30","osmType":"relation"}},{"type":"Feature","geometry":{"type":"Point","coordinates":[8.56135,56.43015]},"properties":{"id":"relation/19172895","name":"Vejrum Vindmøllepark","fuel":"wind_onshore","source":"wind","method":"wind_turbine","capacityMW":4.8,"operator":null,"start":"1996-07-03","osmType":"relation"}},{"type":"Feature","geometry":{"type":"Point","coordinates":[8.48472,56.44907]},"properties":{"id":"relation/19172896","name":"Hedevej Vindmøllepark","fuel":"wind_onshore","source":"wind","method":"wind_turbine","capacityMW":8,"operator":null,"start":"2000-05-09","osmType":"relation"}},{"type":"Feature","geometry":{"type":"Point","coordinates":[8.47443,56.3793]},"properties":{"id":"relation/19172911","name":"Gedmose Vindmøllepark","fuel":"wind_onshore","source":"wind","method":"wind_turbine","capacityMW":21.3,"operator":null,"start":"1996-10-10","osmType":"relation"}},{"type":"Feature","geometry":{"type":"Point","coordinates":[8.25494,56.37482]},"properties":{"id":"relation/19172948","name":"Nees Vindmøller","fuel":"wind_onshore","source":"wind","method":"wind_turbine","capacityMW":19.8,"operator":null,"start":"2009-12-02","osmType":"relation"}},{"type":"Feature","geometry":{"type":"Point","coordinates":[8.28728,56.36324]},"properties":{"id":"relation/19172949","name":"Skalstrup Vindmøllegruppe","fuel":"wind_onshore","source":"wind","method":"wind_turbine","capacityMW":3,"operator":null,"start":"1997-05-13","osmType":"relation"}},{"type":"Feature","geometry":{"type":"Point","coordinates":[8.272,56.34762]},